[{"name": "Dr. Trevor Brooks Plastic Surgery", "address": "1335 Trans Canada Way S E #2, Medicine Hat, AB T1B 1J1", "city": "Medicine Hat", "phone": "+1 403-487-0460", "website": "https://www.essentialsmedispa.ca/", "rating": 4.8, "reviews": 19, "place_id": "ChIJ5X3UQ-8sE1MRpJy3nWDTyfc", "latitude": 50.0046847, "longitude": -110.6605536, "care_type": "Plastic Surgeon"}, {"name": "Papillon Advanced Medical Aesthetics", "address": "74 Elizabeth St #1C, Okotoks, AB T1S 0N4", "city": "Okotoks", "phone": "+1 403-982-7771", "website": "http://www.papillonmedical.com/", "rating": 4.8, "reviews": 142, "place_id": "ChIJ5wcncTSYcVMRRzQt8Ls2XFk", "latitude": 50.7258738, "longitude": -113.97878, "care_type": "Plastic Surgeon"}, {"name": "Juventas Medical Aesthetics", "address": "106 Southbank Road #301, Okotoks, AB T1S 5V4", "city": "Okotoks", "phone": "+1 403-462-1405", "website": "http://www.juventasmedicalaesthetics.com/", "rating": 5.0, "reviews": 18, "place_id": "ChIJ6ZPNvRGZcVMRq13Zj3iPpuY", "latitude": 50.7076546, "longitude": -113.9463826, "care_type": "Plastic Surgeon"}, {"name": "Faces Dermatology Skin Care Clinic/Established, 2004", "address": "#111, 109 Southbank Blvd, Okotoks, AB T1S 0K4", "city": "Okotoks", "phone": "+1 403-818-1307", "website": "https://www.facesdermskincare.ca/", "rating": 4.8, "reviews": 66, "place_id": "ChIJ4zP1aDOYcVMRhRVM1YnjAWc", "latitude": 50.704087, "longitude": -113.945311, "care_type": "Plastic Surgeon"}, {"name": "The New You Laser Skin Care Clinic", "address": "21 N Railway St #105, Okotoks, AB T1S 1J3", "city": "Okotoks", "phone": "+1 587-432-5525", "website": "http://newyoulaserskinclinic.com/", "rating": 5.0, "reviews": 33, "place_id": "ChIJMdIX_3OZcVMRI7AtA-S5r7Y", "latitude": 50.7247188, "longitude": -113.9706438, "care_type": "Plastic Surgeon"}, {"name": "Dr. Kristina Zakhary - Rhinoplasty & Facial Plastic Surgery Clinic", "address": "2303 4 St SW #404, Calgary, AB T2S 2S7", "city": "Calgary", "phone": "+1 403-775-2583", "website": "https://www.facialcosmeticsurgery.ca/", "rating": 4.9, "reviews": 205, "place_id": "ChIJB-FUyxlwcVMRo7762_HnWOY", "latitude": 51.0321154, "longitude": -114.0718167, "care_type": "Plastic Surgeon"}, {"name": "Macleod Trail Plastic Surgery", "address": "7425 Macleod Trl SW, Calgary, AB T2H 0L8", "city": "Calgary", "phone": "+1 403-452-7953", "website": "https://www.macleodtrailplasticsurgery.ca/", "rating": 4.9, "reviews": 125, "place_id": "ChIJXcz_tAJxcVMR4vx1dlXS-lk", "latitude": 50.9869964, "longitude": -114.0722015, "care_type": "Plastic Surgeon"}, {"name": "Maple Grove Aesthetics", "address": "4100 70 Ave Unit 103, Lloydminster, AB T9V 2X3", "city": "Lloydminster", "phone": "+1 780-874-1070", "website": "http://www.maplegroveaesthetics.ca/", "rating": 5.0, "reviews": 10, "place_id": "ChIJzaF3ZLizCVMR6Ia4FRwcJLo", "latitude": 53.27421649999999, "longitude": -110.0485379, "care_type": "Plastic Surgeon"}, {"name": "The Well Medical Aesthetics & Wellness Clinic (Formerly Collective Beauty)", "address": "The Cobbs Block Central, 5015 50 St Unit 107, Sylvan Lake, AB T4S 1P9", "city": "Sylvan Lake", "phone": "+1 587-876-9192", "website": "https://www.thewellmedicalaesthetics.com/", "rating": 5.0, "reviews": 20, "place_id": "ChIJ7aRJMgSzdVMR5UIUiSeFe1o", "latitude": 52.3089005, "longitude": -114.0971652, "care_type": "Plastic Surgeon"}, {"name": "Banff Plastic Surgery", "address": "304 Old Canmore Rd #217, Canmore, AB T1W 0L5", "city": "Canmore", "phone": "+1 403-762-2055", "website": "http://www.banffplasticsurgery.ca/", "rating": 4.1, "reviews": 24, "place_id": "ChIJTcPyhEXKcFMRchCN2YziPm0", "latitude": 51.08847, "longitude": -115.34592, "care_type": "Plastic Surgeon"}, {"name": "Ageless Living Cold Lake", "address": "5014 50 Ave #103, Cold Lake, AB T9M 0L1", "city": "Cold Lake", "phone": "+1 780-594-0025", "website": "https://agelesslivingcoldlake.ca/", "rating": 4.8, "reviews": 78, "place_id": "ChIJd88f3TrKp1MRWNH7rC_qXFc", "latitude": 54.4135475, "longitude": -110.2068862, "care_type": "Plastic Surgeon"}, {"name": "Gold Beauty Bar", "address": "4905 50 Ave A, Cold Lake, AB T9M 0G1", "city": "Cold Lake", "phone": "+1 780-680-9778", "website": "https://goldbeautybar.janeapp.com/", "rating": 4.8, "reviews": 54, "place_id": "ChIJXTNkH5HLp1MRWxL4-aWZjrM", "latitude": 54.4130896, "longitude": -110.2049503, "care_type": "Plastic Surgeon"}, {"name": "Sue West RN", "address": "4718 49b Ave #3, Lacombe, AB T4L 1K2", "city": "Lacombe", "phone": "+1 403-357-9630", "website": "https://www.suewest.ca/", "rating": 5.0, "reviews": 10, "place_id": "ChIJu12XimMFdVMRSN7ePuUSdaQ", "latitude": 52.4624708, "longitude": -113.7322078, "care_type": "Plastic Surgeon"}, {"name": "Westrick Clinic", "address": "4716 49b Ave, Lacombe, AB T4L 1K2", "city": "Lacombe", "phone": "+1 403-789-8296", "website": "https://www.westrickclinic.com/", "rating": 5.0, "reviews": 18, "place_id": "ChIJpcVCypMeBkwRavFArZpv3jc", "latitude": 52.4624022, "longitude": -113.7321015, "care_type": "Plastic Surgeon"}, {"name": "Empowered Beauty and Therapeutics", "address": "81 Bruns Crescent, Lacombe, AB T4L 1P2", "city": "Lacombe", "phone": "+1 587-377-3628", "website": "http://www.empoweredbt.ca/", "rating": 5.0, "reviews": 83, "place_id": "ChIJfZRtNGoFdVMR26AYdVodaHg", "latitude": 52.4739035, "longitude": -113.7255406, "care_type": "Plastic Surgeon"}, {"name": "Radiance Plastic Surgery - Dr. Michael Laliberte MD, FRCSC", "address": "1120 Railway Ave #104, Canmore, AB T1W 1P4", "city": "Canmore", "phone": "+1 403-678-2020", "website": "https://www.radianceplasticsurgery.ca/", "rating": 4.7, "reviews": 279, "place_id": "ChIJh39jNSTFcFMRGMjBXmgUsGA", "latitude": 51.091907, "longitude": -115.3560115, "care_type": "Plastic Surgeon"}, {"name": "Calgary Plastic Surgery Centre", "address": "8500 Blackfoot Trl SE Suite 390, Calgary, AB T2H 2B2", "city": "Calgary", "phone": "+1 587-956-7393", "website": "https://calgaryplasticsurgerycentre.com/", "rating": 4.6, "reviews": 50, "place_id": "ChIJcQvTUOJxcVMR3ys_KHa31gM", "latitude": 50.9768796, "longitude": -114.0464111, "care_type": "Plastic Surgeon"}, {"name": "The Plastic Surgery Centre", "address": "1030 10 Ave SW, Calgary, AB T2R 1M4", "city": "Calgary", "phone": "+1 403-228-1313", "website": "http://plasticsurgerycentre.ca/", "rating": 4.8, "reviews": 33, "place_id": "ChIJBW5jFNhvcVMRLBMaypHJJlU", "latitude": 51.0440909, "longitude": -114.0856428, "care_type": "Plastic Surgeon"}, {"name": "Dr. Paul Whidden", "address": "7425 Macleod Trl SW, Calgary, AB T2H 0L8", "city": "Calgary", "phone": "+1 403-228-2684", "website": "https://www.macleodtrailplasticsurgery.ca/about-us/our-surgeons/dr-whidden%3Futm_source%3Dgoogle%26utm_medium%3Dlocal%26utm_campaign%3Dcalgary-whidden-website", "rating": 5.0, "reviews": 30, "place_id": "ChIJXcz_tAJxcVMRr32_JC1pXYE", "latitude": 50.9869628, "longitude": -114.0723993, "care_type": "Plastic Surgeon"}, {"name": "Jeffrey C. Dawes MD, FRCSC", "address": "47 Sunpark Dr SE #102, Calgary, AB T2X 3V4", "city": "Calgary", "phone": "+1 403-571-3141", "website": "https://www.beautifulnaturalyou.ca/", "rating": 4.7, "reviews": 196, "place_id": "ChIJjVdtOnp2cVMRKSQXaLvndz4", "latitude": 50.9040396, "longitude": -114.0557353, "care_type": "Plastic Surgeon"}, {"name": "Cerulean Plastic Surgery Centre", "address": "1100 1st St SE Unit 505, Calgary, AB T2G 1B1", "city": "Calgary", "phone": "+1 403-225-2141", "website": "http://ceruleansurgery.com/", "rating": 5.0, "reviews": 21, "place_id": "ChIJRz7Kls5xcVMRNrYCr24inzs", "latitude": 51.0420116, "longitude": -114.0603366, "care_type": "Plastic Surgeon"}, {"name": "Dr. Douglas Humphreys", "address": "7425 Macleod Trl SW, Calgary, AB T2H 0L8", "city": "Calgary", "phone": "+1 403-242-5080", "website": "https://www.macleodtrailplasticsurgery.ca/about-us/our-surgeons/dr-humphreys%3Futm_source%3Dgoogle%26utm_medium%3Dlocal%26utm_campaign%3Dcalgary-humphreys-website", "rating": 5.0, "reviews": 8, "place_id": "ChIJtXQPm_1xcVMRmE9cAAvypKU", "latitude": 50.986961, "longitude": -114.0724047, "care_type": "Plastic Surgeon"}, {"name": "Plastic Surgery Associates", "address": "2004 14 St NW #200, Calgary, AB T2M 3N3", "city": "Calgary", "phone": "+1 368-887-9250", "website": "http://plasticsurgerycalgary.ca/", "rating": 4.2, "reviews": 26, "place_id": "ChIJjbB3EJBvcVMRd2NcFaw2KhY", "latitude": 51.0698831, "longitude": -114.0939397, "care_type": "Plastic Surgeon"}, {"name": "Dr. Brett A. Byers", "address": "7425 Macleod Trl SW, Calgary, AB T2H 0L8", "city": "Calgary", "phone": "+1 403-229-2906", "website": "https://www.macleodtrailplasticsurgery.ca/about-us/our-surgeons/dr-byers%3Futm_source%3Dgoogle%26utm_medium%3Dlocal%26utm_campaign%3Dcalgary-byers-website", "rating": 5.0, "reviews": 12, "place_id": "ChIJW8z_tAJxcVMRCugABl34S_Y", "latitude": 50.98699, "longitude": -114.0724182, "care_type": "Plastic Surgeon"}, {"name": "One Medical Aesthetics", "address": "78 Saddlepeace Mnr NE #112, Calgary, AB T3J 2H9", "city": "Calgary", "phone": "+1 403-815-4444", "website": "https://oneaesthetics.ca/", "rating": 4.9, "reviews": 0, "place_id": "ChIJj5Oz2i9jcVMRTEcN4nj1mC8", "latitude": 51.1316453, "longitude": -113.966036, "care_type": "Plastic Surgeon"}, {"name": "PSC | Dr. Earl Campbell MD", "address": "1030 10 Ave SW, Calgary, AB T2R 1M4", "city": "Calgary", "phone": "+1 403-228-2511", "website": "https://plasticsurgerycentre.ca/", "rating": 4.7, "reviews": 30, "place_id": "ChIJXy-Gy-JvcVMRM6j2KLoSYEs", "latitude": 51.04409589999999, "longitude": -114.0856907, "care_type": "Plastic Surgeon"}, {"name": "Precision Academy", "address": "Located inside Sama Sama Studio, 1420 9 Ave SE #8, Calgary, AB T2G 0T5", "city": "Calgary", "phone": "", "website": "https://www.precisionca.ca/", "rating": 5.0, "reviews": 0, "place_id": "ChIJLdONdkd7cVMRllodh884mr4", "latitude": 51.0398463, "longitude": -114.0303079, "care_type": "Plastic Surgeon"}, {"name": "Vitality Restoration & Aesthetics Ltd.", "address": "101, 5015 50 Ave, Camrose, AB T4V 1R1", "city": "Camrose", "phone": "+1 780-679-7004", "website": "https://www.vitalitycamrose.com/", "rating": 5.0, "reviews": 48, "place_id": "ChIJhVzTpcS7ClMRNqoguOaMROU", "latitude": 53.0220555, "longitude": -112.8260835, "care_type": "Plastic Surgeon"}, {"name": "C2 Laser & Aesthetics", "address": "4912 46 St, Camrose, AB T4V 1H1", "city": "Camrose", "phone": "+1 780-608-0948", "website": "https://c2laserandaesthetics.com/", "rating": 5.0, "reviews": 28, "place_id": "ChIJX8j1uxu7ClMRmH1YIhoYex0", "latitude": 53.0210863, "longitude": -112.8190516, "care_type": "Plastic Surgeon"}, {"name": "Jeunesse Aesthetics", "address": "1 6601 48 Ave, Camrose, AB T4V 3G8", "city": "Camrose", "phone": "+1 780-679-2556", "website": "http://jeunesseaesthetics.ca/", "rating": 4.9, "reviews": 19, "place_id": "ChIJN1h55DO6ClMRUufkXz-fZds", "latitude": 53.0163311, "longitude": -112.8557357, "care_type": "Plastic Surgeon"}, {"name": "Gemini Health Inc", "address": "6708 48 Ave, Camrose, AB T4V 4S3", "city": "Camrose", "phone": "+1 780-672-9850", "website": "http://www.camrose.ca/180/Clinics-Health-Services", "rating": 3.3, "reviews": 14, "place_id": "ChIJVTEq_jO6ClMRghhjXD1990Q", "latitude": 53.018635, "longitude": -112.857688, "care_type": "Plastic Surgeon"}, {"name": "Bloom Medical Aesthetics", "address": "Railwork Commons, 304 3 St 106, Suite 209, Strathmore, AB T1P 1Z1", "city": "Strathmore", "phone": "+1 403-934-7175", "website": "https://www.bloommedicalaesthetics.ca/", "rating": 5.0, "reviews": 35, "place_id": "ChIJgZNj9ITNc1MRoeuwR4olVt0", "latitude": 51.0416868, "longitude": -113.3978994, "care_type": "Plastic Surgeon"}, {"name": "Dr. Farrah Yau, Plastic & Reconstructive Surgeon", "address": "1035 64 Ave SE Suite #218, Calgary, AB T2H 2J7", "city": "Calgary", "phone": "+1 587-352-3260", "website": "https://www.sculptiq.com/", "rating": 4.6, "reviews": 52, "place_id": "ChIJFWqiqCtxcVMRiNd2lmdInqM", "latitude": 50.9952765, "longitude": -114.0415995, "care_type": "Plastic Surgeon"}, {"name": "Hamilton George D Dr", "address": "14 Richard Way SW #22, Calgary, AB T3E 7M9", "city": "Calgary", "phone": "+1 587-353-0244", "website": "http://www.plastic-surgery-calgary.com/", "rating": 4.9, "reviews": 57, "place_id": "ChIJDwRVwZRxcVMRT2WCNdLVYTU", "latitude": 51.0063906, "longitude": -114.1299651, "care_type": "Plastic Surgeon"}, {"name": "art&fact", "address": "2403 33 Ave SW Unit 1, Calgary, AB T2T 2A2", "city": "Calgary", "phone": "+1 403-800-9157", "website": "http://artandfact.ca/", "rating": 4.7, "reviews": 85, "place_id": "ChIJPRSOrC9xcVMRUZAAJQSNVXs", "latitude": 51.023722, "longitude": -114.1148559, "care_type": "Plastic Surgeon"}, {"name": "Demsey Plastic Surgery: Daniel Demsey, MD", "address": "55 Christie Point SW, Calgary, AB T3H 3K8", "city": "Calgary", "phone": "+1 403-209-4333", "website": "https://www.demseymd.ca/%3Futm_source%3Dgoogle%26utm_medium%3Dlocal%26utm_campaign%3Dcalgary-demsey-website", "rating": 5.0, "reviews": 69, "place_id": "ChIJW__ftbhvcVMR0HPx66CGyZA", "latitude": 51.0374723, "longitude": -114.1786791, "care_type": "Plastic Surgeon"}, {"name": "Ryan C. Frank, MD, FRCS(C)", "address": "333 24 Ave SW Suite 300, Calgary, AB T2S 3E6", "city": "Calgary", "phone": "+1 403-245-1228", "website": "https://www.ryanfrankmd.com/", "rating": 4.6, "reviews": 42, "place_id": "ChIJZRgJKxhwcVMRkZR2VuPYfhw", "latitude": 51.0312583, "longitude": -114.0709709, "care_type": "Plastic Surgeon"}, {"name": "Banff Plastic Surgery - Post-Operative Clinic", "address": "1011 Glenmore Trail SW #258, Calgary, AB T2V 4R6", "city": "Calgary", "phone": "+1 403-264-3600", "website": "http://www.banffplasticsurgery.ca/", "rating": 5.0, "reviews": 2, "place_id": "ChIJkQzQtABxcVMROAbnywXFHjA", "latitude": 50.993845, "longitude": -114.085571, "care_type": "Plastic Surgeon"}, {"name": "Dr. Donald Graham", "address": "3007 14 St SW #301, Calgary, AB T2T 3V6", "city": "Calgary", "phone": "+1 403-247-3003", "website": "http://drdongraham.com/", "rating": 4.7, "reviews": 27, "place_id": "ChIJR8nwVfdvcVMR5g18TdrLxAE", "latitude": 51.027186, "longitude": -114.0950312, "care_type": "Plastic Surgeon"}, {"name": "Bow River Plastic Surgery", "address": "4411 16 Ave NW Suite 218, Calgary, AB T3B 0M3", "city": "Calgary", "phone": "+1 403-234-8008", "website": "http://bowriverplasticsurgery.com/", "rating": 5.0, "reviews": 2, "place_id": "ChIJkYVBQR9vcVMRTfxnOChqek0", "latitude": 51.0679637, "longitude": -114.159122, "care_type": "Plastic Surgeon"}, {"name": "Dr. Kate Elzinga, MD FRCSC, Plastic and Reconstructive Surgery", "address": "South Health Campus, 4448 Front St SE, Calgary, AB T3M 1M4", "city": "Calgary", "phone": "+1 403-956-3867", "website": "http://kateelzingamd.com/", "rating": 4.4, "reviews": 11, "place_id": "ChIJIZaOiDqdcVMRcn4Ac30D6Fc", "latitude": 50.8829211, "longitude": -113.9502279, "care_type": "Plastic Surgeon"}, {"name": "Demsey Plastic Surgery", "address": "3007 14 St SW #301, Calgary, AB T2T 3V6", "city": "Calgary", "phone": "+1 403-209-4333", "website": "https://www.demseymd.ca/%3Futm_source%3Dgoogle%26utm_medium%3Dlocal%26utm_campaign%3Dcalgary-practice-website", "rating": 5.0, "reviews": 1, "place_id": "ChIJ9dISu5RxcVMRSLGl7Nh-Pu4", "latitude": 51.0274397, "longitude": -114.0951641, "care_type": "Plastic Surgeon"}, {"name": "Eternal Beauty Medical Centre", "address": "3333 8 St SE, Calgary, AB T2G 3A4", "city": "Calgary", "phone": "+1 866-330-9490", "website": "https://eternalbeautymedicalcentre.com/", "rating": 4.7, "reviews": 69, "place_id": "ChIJ5c6pPL9xcVMR76Y4cQqIbUE", "latitude": 51.0248775, "longitude": -114.0436836, "care_type": "Plastic Surgeon"}, {"name": "YYC Botox & Fillers | Calgary Botox l Fillers l PRP l HIFU l Microneedling l Sculptra", "address": "1717 10 Ave SW, Calgary, AB T3C 0K1", "city": "Calgary", "phone": "+1 587-926-9069", "website": "https://yycbotox.com/", "rating": 4.9, "reviews": 406, "place_id": "ChIJw9mig01vcVMRv2wtcaFGOLE", "latitude": 51.0440489, "longitude": -114.1003882, "care_type": "Plastic Surgeon"}, {"name": "Lindsay Robert L Dr", "address": "7 Glenbrook Pl SW #101, Calgary, AB T3E 6V2", "city": "Calgary", "phone": "+1 403-571-3155", "website": "", "rating": 4.3, "reviews": 6, "place_id": "ChIJtXQPm_1xcVMRRwkpMUqBZzs", "latitude": 51.0221021, "longitude": -114.1614568, "care_type": "Plastic Surgeon"}, {"name": "Dr. Feng Chong B.Sc. M.D. FRCS(C)", "address": "11936 104 Ave NW Suite 203, Edmonton, AB T5K 0G6", "city": "Edmonton", "phone": "+1 780-453-3223", "website": "http://www.plasticsurgeryalberta.ca/", "rating": 4.8, "reviews": 372, "place_id": "ChIJMZhWPisioFMRjmhkrPwwWGk", "latitude": 53.5466401, "longitude": -113.5274515, "care_type": "Plastic Surgeon"}, {"name": "Toy Jonathan Dr", "address": "14310 111 Ave NW Unit 402, Edmonton, AB T5M 3Z7", "city": "Edmonton", "phone": "+1 780-758-3377", "website": "http://www.drtoyplasticsurgery.ca/", "rating": 4.9, "reviews": 85, "place_id": "ChIJzeX9HWchoFMRZg_-2TafA-Q", "latitude": 53.5593736, "longitude": -113.5684819, "care_type": "Plastic Surgeon"}, {"name": "Dr. Gorman Louie", "address": "6915 109 St NW, Edmonton, AB T6H 3B7", "city": "Edmonton", "phone": "+1 780-433-4225", "website": "https://www.meadowlarksurgicalcosmetic.com/our-doctors", "rating": 4.5, "reviews": 34, "place_id": "ChIJ5_S9nR0ioFMRf_-QIcMG6Z8", "latitude": 53.5063559, "longitude": -113.5115883, "care_type": "Plastic Surgeon"}, {"name": "Dr. Lisa Korus", "address": "Brewery District, 12020 104 Ave NW #205, Edmonton, AB T5K 0G6", "city": "Edmonton", "phone": "+1 780-469-2927", "website": "http://www.drlisakorus.com/", "rating": 4.8, "reviews": 18, "place_id": "ChIJwfzBv84eoFMRn9rJJiWYLS8", "latitude": 53.5466215, "longitude": -113.5292167, "care_type": "Plastic Surgeon"}, {"name": "Dr. Moein Momtazi", "address": "218 Meadowlark Health Centre 156 Street &, 87 Ave NW, Edmonton, AB T5R 5W9", "city": "Edmonton", "phone": "+1 780-540-9250", "website": "https://www.momtazimd.com/", "rating": 4.9, "reviews": 92, "place_id": "ChIJhfLPjwUPzkwRpT0-hcFgvfI", "latitude": 53.5206855, "longitude": -113.5933513, "care_type": "Plastic Surgeon"}, {"name": "Meadowlark Surgical Centre", "address": "15603 87 Ave NW #178, Edmonton, AB T5R 5W9", "city": "Edmonton", "phone": "+1 780-424-6520", "website": "https://www.meadowlarksurgicalcosmetic.com/", "rating": 4.8, "reviews": 0, "place_id": "ChIJdTARHbMhoFMRfrPB5aHIZFo", "latitude": 53.5218833, "longitude": -113.5926763, "care_type": "Plastic Surgeon"}, {"name": "Dr Brandon Ball", "address": "15603 St 87 Ave NW 218 Meadowlark Health Centre, Edmonton, AB T5R 5W9", "city": "Edmonton", "phone": "+1 780-217-2250", "website": "http://www.drbrandonball.com/%3Futm_source%3Dgmb%26utm_medium%3Dorganic", "rating": 4.9, "reviews": 31, "place_id": "ChIJL9sqjLIhoFMRH-3Uwf7Hiqc", "latitude": 53.5207397, "longitude": -113.5924065, "care_type": "Plastic Surgeon"}, {"name": "Wolfli James Dr", "address": "15603 87 Ave NW #174, Edmonton, AB T5R 5W9", "city": "Edmonton", "phone": "+1 780-433-1393", "website": "http://www.yegplasticsurgery.ca/", "rating": 4.6, "reviews": 39, "place_id": "ChIJ8yu0vM4eoFMRPIZRZYwUKdk", "latitude": 53.5211017, "longitude": -113.5924131, "care_type": "Plastic Surgeon"}, {"name": "Dr. Adil Ladak", "address": "8440 112 St NW, Edmonton, AB T6G 2J2", "city": "Edmonton", "phone": "+1 780-407-6691", "website": "https://albertaplasticsurgery.ca/", "rating": 4.3, "reviews": 23, "place_id": "ChIJ8S8qk_UhoFMRpaEjREYd9Zc", "latitude": 53.5206769, "longitude": -113.52418, "care_type": "Plastic Surgeon"}, {"name": "Dr. Andrew Mather", "address": "232 Parsons Rd SW #201, Edmonton, AB T6X 3B6", "city": "Edmonton", "phone": "+1 780-249-3838", "website": "https://www.drmather.ca/", "rating": 4.3, "reviews": 53, "place_id": "ChIJZ7x4NC4foFMRUBHTZwAo56I", "latitude": 53.4318328, "longitude": -113.4815738, "care_type": "Plastic Surgeon"}, {"name": "Dr Peter O Kwan", "address": "Kaye Edmonton Clinic, 11400 University Ave, Edmonton, AB T6G 1Z1", "city": "Edmonton", "phone": "+1 780-407-6040", "website": "", "rating": 4.3, "reviews": 12, "place_id": "ChIJXUGJofYhoFMRsUlyUEItqNU", "latitude": 53.518698, "longitude": -113.526576, "care_type": "Plastic Surgeon"}, {"name": "Dr Martin J Giuffre", "address": "156 street, 87 Ave NW #176, Edmonton, AB T5R 5W9", "city": "Edmonton", "phone": "+1 780-428-7737", "website": "http://drgiuffreplasticsurgery.com/", "rating": 3.8, "reviews": 57, "place_id": "ChIJdTARHbMhoFMRDYqV3PIjTaI", "latitude": 53.5217864, "longitude": -113.5923554, "care_type": "Plastic Surgeon"}, {"name": "Dr. Paul J Schembri", "address": "218 156 St NW, Edmonton, AB T5R 5W9", "city": "Edmonton", "phone": "+1 780-438-0123", "website": "", "rating": 4.2, "reviews": 10, "place_id": "ChIJ29vC634hoFMRaD7CNTqbCaE", "latitude": 53.52151629999999, "longitude": -113.5924574, "care_type": "Plastic Surgeon"}, {"name": "Albany Cosmetic and Laser centre", "address": "12914 167 Ave NW, Edmonton, AB T6V 1J6", "city": "Edmonton", "phone": "+1 587-520-2835", "website": "https://albanylaser.ca/", "rating": 4.8, "reviews": 0, "place_id": "ChIJE7oa4FUkoFMRtnQ-L3eCKxs", "latitude": 53.6291167, "longitude": -113.5471015, "care_type": "Plastic Surgeon"}, {"name": "Dr. Hollie Power", "address": "316 Windermere Rd NW Suite 401, Edmonton, AB T6W 2Z8", "city": "Edmonton", "phone": "+1 587-407-0424", "website": "http://www.drholliepower.com/", "rating": 5.0, "reviews": 4, "place_id": "ChIJjaB3cHf1n1MRG3VNFgO59Mo", "latitude": 53.4402547, "longitude": -113.6188686, "care_type": "Plastic Surgeon"}, {"name": "Advanced Facial and Nasal Surgery Centre", "address": "11122 142 St NW, Edmonton, AB T5M 4G5", "city": "Edmonton", "phone": "+1 780-428-7824", "website": "http://www.advancedfacialsurgery.ca/", "rating": 4.1, "reviews": 41, "place_id": "ChIJaegBK2choFMRoYkcxbQsO30", "latitude": 53.5597638, "longitude": -113.5662104, "care_type": "Plastic Surgeon"}, {"name": "Youthful Image", "address": "10665 Jasper Ave #940, Edmonton, AB T5J 3S9", "city": "Edmonton", "phone": "+1 780-424-4440", "website": "http://www.youthfulimage.com/", "rating": 3.9, "reviews": 63, "place_id": "ChIJKbexIDgioFMRUUnyjdMlxB4", "latitude": 53.540499, "longitude": -113.50408, "care_type": "Plastic Surgeon"}, {"name": "Dr. Ashwani K. Singh", "address": "11526 Jasper Ave, Edmonton, AB T5K 0M8", "city": "Edmonton", "phone": "+1 780-428-9333", "website": "http://www.cosmedics.ca/", "rating": 4.4, "reviews": 56, "place_id": "ChIJMVJO1zEioFMRjDTzQMmTVkg", "latitude": 53.541211, "longitude": -113.5202054, "care_type": "Plastic Surgeon"}, {"name": "Edmonton Eyelids", "address": "10665 Jasper Ave #1190, Edmonton, AB T5J 3S9", "city": "Edmonton", "phone": "+1 780-425-4521", "website": "https://edmontoneyelids.ca/", "rating": 4.4, "reviews": 30, "place_id": "ChIJl4p1ijcioFMRc3Vhg3jj_uM", "latitude": 53.5406308, "longitude": -113.5040129, "care_type": "Plastic Surgeon"}, {"name": "Dr. Emilie Robertson Plastic Surgery", "address": "6915 109 St NW #102, Edmonton, AB T6H 3B7", "city": "Edmonton", "phone": "+1 780-969-6749", "website": "https://www.dremilierobertson.ca/", "rating": null, "reviews": 0, "place_id": "ChIJAY0qjC8hoFMR9J9UJtl7N4c", "latitude": 53.5062878, "longitude": -113.5116856, "care_type": "Plastic Surgeon"}, {"name": "Nakatsui DermaSurgery", "address": "9670 142 St NW Suite 200, Edmonton, AB T5N 4B2", "city": "Edmonton", "phone": "+1 780-482-1414", "website": "https://nakatsuiderm.com/", "rating": 4.6, "reviews": 297, "place_id": "ChIJwWe40Z4hoFMRVnedOIrBJHo", "latitude": 53.5342241, "longitude": -113.5669792, "care_type": "Plastic Surgeon"}, {"name": "Bespoke Beauty by Nurse Sheena", "address": "11011 26 Ave NW, Edmonton, AB T6J 5V3", "city": "Edmonton", "phone": "+1 780-777-0805", "website": "https://bespoke-beauty.ca/", "rating": 5.0, "reviews": 257, "place_id": "ChIJS-E2ctcZoFMR745Llsexuug", "latitude": 53.4565882, "longitude": -113.5140401, "care_type": "Plastic Surgeon"}, {"name": "Lucere Cosmetic and Laser Clinic", "address": "10129 109 St NW, Edmonton, AB T5J 3P1", "city": "Edmonton", "phone": "+1 780-461-1188", "website": "https://lucereskin.com/", "rating": 4.7, "reviews": 207, "place_id": "ChIJo_HB6r8joFMR58X_BeIT4uU", "latitude": 53.5419407, "longitude": -113.5081017, "care_type": "Plastic Surgeon"}, {"name": "CosMedics", "address": "11526 Jasper Ave, Edmonton, AB T5K 0M8", "city": "Edmonton", "phone": "+1 780-428-9333", "website": "http://www.cosmedics.ca/%3Futm_campaign%3Dgmb", "rating": 4.6, "reviews": 249, "place_id": "ChIJMVJO1zEioFMR7Xo0caRrEYQ", "latitude": 53.5411215, "longitude": -113.5202419, "care_type": "Plastic Surgeon"}, {"name": "Riegel Timothy Dr", "address": "6040 Andrews Way SW #301, Edmonton, AB T6W 3S9", "city": "Edmonton", "phone": "+1 780-407-6322", "website": "http://physiologix.ca/", "rating": 3.7, "reviews": 3, "place_id": "ChIJz8nzAh4ioFMR7FcxUSGyk0s", "latitude": 53.4301699, "longitude": -113.59211, "care_type": "Plastic Surgeon"}, {"name": "Lucere Dermatology & Laser Clinic", "address": "625 Parsons Rd SW #113, Edmonton, AB T6X 0N9", "city": "Edmonton", "phone": "+1 780-461-1188", "website": "https://lucereskin.com/", "rating": 4.5, "reviews": 1039, "place_id": "ChIJ9T2S4pgeoFMR9aa_A6U30oo", "latitude": 53.427867, "longitude": -113.4787121, "care_type": "Plastic Surgeon"}, {"name": "Balwin Aesthetics", "address": "8103 127 Ave NW # 17, Edmonton, AB T5C 1R9", "city": "Edmonton", "phone": "+1 587-415-1251", "website": "https://www.balwinaesthetics.com/", "rating": 4.9, "reviews": 90, "place_id": "ChIJaXwLiw0joFMREBJBHe6Yakg", "latitude": 53.5838911, "longitude": -113.4665114, "care_type": "Plastic Surgeon"}, {"name": "Marlee Patricia Aesthetics-Lip Fillers, Botox and Injectables", "address": "12040 107 Ave NW, Edmonton, AB T5H 0W7", "city": "Edmonton", "phone": "+1 780-984-5968", "website": "http://marleepatriciaaesthetics.ca/", "rating": 5.0, "reviews": 56, "place_id": "ChIJ9dEAqMc9oFMR0DsB6hXH-oE", "latitude": 53.55148, "longitude": -113.53053, "care_type": "Plastic Surgeon"}, {"name": "Dr. Curtis Budden", "address": "Department of Surgery University of Alberta Hospital WMC, 8440 112 St NW", "city": "Edmonton", "phone": "+1 780-407-2449", "website": "http://drbudden.ca/", "rating": null, "reviews": 0, "place_id": "ChIJUZWBwfUhoFMR6Gm3ux02QPQ", "latitude": 53.5207104, "longitude": -113.523782, "care_type": "Plastic Surgeon"}, {"name": "Dr Dumestre", "address": "218 meadowlark health centre 156st &, 87 Ave NW, Edmonton, AB T5R 5W9", "city": "Edmonton", "phone": "+1 780-444-1193", "website": "", "rating": 5.0, "reviews": 6, "place_id": "ChIJURlZvSAhoFMRe_I_HqiBH18", "latitude": 53.5221092, "longitude": -113.5937134, "care_type": "Plastic Surgeon"}, {"name": "Zia Cosmetic Clinic (Stony Plain)", "address": "4402 37 St Unit 3, Stony Plain, AB T7Z 2N7", "city": "Stony Plain", "phone": "+1 780-306-8410", "website": "https://www.ziacosmetic.ca/%3Futm_source%3Dgmb%26utm_medium%3Dorganic", "rating": 4.8, "reviews": 49, "place_id": "ChIJKyqm13aPn1MRMRAN6RIyZBM", "latitude": 53.538109, "longitude": -113.982726, "care_type": "Plastic Surgeon"}, {"name": "The Face Study - Botox and Filler Stony Plain", "address": "Located In: Skin Tribe, 4910 50 St #105, Stony Plain, AB T7Z 0C5", "city": "Stony Plain", "phone": "+1 403-969-8976", "website": "https://thefacestudy.ca/", "rating": 5.0, "reviews": 8, "place_id": "ChIJo9JGn1iRn1MR6DbJMl7Uha0", "latitude": 53.5302292, "longitude": -114.0077464, "care_type": "Plastic Surgeon"}, {"name": "Polar Circle Rhinoplasty Centre", "address": "213 1 Ave E, Spruce Grove, AB T7X 3X2", "city": "Spruce Grove", "phone": "", "website": "https://spruce-grove.elegantnoseenhance.com/", "rating": null, "reviews": 0, "place_id": "ChIJyYc_rXuPn1MRwVO3Ijd1sqY", "latitude": 53.541543, "longitude": -113.904647, "care_type": "Plastic Surgeon"}, {"name": "MD Spa & Laser Clinic", "address": "5001 30 Ave #105, Beaumont, AB T4X 0A9", "city": "Beaumont", "phone": "+1 780-929-9797", "website": "http://www.mdspa.ca/", "rating": 4.8, "reviews": 79, "place_id": "ChIJ-5AXai0DoFMR0S-A0O7DEfg", "latitude": 53.3396509, "longitude": -113.4161884, "care_type": "Plastic Surgeon"}, {"name": "Dr. Kody Johnson", "address": "4612 48 Ave, Red Deer, AB T4N 3S9", "city": "Red Deer", "phone": "+1 403-343-2666", "website": "", "rating": 4.3, "reviews": 15, "place_id": "ChIJc5h9paRVdFMRzC4ReerbF_Q", "latitude": 52.2657843, "longitude": -113.8093596, "care_type": "Plastic Surgeon"}, {"name": "faces dermastudio", "address": "4720 50th Ave, Leduc, AB T9E 6Y6", "city": "Leduc", "phone": "+1 587-274-2222", "website": "http://www.facesdermastudio.ca/", "rating": 5.0, "reviews": 108, "place_id": "ChIJhdNSpwv5n1MRdZZVtAgQt9w", "latitude": 53.2648913, "longitude": -113.5479013, "care_type": "Plastic Surgeon"}, {"name": "Rejuvenation Dermatology Clinic", "address": "5083 Windermere Blvd Unit 101, Edmonton, AB T6W 0J5", "city": "Edmonton", "phone": "+1 780-425-1212", "website": "https://edmonton.rejuv.ca/edmonton-south", "rating": 4.8, "reviews": 1594, "place_id": "ChIJb5XSv931n1MRhKMtKXlCiL8", "latitude": 53.4328116, "longitude": -113.5923323, "care_type": "Plastic Surgeon"}, {"name": "Dr. David McDonald Cosmetic, Plastic and Reconstructive Surgery", "address": "4612 48 Ave, Red Deer, AB T4N 3S9", "city": "Red Deer", "phone": "+1 403-343-2666", "website": "https://dr-david-mcdonald.business.site/%3Futm_source%3Dgmb%26utm_medium%3Dreferral", "rating": 4.3, "reviews": 26, "place_id": "ChIJJz_AVu1VdFMR2OXXWsTTPGk", "latitude": 52.2657843, "longitude": -113.8093596, "care_type": "Plastic Surgeon"}, {"name": "Dr Kirsten Westberg", "address": "4419 50 Ave #101a, Red Deer, AB T4N 3Z6", "city": "Red Deer", "phone": "+1 403-350-3323", "website": "http://www.drwestberg.ca/", "rating": 4.0, "reviews": 26, "place_id": "ChIJI62KAPdWdFMRBgscDtdeYLU", "latitude": 52.2640311, "longitude": -113.8133681, "care_type": "Plastic Surgeon"}, {"name": "Rodrigo Neira MD", "address": "5201 43 St, Red Deer, AB T4N 1C7", "city": "Red Deer", "phone": "+1 403-352-0045", "website": "", "rating": 3.4, "reviews": 35, "place_id": "ChIJN6K5ESFUdFMRFGzPxRpyYb8", "latitude": 52.26209369999999, "longitude": -113.8207809, "care_type": "Plastic Surgeon"}, {"name": "Lethbridge Plastic Surgery & Aesthetics", "address": "3120 32 St S Suite #330, Lethbridge, AB T1K 7B4", "city": "Lethbridge", "phone": "+1 403-381-0083", "website": "https://lpsa.ca/%3Futm_source%3DCore70%26utm_medium%3Dorganic%26utm_campaign%3DWebsiteURL", "rating": 4.9, "reviews": 237, "place_id": "ChIJ1TJ8OXOGblMR-6VC9_eHJYE", "latitude": 49.6617904, "longitude": -112.7967326, "care_type": "Plastic Surgeon"}, {"name": "DR MATTHEW SECRETAN MD FRCS(C)", "address": "3120 32 St S Unit 310, Lethbridge, AB T1K 7B4", "city": "Lethbridge", "phone": "+1 403-381-0083", "website": "https://lpsa.ca/", "rating": 4.8, "reviews": 25, "place_id": "ChIJVVVlOXOGblMR4xxHmBSMUVk", "latitude": 49.6619727, "longitude": -112.796797, "care_type": "Plastic Surgeon"}, {"name": "Southgate Surgical Suites", "address": "3120 32 St S Unit 230, Lethbridge, AB T1K 7B4", "city": "Lethbridge", "phone": "+1 403-942-6777", "website": "https://www.southgatesurgical.com/", "rating": 4.9, "reviews": 12, "place_id": "ChIJ1TJ8OXOGblMRJXOyniHA4Uw", "latitude": 49.6618761, "longitude": -112.796784, "care_type": "Plastic Surgeon"}, {"name": "The Transformation Clinic", "address": "8502 112 St, Grande Prairie, AB T8V 5X4", "city": "Grande Prairie", "phone": "+1 587-882-8801", "website": "http://ttclinic.ca/", "rating": 5.0, "reviews": 1, "place_id": "ChIJ200VRZqRkFMRolV74ddssMQ", "latitude": 55.15719739999999, "longitude": -118.8354135, "care_type": "Plastic Surgeon"}, {"name": "Captivating Boutique Aesthetics and Wellness Center", "address": "10501 67th Ave #101, Grande Prairie, AB T8W 0K8", "city": "Grande Prairie", "phone": "+1 587-771-0371", "website": "https://captivatingyou.com/", "rating": 4.9, "reviews": 336, "place_id": "ChIJNcMuWjWRkFMRRbKC2CqMSck", "latitude": 55.14015, "longitude": -118.81323, "care_type": "Plastic Surgeon"}, {"name": "RejuvaDERM Cosmetic Dermatology & Laser Centre", "address": "9815 97 St Unit #103, Grande Prairie, AB T8V 8B9", "city": "Grande Prairie", "phone": "+1 780-533-7546", "website": "http://www.rejuvaderm.ca/", "rating": 4.8, "reviews": 178, "place_id": "ChIJO6suuEqRkFMRr4OjQXFMr6E", "latitude": 55.1694887, "longitude": -118.7847579, "care_type": "Plastic Surgeon"}, {"name": "Dermapure Airdrie (Formerly ReNue Airdrie)", "address": "2800 Main St S #2151, Airdrie, AB T4B 3G2", "city": "Airdrie", "phone": "+1 587-206-2716", "website": "https://www.dermapure.com/en/locations/airdrie/%3Futm_source%3Dgoogle%26utm_medium%3Dorganic", "rating": 4.9, "reviews": 121, "place_id": "ChIJ2fyzdr1fcVMRNRPqH83Ikgs", "latitude": 51.2653528, "longitude": -114.0039867, "care_type": "Plastic Surgeon"}, {"name": "Aspire Care Clinic", "address": "2920 Kingsview Blvd SE #3101, Airdrie, AB T4A 0A9", "city": "Airdrie", "phone": "+1 403-980-2750", "website": "http://www.aspirecare.ca/", "rating": 4.6, "reviews": 251, "place_id": "ChIJy-VKOUlfcVMR2mCuqd-EGcw", "latitude": 51.2612969, "longitude": -113.9945193, "care_type": "Plastic Surgeon"}, {"name": "O Esthetics", "address": "30 Market Blvd SE, Airdrie, AB T4A 0K9", "city": "Airdrie", "phone": "+1 587-841-0098", "website": "http://oesthetics.com/", "rating": 5.0, "reviews": 129, "place_id": "ChIJQb0kSjRfcVMRuavNPKZ8nt0", "latitude": 51.2688427, "longitude": -113.9945953, "care_type": "Plastic Surgeon"}, {"name": "Blume Aesthetics", "address": "191 Edwards Way SW #201, Airdrie, AB T4B 3E2", "city": "Airdrie", "phone": "+1 403-596-5854", "website": "https://blume-aesthetics.square.site/", "rating": 5.0, "reviews": 12, "place_id": "ChIJ1xlrez1fcVMRdouIal9PC_g", "latitude": 51.2919322, "longitude": -114.019985, "care_type": "Plastic Surgeon"}, {"name": "Aesthology Beauty Clinic", "address": "403 MacKenzie Way SW #5117, Airdrie, AB T4B 3V7", "city": "Airdrie", "phone": "+1 403-854-1213", "website": "https://www.aesthology.ca/", "rating": 5.0, "reviews": 43, "place_id": "ChIJb8MUWetfcVMRr0novSa2OGw", "latitude": 51.2892854, "longitude": -114.0246019, "care_type": "Plastic Surgeon"}, {"name": "Luxe Beaut\u00e9 Aesthetics", "address": "2000 Market St #106, Airdrie, AB T4A 0V4", "city": "Airdrie", "phone": "+1 403-969-7632", "website": "http://www.luxebeauteaesthetics.com/", "rating": 5.0, "reviews": 94, "place_id": "ChIJqzIPf4JfcVMRoCVyT90e2dw", "latitude": 51.26882999999999, "longitude": -113.99338, "care_type": "Plastic Surgeon"}, {"name": "Energize Medical Aesthetics", "address": "505 Main St S #302, Airdrie, AB T4B 3K3", "city": "Airdrie", "phone": "+1 403-960-0999", "website": "https://www.energizeaesthetics.com/%3Futm_source%3Dgoogle%26utm_medium%3Dwix_google_business_profile%26utm_campaign%3D6520504991485565553", "rating": 5.0, "reviews": 17, "place_id": "ChIJN8VbPjlfcVMR5H7bKWKp540", "latitude": 51.2886634, "longitude": -114.0150971, "care_type": "Plastic Surgeon"}, {"name": "Coopers Medical Clinic & Aesthetics", "address": "401 Coopers Blvd SW #404, Airdrie, AB T4B 4J3", "city": "Airdrie", "phone": "+1 403-234-4133", "website": "http://www.coopersmedicalclinic.ca/", "rating": 3.9, "reviews": 179, "place_id": "ChIJVx9nZNBfcVMRRF-M2rlvQkU", "latitude": 51.2578818, "longitude": -114.0226257, "care_type": "Plastic Surgeon"}, {"name": "Pearl Esthetics Inc", "address": "125 Main St S #10, Airdrie, AB T4B 0P7", "city": "Airdrie", "phone": "+1 403-483-1936", "website": "http://www.pearlestheticsinc.com/", "rating": 5.0, "reviews": 1, "place_id": "ChIJlTRqe2JfcVMR8xMheuaEkxU", "latitude": 51.2923503, "longitude": -114.0139138, "care_type": "Plastic Surgeon"}, {"name": "Dermapure Fort McMurray (formerly YMM Cosmetic and Laser Clinic)", "address": "9815 Main St, Fort McMurray, AB T9H 1T7", "city": "Fort McMurray", "phone": "+1 587-741-8696", "website": "https://www.dermapure.com/en/locations/fort-mcmurray/%3Futm_source%3Dgoogle%26utm_medium%3Dorganic", "rating": 5.0, "reviews": 496, "place_id": "ChIJhzq8PbQIsFMRa_sea2GskRY", "latitude": 56.7266795, "longitude": -111.38257, "care_type": "Plastic Surgeon"}, {"name": "Face Cosmedics Medical Spa", "address": "412 Thickwood Blvd, Fort McMurray, AB T9K 1P1", "city": "Fort McMurray", "phone": "+1 780-750-0852", "website": "https://facecosmedics.com/", "rating": 4.9, "reviews": 178, "place_id": "ChIJnXm9KSQJsFMRQ8XvQnRE3CA", "latitude": 56.733026, "longitude": -111.4306656, "care_type": "Plastic Surgeon"}, {"name": "Beauty Injectory", "address": "222 Prospect Dr, Fort McMurray, AB T9K 0W7", "city": "Fort McMurray", "phone": "+1 780-714-4003", "website": "http://www.beautyinjectoryinc.com/", "rating": 5.0, "reviews": 223, "place_id": "ChIJLTJzSMoJsFMRlGlua0zFOqY", "latitude": 56.7651178, "longitude": -111.4394342, "care_type": "Plastic Surgeon"}, {"name": "SKINNS COSMETICS", "address": "8600 Franklin Ave unit 517a, Fort McMurray, AB T9H 4G8", "city": "Fort McMurray", "phone": "+1 780-588-2234", "website": "http://www.skinnscosmetics.ca/", "rating": 4.9, "reviews": 32, "place_id": "ChIJy2XliQoPsFMRfVkpejACVPE", "latitude": 56.7205048, "longitude": -111.3609732, "care_type": "Plastic Surgeon"}, {"name": "FortMacMD Aesthetics", "address": "9711 Hardin St Unit 15, Fort McMurray, AB T9H 1L2", "city": "Fort McMurray", "phone": "+1 780-838-2216", "website": "", "rating": null, "reviews": 0, "place_id": "ChIJ2zBx5ZoJsFMRlcbd-mXVNOs", "latitude": 56.7246379, "longitude": -111.3797207, "care_type": "Plastic Surgeon"}, {"name": "SKINjections Medical Aesthetics", "address": "101 Sunset Dr #3217, Cochrane, AB T4C 0C7", "city": "Cochrane", "phone": "+1 403-303-2963", "website": "http://skinjections.ca/", "rating": 5.0, "reviews": 70, "place_id": "ChIJae1zMVFBcVMR7d4MACjB9RY", "latitude": 51.2133395, "longitude": -114.4703752, "care_type": "Plastic Surgeon"}, {"name": "SKN Loft", "address": "239 Griffin Rd E, Cochrane, AB T4C 2B9", "city": "Cochrane", "phone": "+1 403-906-1912", "website": "https://www.sknloft.ca/", "rating": 5.0, "reviews": 217, "place_id": "ChIJhcPyl_BBcVMRYOzkzldV8LA", "latitude": 51.1832609, "longitude": -114.4610511, "care_type": "Plastic Surgeon"}, {"name": "Flirt Cosmetics Studio", "address": "123 4 Ave W # 1, Cochrane, AB T4C 0A4", "city": "Cochrane", "phone": "+1 403-981-5331", "website": "https://flirtcosmetics.ca/", "rating": 5.0, "reviews": 584, "place_id": "ChIJoaqa6GI_cVMRueHu4KnvX9A", "latitude": 51.1921753, "longitude": -114.4717362, "care_type": "Plastic Surgeon"}, {"name": "Renew+Refresh Medical Spa", "address": "309 1 St E #201, Cochrane, AB T4C 1Z3", "city": "Cochrane", "phone": "+1 403-981-7600", "website": "https://www.renewrefreshmedicalspa.com/%3Futm_source%3Dgoogle%26utm_medium%3Dorganic%26utm_campaign%3Dgmb-listing", "rating": 5.0, "reviews": 458, "place_id": "ChIJqY9P82I_cVMRMpCUzkYzG_A", "latitude": 51.18771109999999, "longitude": -114.4626278, "care_type": "Plastic Surgeon"}, {"name": "Candid Cosmedics", "address": "101 Sunset Dr # 4217, Cochrane, AB T4C 0W7", "city": "Cochrane", "phone": "+1 403-774-7466", "website": "http://www.candidcosmedics.com/", "rating": 5.0, "reviews": 70, "place_id": "ChIJ-cXkEbFAcVMR8aZWGhCoBBA", "latitude": 51.213501, "longitude": -114.470757, "care_type": "Plastic Surgeon"}, {"name": "Luxe Medical Spa and Laser", "address": "10101 86 Ave #305, Fort Saskatchewan, AB T8L 0T6", "city": "Fort Saskatchewan", "phone": "+1 780-267-9500", "website": "http://www.luxemedicalspaandlaser.com/", "rating": 5.0, "reviews": 332, "place_id": "ChIJzYsNTh5HoFMRNVhw7rm3-Nc", "latitude": 53.6980546, "longitude": -113.2015708, "care_type": "Plastic Surgeon"}, {"name": "Skin Effect Laser and Medical Aesthetics", "address": "10441 99 Ave #701, Fort Saskatchewan, AB T8L 0V6", "city": "Fort Saskatchewan", "phone": "+1 780-935-7546", "website": "https://www.skineffect.ca/%3Futm_source%3Dgoogle%26utm_medium%3Dwix_google_business_profile%26utm_campaign%3D12157316194120078711", "rating": 5.0, "reviews": 157, "place_id": "ChIJhxc81aJHoFMRFfaw7scWNHw", "latitude": 53.7123789, "longitude": -113.2056424, "care_type": "Plastic Surgeon"}, {"name": "Dermapure Sherwood Park (Formerly Ethemba Health and Image Centres)", "address": "2018 Sherwood Dr #216, Sherwood Park, AB T8A 5V3", "city": "Sherwood Park", "phone": "+1 587-206-5065", "website": "https://www.dermapure.com/en/locations/sherwood-park/%3Futm_source%3Dgoogle%26utm_medium%3Dorganic", "rating": 5.0, "reviews": 333, "place_id": "ChIJ1RB1OjQWoFMRS_AhwMd_wQA", "latitude": 53.5284902, "longitude": -113.2933363, "care_type": "Plastic Surgeon"}, {"name": "Excellence Medical & Skin Care Clinic", "address": "80 Chippewa Rd #76, Sherwood Park, AB T8A 4W6", "city": "Sherwood Park", "phone": "+1 780-570-5855", "website": "http://www.excellencemedicalandskincareclinic.com/", "rating": 4.5, "reviews": 134, "place_id": "ChIJGxuO8tAXoFMReCyH-wJUOvE", "latitude": 53.5355776, "longitude": -113.3250505, "care_type": "Plastic Surgeon"}, {"name": "Ali AestheticsMD", "address": "41 Broadway Blvd #18, Sherwood Park, AB T8H 2C1", "city": "Sherwood Park", "phone": "+1 825-401-2863", "website": "https://aliaestheticsmd.com/", "rating": 5.0, "reviews": 10, "place_id": "ChIJBQCN4V89oFMRKFCMziPBcbY", "latitude": 53.5454756, "longitude": -113.3176944, "care_type": "Plastic Surgeon"}, {"name": "Sherwood Park Laser Clinic", "address": "849 Premier Way #120, Sherwood Park, AB T8H 0N6", "city": "Sherwood Park", "phone": "+1 780-449-1225", "website": "https://www.sherwoodparklaserclinic.com/", "rating": 4.8, "reviews": 65, "place_id": "ChIJd6vv1NYXoFMRQYbgnKTN6fU", "latitude": 53.55707229999999, "longitude": -113.3136275, "care_type": "Plastic Surgeon"}, {"name": "DermaLux Medical Aesthetics", "address": "150 Broadway Crescent #132, Sherwood Park, AB T8H 0V3", "city": "Sherwood Park", "phone": "+1 780-293-8110", "website": "http://www.dermaluxmedispa.com/", "rating": 5.0, "reviews": 415, "place_id": "ChIJCXCnPpMXoFMRPTkgxSFuBrA", "latitude": 53.54645799999999, "longitude": -113.312849, "care_type": "Plastic Surgeon"}, {"name": "Dr. Vance Elliott - Advanced Hair and Skin", "address": "501 Bethel Dr Unit 113, Sherwood Park, AB T8H 0N2", "city": "Sherwood Park", "phone": "+1 780-416-8999", "website": "https://www.drvanceelliott.com/", "rating": 3.8, "reviews": 37, "place_id": "ChIJny-ubSkWoFMRdpnN27iFlpc", "latitude": 53.5452352, "longitude": -113.3030936, "care_type": "Plastic Surgeon"}, {"name": "Cosmetic Medical Clinic & Vein Clinic (Dr. Nich Morison)", "address": "225 Carleton Dr Suite 101, St. Albert, AB T8N 4J9", "city": "St. Albert", "phone": "+1 780-459-7769", "website": "https://www.cosmeticmedicalclinic.com/", "rating": 4.6, "reviews": 81, "place_id": "ChIJo5EYf-MloFMRsvV6j5FzmTI", "latitude": 53.64907609999999, "longitude": -113.569204, "care_type": "Plastic Surgeon"}, {"name": "Fine Lines Medical Aesthetics", "address": "41 St Thomas St Unit 225, St. Albert, AB T8N 6Z1", "city": "St. Albert", "phone": "+1 780-544-8470", "website": "https://www.finelinesmed.com/", "rating": 4.9, "reviews": 124, "place_id": "ChIJPcgdt3cmoFMR7KD61tNncqE", "latitude": 53.6328447, "longitude": -113.6260158, "care_type": "Plastic Surgeon"}, {"name": "Essentials Medi Spa", "address": "1335 Trans Canada Way S E #2, Medicine Hat, AB T1B 1J1", "city": "Medicine Hat", "phone": "+1 403-487-0460", "website": "https://essentialsmedispa.ca/", "rating": 4.8, "reviews": 0, "place_id": "ChIJSc7uOOAtE1MR7xbydSw7BRU", "latitude": 50.0047571, "longitude": -110.66039, "care_type": "Plastic Surgeon"}]