[{"name": "Northwest Arkansas Center for Plastic Surgery", "address": "3721 S Champions Dr Unit 210, Rogers, AR 72758", "city": "Rogers", "phone": "+1 479-571-3100", "website": "https://www.nwacenterforplasticsurgery.com/", "rating": 4.8, "reviews": 474, "place_id": "ChIJvXoPqA9syYcRyAZBg5nzP5U", "latitude": 36.3014357, "longitude": -94.18621549999999, "care_type": "Plastic Surgeon"}, {"name": "Arkansas Plastic Surgery", "address": "9500 Kanis Rd Suite 502, Little Rock, AR 72205", "city": "Little Rock", "phone": "+1 501-219-8388", "website": "https://arkansasplasticsurgery.com/%3Futm_source%3Dgoogle%26utm_medium%3Dlocal%26utm_campaign%3D1%26utm_content%3Dprimary", "rating": 4.8, "reviews": 88, "place_id": "ChIJsSleBAOk0ocREtOfTZaWyZk", "latitude": 34.7440844, "longitude": -92.3807988, "care_type": "Plastic Surgeon"}, {"name": "Taylor Plastic Surgery", "address": "4803 W Highland Knolls Rd Suite 300, Rogers, AR 72758", "city": "Rogers", "phone": "+1 479-521-1500", "website": "http://taylorplasticsurgery.com/", "rating": 4.9, "reviews": 311, "place_id": "ChIJrXx7xlFsyYcRZbKCM_qezSw", "latitude": 36.2912495, "longitude": -94.18619869999999, "care_type": "Plastic Surgeon"}, {"name": "Kelamis Plastic Surgery & Aesthetics", "address": "101 Grant Pl A, Lowell, AR 72745", "city": "Lowell", "phone": "+1 479-935-3227", "website": "https://kelamisplasticsurgery.com/%3Futm_source%3Dgoogle%26utm_medium%3Dorganic%26utm_campaign%3Dgbp", "rating": 4.9, "reviews": 232, "place_id": "ChIJ8e2QSrJryYcRNGwuumdZSo4", "latitude": 36.254265, "longitude": -94.15929129999999, "care_type": "Plastic Surgeon"}, {"name": "Passmore Plastic Surgery", "address": "8101 McClure Dr #100, Fort Smith, AR 72916", "city": "Fort Smith", "phone": "+1 479-242-2442", "website": "http://passmoreplasticsurgery.com/", "rating": 4.9, "reviews": 55, "place_id": "ChIJ__9vz1Kyy4cR-wuygkSlg50", "latitude": 35.3139708, "longitude": -94.3436237, "care_type": "Plastic Surgeon"}, {"name": "Arkansas Institute For Cosmetic & Plastic Surgery", "address": "135 Medical Park Pl, Hot Springs, AR 71901", "city": "Hot Springs", "phone": "+1 501-623-2500", "website": "https://skinclean.us/arkansas/hot-springs/arkansas-institute-for-cosmetic-plastic-surgery-best-laser-tattoo-removal-clinic-in-hot-springs-arkansas/", "rating": 3.8, "reviews": 0, "place_id": "ChIJkyvuT0ErzYcR6ZXoDw-XkAM", "latitude": 34.4882774, "longitude": -93.03326849999999, "care_type": "Plastic Surgeon"}, {"name": "Western Arkansas Plastic, Hand & Reconstructive Surgery Center", "address": "8101 McClure Dr, Fort Smith, AR 72916", "city": "Fort Smith", "phone": "+1 479-242-8300", "website": "", "rating": 2.0, "reviews": 4, "place_id": "ChIJr1nIKBdNyocRUWrqJeBOKRs", "latitude": 35.3139375, "longitude": -94.3436626, "care_type": "Plastic Surgeon"}, {"name": "Dr. David Sterling, MD", "address": "5800 W 10th St Suite 605, Little Rock, AR 72204", "city": "Little Rock", "phone": "+1 501-526-7115", "website": "https://uamshealth.com/aesthetic-plastic-surgery/", "rating": 4.8, "reviews": 17, "place_id": "ChIJEYJwvTXvwIcRqcrhiCEbJLA", "latitude": 34.7441472, "longitude": -92.33886079999999, "care_type": "Plastic Surgeon"}, {"name": "UAMS Health - David A. Sterling, M.D. - Plastic Surgery Clinic", "address": "Freeway Medical Tower Plastic Surgery Clinic, 5800 W 10th St, Little Rock, AR 72204", "city": "Little Rock", "phone": "+1 501-686-8111", "website": "https://uamshealth.com/provider/david-a-sterling/%3Futm_source%3Dgoogle%26utm_medium%3Dgmb%26utm_campaign%3Dclinical%26utm_term%3Dprovider%26utm_content%3Dprofile%26utm_specs%3Ddavid-a-sterling_plastic-surgery", "rating": 5.0, "reviews": 4, "place_id": "ChIJQ-B_fJal0ocRMq59XkTi7Z8", "latitude": 34.7441472, "longitude": -92.33886079999999, "care_type": "Plastic Surgeon"}, {"name": "Aesthetic Plastic Surgery - Gene Sloan, MD", "address": "8315 Cantrell Rd #120, Little Rock, AR 72227", "city": "Little Rock", "phone": "+1 501-224-1300", "website": "https://www.gsloanmd.com/", "rating": 4.8, "reviews": 116, "place_id": "ChIJRYbsxcOj0ocR0UbD-GNU5pM", "latitude": 34.7763298, "longitude": -92.3674868, "care_type": "Plastic Surgeon"}, {"name": "The Skin Retreat and Shewmake Plastic Surgery", "address": "11220 Executive Center Dr Suite 201, Little Rock, AR 72211", "city": "Little Rock", "phone": "+1 501-492-8970", "website": "https://theskinretreat.com/%3Futm_source%3Dgbp%26utm_medium%3Dorganic", "rating": 5.0, "reviews": 160, "place_id": "ChIJaX4oF7qm0ocREX5wpww8iiE", "latitude": 34.7383363, "longitude": -92.4024864, "care_type": "Plastic Surgeon"}, {"name": "The Petrus Center for Aesthetic Surgery and Hair Transplantation", "address": "4137 John F Kennedy Blvd Ste A, North Little Rock, AR 72116", "city": "North Little Rock", "phone": "+1 501-573-8787", "website": "http://www.drpetrus.com/", "rating": 5.0, "reviews": 28, "place_id": "ChIJ08IgAoKk0ocR3Zs4J8Y_hd0", "latitude": 34.7945808, "longitude": -92.2591126, "care_type": "Plastic Surgeon"}, {"name": "Cosmetic Surgery Center: Rhys L. Branman, MD", "address": "10809 Executive Center Dr #100, Little Rock, AR 72211", "city": "Little Rock", "phone": "+1 501-227-0707", "website": "https://www.littlerockcosmeticsurgery.com/office/%3Futm_source%3DGMBlisting%26utm_medium%3Dorganic", "rating": 4.7, "reviews": 111, "place_id": "ChIJMymNFsam0ocRW6aIZjSD0KY", "latitude": 34.7389245, "longitude": -92.39764009999999, "care_type": "Plastic Surgeon"}, {"name": "Wright Plastic Surgery & Med Spa: Dr. Eric Wright", "address": "1811 Rahling Rd #100, Little Rock, AR 72223", "city": "Little Rock", "phone": "+1 501-575-0088", "website": "https://www.drwrightplasticsurgery.com/%3Futm_source%3Dgoogle%26utm_medium%3Dlocal%26utm_campaign%3Dlittlerock-practice-website", "rating": 4.9, "reviews": 280, "place_id": "ChIJ4SkSXUCn0ocR0Ajlvtp5SwA", "latitude": 34.7723648, "longitude": -92.4476037, "care_type": "Plastic Surgeon"}, {"name": "Michael Spann, MD: Little Rock Plastic Surgery", "address": "2200 N Rodney Parham Rd #200, Little Rock, AR 72212", "city": "Little Rock", "phone": "+1 501-219-8000", "website": "https://littlerockplasticsurgery.com/", "rating": 4.9, "reviews": 257, "place_id": "ChIJv7mdfhWh0ocRGjpaoJhtpWE", "latitude": 34.7730548, "longitude": -92.4034423, "care_type": "Plastic Surgeon"}, {"name": "Devlin Cosmetic Surgery: Michael Devlin, M.D.", "address": "10801 Executive Center Dr #101, Little Rock, AR 72211", "city": "Little Rock", "phone": "+1 501-833-5952", "website": "https://www.drdevlin.com/", "rating": 4.8, "reviews": 176, "place_id": "ChIJMWpZFrqm0ocRuebOZ7vrLXs", "latitude": 34.7385007, "longitude": -92.395403, "care_type": "Plastic Surgeon"}, {"name": "Dr. Kris B. Shewmake, MD", "address": "11220 Executive Center Dr Suite 201, Little Rock, AR 72211", "city": "Little Rock", "phone": "+1 501-492-8970", "website": "http://shewmakeplasticsurgery.com/", "rating": 4.9, "reviews": 107, "place_id": "ChIJsSleBAOk0ocRx8BA_PSTYk8", "latitude": 34.7383957, "longitude": -92.40236929999999, "care_type": "Plastic Surgeon"}, {"name": "Melanie Prince, MD", "address": "8201 Cantrell Rd #150, Little Rock, AR 72227", "city": "Little Rock", "phone": "+1 501-225-3333", "website": "https://www.princeplasticsurgery.com/%3Futm_source%3Dgooglemybusiness%26utm_medium%3Dorganic%26utm_campaign%3Dprince%2Bplastic%2Bsurgery", "rating": 4.8, "reviews": 230, "place_id": "ChIJ18tPC8Gj0ocR-qGPA7-6LGo", "latitude": 34.776279, "longitude": -92.36581059999999, "care_type": "Plastic Surgeon"}, {"name": "Suzanne Yee, MD", "address": "12600 Cantrell Rd Ste 100, Little Rock, AR 72223", "city": "Little Rock", "phone": "+1 501-224-1044", "website": "https://www.drsuzanneyee.com/", "rating": 4.8, "reviews": 341, "place_id": "ChIJj1jS8aih0ocRVwiq4dKxkmQ", "latitude": 34.7983764, "longitude": -92.41330289999999, "care_type": "Plastic Surgeon"}, {"name": "English Plastic & Cosmetic Surgery Center", "address": "9501 Baptist Health Dr #950, Little Rock, AR 72205", "city": "Little Rock", "phone": "+1 501-510-6779", "website": "https://www.surgeoncosmetic.com/%3Futm_campaign%3Dgmb", "rating": 4.9, "reviews": 50, "place_id": "ChIJa6_i-QGk0ocRTSW6KndIGUs", "latitude": 34.7448785, "longitude": -92.3795926, "care_type": "Plastic Surgeon"}, {"name": "Plastic Surgeon - Dr. Edward J Love, MD", "address": "9500 Baptist Health Dr Suite 200, Little Rock, AR 72205", "city": "Little Rock", "phone": "+1 501-224-5683", "website": "https://www.edwardjlovemd.com/", "rating": 4.6, "reviews": 68, "place_id": "ChIJB6QOYQGk0ocRVyGBmolWNiw", "latitude": 34.7462782, "longitude": -92.3794097, "care_type": "Plastic Surgeon"}, {"name": "UAMS Health - Plastic Surgery Clinic", "address": "Freeway Medical Tower, Sixth Floor, 5800 W 10th St Suite 605, Little Rock, AR 72204", "city": "Little Rock", "phone": "+1 501-686-8111", "website": "https://uamshealth.com/location/plastic-surgery/%3Futm_source%3Dgoogle%26utm_medium%3Dgmb%26utm_campaign%3Dclinical%26utm_term%3Dlocation%26utm_content%3Dprofile%26utm_specs%3Dplastic-surgery", "rating": 5.0, "reviews": 2, "place_id": "ChIJyy3-b-Wl0ocReu6PnoeY9Xc", "latitude": 34.7441472, "longitude": -92.33886079999999, "care_type": "Plastic Surgeon"}, {"name": "Robert T. Love III ,MD", "address": "3401 Springhill Dr #345, North Little Rock, AR 72117", "city": "North Little Rock", "phone": "+1 501-907-7300", "website": "http://www.robertlovemd.com/", "rating": 3.5, "reviews": 30, "place_id": "ChIJW6lL8Jy-0ocRrhFJWRV5Pt4", "latitude": 34.7848798, "longitude": -92.2204491, "care_type": "Plastic Surgeon"}, {"name": "Arkansas Plastic Surgery: Dr. David Bauer", "address": "9500 Kanis Rd Suite 502, Little Rock, AR 72205", "city": "Little Rock", "phone": "+1 501-219-8388", "website": "https://arkansasplasticsurgery.com/about-us/our-staff/david-bauer-md/%3Futm_source%3Dgbp%26utm_medium%3Dorganic", "rating": 5.0, "reviews": 6, "place_id": "ChIJ-zacDQKk0ocRq9F5OuMnfBE", "latitude": 34.7440844, "longitude": -92.3807988, "care_type": "Plastic Surgeon"}, {"name": "Zachary Young, MD", "address": "9500 Kanis Rd Suite 502, Little Rock, AR 72205", "city": "Little Rock", "phone": "+1 501-219-8388", "website": "https://arkansasplasticsurgery.com/about-us/our-staff/dr-zachary-t-young/%3Futm_source%3Dgbp%26utm_medium%3Dorganic", "rating": 5.0, "reviews": 69, "place_id": "ChIJCR0FcICl0ocRhbtKaZ6f2YA", "latitude": 34.7436066, "longitude": -92.3803334, "care_type": "Plastic Surgeon"}, {"name": "Vanderpool Cosmetic Plastic Surgery", "address": "2552 E Joyce Blvd, Fayetteville, AR 72703", "city": "Fayetteville", "phone": "+1 479-571-8585", "website": "http://www.drvanderpool.com/", "rating": 4.4, "reviews": 56, "place_id": "ChIJ_2m6Q8RryYcR6hCcqCxFpnI", "latitude": 36.1205302, "longitude": -94.1248322, "care_type": "Plastic Surgeon"}, {"name": "UAMS Health - Jennings Russell Boyette, M.D. - UAMS Medical Center", "address": "UAMS Medical Ctr, 4301 W Markham St, Little Rock, AR 72205", "city": "Little Rock", "phone": "+1 501-686-8000", "website": "https://uamshealth.com/provider/jennings-russell-boyette/%3Futm_source%3Dgoogle%26utm_medium%3Dgmb%26utm_campaign%3Dclinical%26utm_term%3Dprovider%26utm_content%3Dprofile%26utm_specs%3Djennings-russell-boyette_uams-medical-center", "rating": 4.9, "reviews": 23, "place_id": "ChIJazjNEaGk0ocRJK6SjMWtl00", "latitude": 34.7493136, "longitude": -92.3205302, "care_type": "Plastic Surgeon"}, {"name": "Arkansas Laser and Skin Care", "address": "308 Smokey Ln, North Little Rock, AR 72117", "city": "North Little Rock", "phone": "+1 501-771-0445", "website": "https://arkansaslaserandskincare.com/", "rating": 4.8, "reviews": 98, "place_id": "ChIJ48efeoa-0ocRoEZcz8Njjd4", "latitude": 34.7933102, "longitude": -92.2158237, "care_type": "Plastic Surgeon"}, {"name": "Doctors MedSpa", "address": "8315 Cantrell Rd #125, Little Rock, AR 72227", "city": "Little Rock", "phone": "+1 501-661-1234", "website": "https://drsmedspa.com/", "rating": 4.6, "reviews": 10, "place_id": "ChIJwzgHzMOj0ocRyIfDHVeQsiY", "latitude": 34.7762948, "longitude": -92.3674868, "care_type": "Plastic Surgeon"}, {"name": "Natural State Aesthetics", "address": "3766 N Investment Dr #150, Fayetteville, AR 72703", "city": "Fayetteville", "phone": "+1 479-222-0983", "website": "https://www.naturalstateaesthetics.com/", "rating": 5.0, "reviews": 329, "place_id": "ChIJmRgm4otvyYcRIDMb5GTvW1g", "latitude": 36.1197424, "longitude": -94.15941959999999, "care_type": "Plastic Surgeon"}, {"name": "Swetnam Cosmetic Surgery", "address": "3623 Johnson Mill Blvd Suite 203, Springdale, AR 72762", "city": "Springdale", "phone": "+1 479-966-4174", "website": "https://swetnamcosmetic.com/", "rating": 5.0, "reviews": 599, "place_id": "ChIJhc2f3e5ryYcRLnS3RrqyR3U", "latitude": 36.1356427, "longitude": -94.174188, "care_type": "Plastic Surgeon"}, {"name": "Ecosse Plastic Surgery", "address": "2552 E Joyce Blvd, Fayetteville, AR 72703", "city": "Fayetteville", "phone": "+1 479-689-3186", "website": "https://www.ecosseplasticsurgery.com/%3Futm_source%3DGMBlisting%26utm_medium%3Dorganic%26utm_campaign%3Dbusiness-profile", "rating": 4.7, "reviews": 60, "place_id": "ChIJfUnlQTERyYcRWa0de7uVSa0", "latitude": 36.1204804, "longitude": -94.1249103, "care_type": "Plastic Surgeon"}, {"name": "UAMS Health - Gina N. Sacks, M.D. - UAMS Medical Center", "address": "UAMS Medical Center, 4301 W Markham St, Little Rock, AR 72205", "city": "Little Rock", "phone": "+1 501-686-8000", "website": "https://uamshealth.com/provider/gina-n-sacks/%3Futm_source%3Dgoogle%26utm_medium%3Dgmb%26utm_campaign%3Dclinical%26utm_term%3Dprovider%26utm_content%3Dprofile%26utm_specs%3Dgina-n-sacks_uams-medical-center", "rating": null, "reviews": 0, "place_id": "ChIJayUd046l0ocRZhP-iSz8NbQ", "latitude": 34.7482716, "longitude": -92.3214527, "care_type": "Plastic Surgeon"}, {"name": "Mr. Gary Petrus", "address": "4137 John F Kennedy Blvd Ste A, North Little Rock, AR 72116", "city": "North Little Rock", "phone": "+1 501-614-3052", "website": "", "rating": null, "reviews": 0, "place_id": "ChIJ___vYVS80ocRfhXsCYTg7Qg", "latitude": 34.7945808, "longitude": -92.2591126, "care_type": "Plastic Surgeon"}, {"name": "UAMS Health - James Y. Suen, M.D. - Ear, Nose and Throat Clinic at the UAMS Medical Center", "address": "UAMS Jackson T. Stephens Spine and Neuroscience Institute Ear, Nose and Throat Clinic, 501 Jack Stephens Dr, Little Rock, AR 72205", "city": "Little Rock", "phone": "+1 501-686-5878", "website": "https://uamshealth.com/provider/james-y-suen/%3Futm_source%3Dgoogle%26utm_medium%3Dgmb%26utm_campaign%3Dclinical%26utm_term%3Dprovider%26utm_content%3Dprofile%26utm_specs%3Djames-y-suen_ear-nose-and-throat-clinic", "rating": 4.8, "reviews": 54, "place_id": "ChIJ-ShahaGk0ocRWioW5jdAVcw", "latitude": 34.7473837, "longitude": -92.318271, "care_type": "Plastic Surgeon"}, {"name": "Michael Spann, MD - Fayetteville Plastic Surgery", "address": "3733 N Business Dr, Fayetteville, AR 72703", "city": "Fayetteville", "phone": "+1 479-309-9795", "website": "https://www.spannmd.com/%3Futm_source%3Dgoogle%26utm_medium%3Dorganic%26utm_campaign%3Dgbp", "rating": 5.0, "reviews": 6, "place_id": "ChIJY14qBo9ryYcRoziJ1oveVWo", "latitude": 36.118739, "longitude": -94.13118659999999, "care_type": "Plastic Surgeon"}, {"name": "UAMS Health - James C. Yuen, M.D. - Plastic Surgery Clinic", "address": "Freeway Medical Tower Plastic Surgery Clinic, 5800 W 10th St, Little Rock, AR 72204", "city": "Little Rock", "phone": "+1 501-686-8111", "website": "https://uamshealth.com/provider/james-c-yuen/%3Futm_source%3Dgoogle%26utm_medium%3Dgmb%26utm_campaign%3Dclinical%26utm_term%3Dprovider%26utm_content%3Dprofile%26utm_specs%3Djames-c-yuen_plastic-surgery", "rating": 5.0, "reviews": 3, "place_id": "ChIJRX-dR02l0ocRNhT0rubSK0w", "latitude": 34.7441472, "longitude": -92.33886079999999, "care_type": "Plastic Surgeon"}, {"name": "Plastic Surgery Institute", "address": "1 Lile Ct Ste 100, Little Rock, AR 72205", "city": "Little Rock", "phone": "+1 501-224-1859", "website": "", "rating": null, "reviews": 0, "place_id": "ChIJB6QOYQGk0ocRHLM3w4zCXsY", "latitude": 34.7455791, "longitude": -92.3785698, "care_type": "Plastic Surgeon"}, {"name": "Arkansas Children's - Sagar T. Mehta, M.D.", "address": "Children's Hospital, 1 Children's Way, Little Rock, AR 72202", "city": "Little Rock", "phone": "+1 501-263-2621", "website": "https://uamshealth.com/provider/sagar-t-mehta/%3Futm_source%3Dgoogle%26utm_medium%3Dgmb%26utm_campaign%3Dclinical%26utm_term%3Dprovider%26utm_content%3Dprofile%26utm_specs%3Dsagar-t-mehta_arkansas-childrens", "rating": 5.0, "reviews": 3, "place_id": "ChIJd91ZZZq70ocRRJhjEEaEYlQ", "latitude": 34.7429496, "longitude": -92.2929685, "care_type": "Plastic Surgeon"}, {"name": "UAMS Health - Tyler B. Merrill, M.D. - Ear, Nose and Throat Clinic at the UAMS Medical Center", "address": "UAMS Jackson T. Stephens Spine and Neuroscience Institute Ear, Nose and Throat Clinic, 501 Jack Stephens Dr, Little Rock, AR 72205", "city": "Little Rock", "phone": "+1 501-686-5878", "website": "https://uamshealth.com/provider/tyler-b-merrill/%3Futm_source%3Dgoogle%26utm_medium%3Dgmb%26utm_campaign%3Dclinical%26utm_term%3Dprovider%26utm_content%3Dprofile%26utm_specs%3Dtyler-b-merrill_ear-nose-and-throat-clinic", "rating": null, "reviews": 0, "place_id": "ChIJK7GVNbOl0ocRGdHRylQFqPs", "latitude": 34.7473563, "longitude": -92.3183878, "care_type": "Plastic Surgeon"}, {"name": "UAMS Health - Anvesh R. Kompelli, M.D. - Ear, Nose and Throat Clinic at the UAMS Medical Center", "address": "UAMS Jackson T. Stephens Spine and Neuroscience Institute Ear, Nose and Throat Clinic, 501 Jack Stephens Dr, Little Rock, AR 72205", "city": "Little Rock", "phone": "+1 501-686-5878", "website": "https://uamshealth.com/provider/anvesh-r-kompelli/%3Futm_source%3Dgoogle%26utm_medium%3Dgmb%26utm_campaign%3Dclinical%26utm_term%3Dprovider%26utm_content%3Dprofile%26utm_specs%3Danvesh-r-kompelli_ear-nose-and-throat-clinic", "rating": null, "reviews": 0, "place_id": "ChIJbeAvvDOl0ocRB1wSK2z3MB4", "latitude": 34.7473563, "longitude": -92.3183878, "care_type": "Plastic Surgeon"}, {"name": "Zaleta MedSpa and Cosmetic Surgery", "address": "415 Allen St, Batesville, AR 72501", "city": "Batesville", "phone": "+1 870-307-3790", "website": "http://zaleta.com/", "rating": 4.9, "reviews": 70, "place_id": "ChIJ7y-o3Ajb04cRl49cojYbXmM", "latitude": 35.76921859999999, "longitude": -91.6486391, "care_type": "Plastic Surgeon"}, {"name": "Dr. Jeffrey A. Swetnam, MD", "address": "3623 Johnson Mill Blvd Suite 203, Springdale, AR 72762", "city": "Springdale", "phone": "+1 479-966-4174", "website": "https://swetnamcosmetic.com/", "rating": 4.8, "reviews": 146, "place_id": "ChIJGyVfijQ0yIcRHAbIlSo5iTw", "latitude": 36.1356427, "longitude": -94.174188, "care_type": "Plastic Surgeon"}, {"name": "ARBRA Plastic Surgery", "address": "3901 Parkway Cir Suite 100, Springdale, AR 72762", "city": "Springdale", "phone": "+1 479-322-4244", "website": "https://www.arbraplasticsurgery.com/", "rating": 4.9, "reviews": 45, "place_id": "ChIJhf-vojrBQIYRZCkWdO_NRCs", "latitude": 36.1512556, "longitude": -94.1890861, "care_type": "Plastic Surgeon"}, {"name": "Hull Dermatology", "address": "9521 Sunset Dr, Bella Vista, AR 72715", "city": "Bella Vista", "phone": "+1 479-254-9662", "website": "http://www.hullderm.com/", "rating": 3.1, "reviews": 0, "place_id": "ChIJ60r9uDsDyYcRGoLkv6eDtYw", "latitude": 36.4346324, "longitude": -94.2351506, "care_type": "Plastic Surgeon"}, {"name": "Dr. Jason Stubbs", "address": "3654 N Investment Dr #120, Fayetteville, AR 72703", "city": "Fayetteville", "phone": "+1 479-485-3600", "website": "https://www.stubbscenter.com/", "rating": 5.0, "reviews": 59, "place_id": "ChIJZ6X6Q5uSGYgRSpuuowfch7A", "latitude": 36.11822009999999, "longitude": -94.1593778, "care_type": "Plastic Surgeon"}, {"name": "Stubbs Center for Cosmetic Surgery", "address": "3654 N Investment Dr #120, Fayetteville, AR 72703", "city": "Fayetteville", "phone": "+1 479-485-3600", "website": "https://www.stubbscenter.com/", "rating": 4.9, "reviews": 137, "place_id": "ChIJecHI8SltyYcRy1ChPwmfA20", "latitude": 36.11822009999999, "longitude": -94.1593778, "care_type": "Plastic Surgeon"}, {"name": "Premier Dermatology | Aesthetics & Wellness", "address": "901 SE Plaza Ave Suite 5, Bentonville, AR 72712", "city": "Bentonville", "phone": "+1 479-273-3376", "website": "https://www.premierderm.net/", "rating": 4.9, "reviews": 3478, "place_id": "ChIJw1vcpWcQyYcRhHgU78NbKbc", "latitude": 36.3339798, "longitude": -94.19916979999999, "care_type": "Plastic Surgeon"}, {"name": "Nova Aesthetics and Medical Wellness", "address": "810 Amity Rd #201, Conway, AR 72032", "city": "Conway", "phone": "+1 501-205-4443", "website": "https://www.novaaestheticswellness.com/", "rating": 5.0, "reviews": 354, "place_id": "ChIJM7KXCQCD0ocRjfF9csqNZ4g", "latitude": 35.0894247, "longitude": -92.4154418, "care_type": "Plastic Surgeon"}, {"name": "Noydeen Med Spa of Conway Arkansas", "address": "655 Dave Ward Dr #103, Conway, AR 72034", "city": "Conway", "phone": "+1 501-499-8627", "website": "http://www.noydeenbeauty.com/", "rating": 5.0, "reviews": 37, "place_id": "ChIJZ4nw-1uC0ocRfE_2S6FeYwI", "latitude": 35.0657141, "longitude": -92.4338712, "care_type": "Plastic Surgeon"}, {"name": "Conway Med Spa", "address": "2515 College Ave, Conway, AR 72034", "city": "Conway", "phone": "+1 501-932-0936", "website": "https://www.conwaywomensmedspa.com/", "rating": 4.9, "reviews": 106, "place_id": "ChIJy6aJRAmC0ocRJKxNwuuf8BE", "latitude": 35.0847134, "longitude": -92.464034, "care_type": "Plastic Surgeon"}, {"name": "UAMS Health - Anvesh R. Kompelli, M.D. - Ear, Nose and Throat Clinic in Conway", "address": "Ear, Nose and Throat Clinic, 2425 Dave Ward Dr, Conway, AR 72034", "city": "Conway", "phone": "+1 501-932-7600", "website": "https://uamshealth.com/provider/anvesh-r-kompelli/%3Futm_source%3Dgoogle%26utm_medium%3Dgmb%26utm_campaign%3Dclinical%26utm_term%3Dprovider%26utm_content%3Dprofile%26utm_specs%3Danvesh-r-kompelli_ent-clinic-conway", "rating": null, "reviews": 0, "place_id": "ChIJAW0qQbB9zYcRGNVYmtIDUDk", "latitude": 35.0698408, "longitude": -92.46195279999999, "care_type": "Plastic Surgeon"}, {"name": "Advanced Facial Aesthetics", "address": "2159 Prince St, Conway, AR 72034", "city": "Conway", "phone": "+1 501-328-7790", "website": "https://www.advancedfacialaestheticsconway.com/", "rating": 5.0, "reviews": 2, "place_id": "ChIJk5ifCAaC0ocRu5bXPxf14Xk", "latitude": 35.09179, "longitude": -92.4556939, "care_type": "Plastic Surgeon"}, {"name": "EL Clinical Esthetics", "address": "690 S Salem Rd Suite 307, Conway, AR 72034", "city": "Conway", "phone": "+1 501-329-7546", "website": "http://www.elclinicalesthetics.com/", "rating": 4.6, "reviews": 21, "place_id": "ChIJCbh_TZB9zYcR9E2JOOO4duU", "latitude": 35.0724321, "longitude": -92.4718528, "care_type": "Plastic Surgeon"}, {"name": "MAC Aesthetics and Wellness", "address": "705 Club Ln #104, Conway, AR 72034", "city": "Conway", "phone": "+1 501-470-6995", "website": "https://macaestheticsandwellness.co/", "rating": 5.0, "reviews": 62, "place_id": "ChIJT2ZV_Ed9zYcRO3bGEn53iJs", "latitude": 35.0886058, "longitude": -92.4730361, "care_type": "Plastic Surgeon"}, {"name": "Elevation Aesthetics Conway", "address": "2180 Ada Ave Suite 300, Conway, AR 72034", "city": "Conway", "phone": "+1 501-697-2887", "website": "https://www.elevationaestheticsconway.com/", "rating": 5.0, "reviews": 21, "place_id": "ChIJDcsaVEmD0ocRNX7G1H6Z-2I", "latitude": 35.086504, "longitude": -92.4561736, "care_type": "Plastic Surgeon"}, {"name": "Sono Bello Rogers", "address": "4301 S JB Hunt Dr #200, Rogers, AR 72758", "city": "Rogers", "phone": "+1 479-335-1153", "website": "https://www.sonobello.com/locations/rogers/", "rating": 4.9, "reviews": 72, "place_id": "ChIJLwZefQARyYcRjTqTvSRbmXQ", "latitude": 36.2964852, "longitude": -94.1813346, "care_type": "Plastic Surgeon"}, {"name": "Solux Aesthetics", "address": "149 S Market St, Benton, AR 72015", "city": "Benton", "phone": "+1 501-249-4177", "website": "https://soluxar.com/", "rating": 5.0, "reviews": 36, "place_id": "ChIJc0tvHTxTzYcRasMlQdm362Q", "latitude": 34.5625094, "longitude": -92.5884596, "care_type": "Plastic Surgeon"}, {"name": "A+L Aesthetics", "address": "109 N Main St, Benton, AR 72015", "city": "Benton", "phone": "", "website": "http://www.alaestheticsar.com/", "rating": 5.0, "reviews": 49, "place_id": "ChIJFWVdzIlTzYcRqcfg62dKjRs", "latitude": 34.5637642, "longitude": -92.58662729999999, "care_type": "Plastic Surgeon"}, {"name": "Ozark Facial Plastic Surgery & Aesthetics", "address": "137 W Van Asche Lp, Fayetteville, AR 72703", "city": "Fayetteville", "phone": "+1 479-751-7000", "website": "http://ozarkfacial.com/", "rating": 4.9, "reviews": 104, "place_id": "ChIJ53tZCjptyYcR7DIf1mBhhBU", "latitude": 36.117071, "longitude": -94.15853589999999, "care_type": "Plastic Surgeon"}, {"name": "Radiance By Roller", "address": "1695 E Rainforest Rd, Fayetteville, AR 72703", "city": "Fayetteville", "phone": "+1 479-316-0458", "website": "https://www.radiancebyroller.com/%3Futm_source%3DGMBlisting%26utm_medium%3Dorganic%26utm_campaign%3Dgmb-business", "rating": 4.8, "reviews": 0, "place_id": "ChIJgaO3zg1ryYcRh80UgctLDn4", "latitude": 36.1182338, "longitude": -94.1361033, "care_type": "Plastic Surgeon"}, {"name": "Dr. Adam G. Newman, MD", "address": "3733 N Business Dr, Fayetteville, AR 72703", "city": "Fayetteville", "phone": "+1 870-425-6398", "website": "http://www.newmanmdplasticsurgery.com/", "rating": 5.0, "reviews": 11, "place_id": "ChIJIwThDeLb0YcRfPuVYrlPDs0", "latitude": 36.1187434, "longitude": -94.1311465, "care_type": "Plastic Surgeon"}, {"name": "Dr. Kaitlyn Paine", "address": "1695 E Rainforest Rd, Fayetteville, AR 72703", "city": "Fayetteville", "phone": "+1 479-445-6460", "website": "https://www.radiancebyroller.com/about-us/our-providers/kaitlyn-paine-md/", "rating": 4.6, "reviews": 10, "place_id": "ChIJu92g3jzJwokR9zck_yfBxnU", "latitude": 36.1182338, "longitude": -94.1361033, "care_type": "Plastic Surgeon"}, {"name": "Premier Dermatology | Aesthetics & Wellness", "address": "1651 E Stearns St #110, Fayetteville, AR 72703", "city": "Fayetteville", "phone": "+1 479-273-3376", "website": "https://www.premierderm.net/", "rating": 4.9, "reviews": 0, "place_id": "ChIJYSmy0u1ryYcRPf2BCoM4Jnc", "latitude": 36.1233708, "longitude": -94.136201, "care_type": "Plastic Surgeon"}, {"name": "Lips and Lines", "address": "745 E Joyce Blvd, Fayetteville, AR 72703", "city": "Fayetteville", "phone": "+1 479-330-1201", "website": "http://www.lipsandlinesllc.com/", "rating": 5.0, "reviews": 0, "place_id": "ChIJq6r65TpsyYcRI4vj6JMB3LM", "latitude": 36.1227334, "longitude": -94.14693799999999, "care_type": "Plastic Surgeon"}, {"name": "Plastic Surgery Clinic-Nw Ar", "address": "1794 E Joyce Blvd # 1, Fayetteville, AR 72703", "city": "Fayetteville", "phone": "+1 479-443-7771", "website": "", "rating": null, "reviews": 0, "place_id": "ChIJF3iFaOlryYcRwhoeJ_2Y6no", "latitude": 36.1208706, "longitude": -94.13459379999999, "care_type": "Plastic Surgeon"}, {"name": "Advanced Dermatology & Skin Cancer Center, PLLC", "address": "1444 E Stearns St, Fayetteville, AR 72703", "city": "Fayetteville", "phone": "+1 479-718-7546", "website": "http://www.advancedskinmd.com/", "rating": 4.8, "reviews": 2165, "place_id": "ChIJe3llre1ryYcRqPsGSRRcyrQ", "latitude": 36.12342599999999, "longitude": -94.138593, "care_type": "Plastic Surgeon"}, {"name": "Ozark Dermatology", "address": "4375 N Vantage Dr, Fayetteville, AR 72703", "city": "Fayetteville", "phone": "+1 479-443-5100", "website": "https://ozarkderm.com/", "rating": 4.9, "reviews": 2188, "place_id": "ChIJ4apYJZNryYcRqq-uhFOpoyM", "latitude": 36.1305818, "longitude": -94.1380622, "care_type": "Plastic Surgeon"}, {"name": "Skin Ink & Laser", "address": "1450 E Zion Rd Suite 10, Fayetteville, AR 72703", "city": "Fayetteville", "phone": "+1 479-755-2024", "website": "https://www.skininklaser.com/%3Futm_source%3Dgmb_auth", "rating": 4.9, "reviews": 51, "place_id": "ChIJa0J0f8JryYcRJIVnn1svEXI", "latitude": 36.1298432, "longitude": -94.13829679999999, "care_type": "Plastic Surgeon"}, {"name": "Aesthetica", "address": "3291 S Thompson St Suite G102, Springdale, AR 72764", "city": "Springdale", "phone": "+1 479-320-8588", "website": "http://youraesthetica.net/", "rating": 5.0, "reviews": 87, "place_id": "ChIJnduhEbJryYcRyAP0ckZ2XOk", "latitude": 36.1558393, "longitude": -94.14281299999999, "care_type": "Plastic Surgeon"}, {"name": "Suzanna Wooden, MD", "address": "3215 N Northhills Blvd, Fayetteville, AR 72703", "city": "Fayetteville", "phone": "+1 479-463-1000", "website": "https://www.wregional.com/main/physician-locator/wooden-suzanna-251", "rating": null, "reviews": 0, "place_id": "ChIJH8TdcQZsyYcR9ce7mYV9hEY", "latitude": 36.10920309999999, "longitude": -94.1595346, "care_type": "Plastic Surgeon"}, {"name": "Spencer Jared MD", "address": "137 West Van Asche Loop, Fayetteville, AR 72712", "city": "Fayetteville", "phone": "+1 479-751-7000", "website": "http://www.ozarkfacial.com/", "rating": 5.0, "reviews": 1, "place_id": "ChIJHe6NQPUQyYcRLda93SBywrk", "latitude": 36.3402068, "longitude": -94.1913403, "care_type": "Plastic Surgeon"}, {"name": "Vici Aesthetics & Wellness", "address": "7253 W Sunset Ave Ste D, Springdale, AR 72762", "city": "Springdale", "phone": "+1 479-343-8424", "website": "http://www.viciaestheticsandwellness.com/", "rating": 4.9, "reviews": 168, "place_id": "ChIJ240vFPVtyYcRNT2BqV4L9sI", "latitude": 36.1751576, "longitude": -94.2109182, "care_type": "Plastic Surgeon"}, {"name": "NWA Aesthetics and Fertility", "address": "2603 W Pleasant Grove Rd #106, Rogers, AR 72758", "city": "Rogers", "phone": "+1 479-526-0445", "website": "http://nwaaestheticsandfertility.com/", "rating": 4.9, "reviews": 106, "place_id": "ChIJe2lKSXMRyYcR1YdSmLU38n0", "latitude": 36.2846479, "longitude": -94.15309239999999, "care_type": "Plastic Surgeon"}, {"name": "Prism Aesthetics, LLC - Rogers", "address": "5001 W Pauline Whitaker Pkwy #115, Rogers, AR 72758", "city": "Rogers", "phone": "+1 479-278-7166", "website": "http://prismaestheticsllc.com/%3Futm_source%3Dgoogle%26utm_medium%3Dorganic%26utm_campaign%3Dgbp", "rating": 4.9, "reviews": 633, "place_id": "ChIJzcqFxoRryYcR2PCm_v7t-7g", "latitude": 36.29794, "longitude": -94.18613069999999, "care_type": "Plastic Surgeon"}, {"name": "Dr. Pamela A. Mcmichael, MD", "address": "614 E Emma Ave #300, Springdale, AR 72764", "city": "Springdale", "phone": "+1 479-751-7417", "website": "http://www.communityclinicnwa.org/", "rating": null, "reviews": 0, "place_id": "ChIJE1dBuzFryYcRqK9eKzh6ReY", "latitude": 36.1855465, "longitude": -94.1226404, "care_type": "Plastic Surgeon"}, {"name": "Arkansas Oculoplastic Surgery, PLLC: Brock Wade D MD", "address": "900 S Shackleford Rd #220, Little Rock, AR 72211", "city": "Little Rock", "phone": "+1 501-223-2244", "website": "http://www.aosplasticsurgery.com/", "rating": 4.9, "reviews": 216, "place_id": "ChIJe97rGKqm0ocRXjG8etojGhA", "latitude": 34.7453468, "longitude": -92.39520259999999, "care_type": "Plastic Surgeon"}, {"name": "Beautiful You Magnolia Aesthetics, LLC", "address": "1920 S Washington St, Magnolia, AR 71753", "city": "Magnolia", "phone": "+1 870-901-3019", "website": "http://beyoumagnolia.com/", "rating": 5.0, "reviews": 4, "place_id": "ChIJXezYQW_PM4YRn5zzIaiOwqw", "latitude": 33.2508242, "longitude": -93.24056809999999, "care_type": "Plastic Surgeon"}, {"name": "Magnolia Medspa", "address": "912 N Jackson, Magnolia, AR 71753", "city": "Magnolia", "phone": "+1 501-881-8565", "website": "http://www.magnoliamdspa.com/", "rating": 5.0, "reviews": 1, "place_id": "ChIJW4fNdsfPM4YRqvzeYm8lBE8", "latitude": 33.2749112, "longitude": -93.2370925, "care_type": "Plastic Surgeon"}, {"name": "Majewski Plastic Surgery", "address": "2241 Hl Pk Cv Ste A, Jonesboro, AR 72401", "city": "Jonesboro", "phone": "+1 870-333-5737", "website": "http://majewskiplasticsurgery.com/", "rating": 4.7, "reviews": 24, "place_id": "ChIJlVi_314v1IcRoFKtUACTK4Q", "latitude": 35.8162207, "longitude": -90.69026749999999, "care_type": "Plastic Surgeon"}, {"name": "Ann Passmore, MD", "address": "8101 McClure Dr #100, Fort Smith, AR 72916", "city": "Fort Smith", "phone": "+1 479-242-2442", "website": "http://passmoreplasticsurgery.com/", "rating": 4.5, "reviews": 17, "place_id": "ChIJeYn5a1Wyy4cRsFVJOTv55J0", "latitude": 35.3139708, "longitude": -94.3436237, "care_type": "Plastic Surgeon"}, {"name": "Bise Roger N MD PA", "address": "2713 S 74th St, Fort Smith, AR 72903", "city": "Fort Smith", "phone": "+1 479-478-8555", "website": "https://www.plasticsurgerymarketing.com/arkansas/fort-smith/plastic-surgery/roger-bise", "rating": 3.4, "reviews": 7, "place_id": "ChIJtdugpayzy4cRoWE_280cNBE", "latitude": 35.3560135, "longitude": -94.3499171, "care_type": "Plastic Surgeon"}, {"name": "Clinical Aesthetics Solutions", "address": "826 Main St Suite A, Van Buren, AR 72956", "city": "Van Buren", "phone": "+1 479-276-7804", "website": "http://www.queenofpeels.com/", "rating": 5.0, "reviews": 38, "place_id": "ChIJY0FCwP3Hy4cR1iVpTmMHy1c", "latitude": 35.4367511, "longitude": -94.35155669999999, "care_type": "Plastic Surgeon"}, {"name": "Dr. Aniket Sakharpe", "address": "2717 S 74th St, Fort Smith, AR 72903", "city": "Fort Smith", "phone": "+1 770-495-1477", "website": "https://primacenter.com/dr-aniket-sakharpe", "rating": 5.0, "reviews": 2, "place_id": "ChIJ__9vz1Kyy4cRA9n5sv6M6lQ", "latitude": 35.3557489, "longitude": -94.3479631, "care_type": "Plastic Surgeon"}, {"name": "Bise Plastic Surgery", "address": "2713 S 74th St, Fort Smith, AR 72903", "city": "Fort Smith", "phone": "+1 479-478-8555", "website": "", "rating": null, "reviews": 0, "place_id": "ChIJtdugpayzy4cRc-_92bnv7Ow", "latitude": 35.3560162, "longitude": -94.35005029999999, "care_type": "Plastic Surgeon"}, {"name": "The Dermatology Center, PLLC", "address": "7900 Dallas St, Fort Smith, AR 72903", "city": "Fort Smith", "phone": "+1 479-242-6647", "website": "http://www.thedermcenterfs.com/", "rating": 4.9, "reviews": 728, "place_id": "ChIJgWMI7MFMyocRXJzJXN1GR1M", "latitude": 35.3539878, "longitude": -94.3448152, "care_type": "Plastic Surgeon"}, {"name": "Onyx Aesthetics and Wellness", "address": "6230 Massard Rd, Fort Smith, AR 72916", "city": "Fort Smith", "phone": "+1 479-769-2280", "website": "http://onyxfortsmith.com/", "rating": 5.0, "reviews": 181, "place_id": "ChIJxRGmoYmzy4cRp42mJ1n9Qp0", "latitude": 35.3216009, "longitude": -94.3429797, "care_type": "Plastic Surgeon"}, {"name": "Nicholas Economides, MD", "address": "1001 Towson Ave, Fort Smith, AR 72901", "city": "Fort Smith", "phone": "", "website": "", "rating": null, "reviews": 0, "place_id": "ChIJZaVKuQJNyocR3B6DCJIanUs", "latitude": 35.3741136, "longitude": -94.41977399999999, "care_type": "Plastic Surgeon"}, {"name": "Jeffrey Marvel, MD", "address": "1500 Dodson Ave, Fort Smith, AR 72901", "city": "Fort Smith", "phone": "+1 479-782-2071", "website": "https://www.healthgrades.com/physician/dr-jeffrey-marvel-x5l69", "rating": null, "reviews": 0, "place_id": "ChIJlXBNXlRNyocRIbQggbvEKcE", "latitude": 35.3715257, "longitude": -94.41729269999999, "care_type": "Plastic Surgeon"}, {"name": "NEA Plastic Surgery", "address": "4802 E Johnson Ave, Jonesboro, AR 72401", "city": "Jonesboro", "phone": "+1 870-936-8000", "website": "", "rating": null, "reviews": 0, "place_id": "ChIJca6RTQcr1IcRqkXS6GF31mk", "latitude": 35.8667306, "longitude": -90.6365915, "care_type": "Plastic Surgeon"}, {"name": "Paragould Plastic Surgery & Dermatology", "address": "1000 W Kingshighway #7, Paragould, AR 72450", "city": "Paragould", "phone": "+1 870-239-8427", "website": "http://www.paragouldplasticsurgery.org/", "rating": 5.0, "reviews": 1, "place_id": "ChIJ07zYDg971ocRRFiqQ2ynOtk", "latitude": 36.0522623, "longitude": -90.49866329999999, "care_type": "Plastic Surgeon"}, {"name": "Plastic Surgery Associates NE Ark", "address": "1003 Windover Rd, Jonesboro, AR 72401", "city": "Jonesboro", "phone": "+1 870-935-0861", "website": "", "rating": null, "reviews": 0, "place_id": "ChIJz_HYQ7ou1IcRSwtV5ZF9BTo", "latitude": 35.8134995, "longitude": -90.69003909999999, "care_type": "Plastic Surgeon"}, {"name": "Wojciech Majewski", "address": "2241 Hl Pk Cv Ste A, Jonesboro, AR 72401", "city": "Jonesboro", "phone": "+1 870-333-5737", "website": "", "rating": null, "reviews": 0, "place_id": "ChIJ64TAlbAu1IcRrPfp4hiG1hM", "latitude": 35.8162207, "longitude": -90.69026749999999, "care_type": "Plastic Surgeon"}, {"name": "Sono Bello Little Rock", "address": "17721 Chenal Pkwy Suite B-103, Little Rock, AR 72223", "city": "Little Rock", "phone": "+1 501-900-4523", "website": "https://www.sonobello.com/locations/little-rock/", "rating": 5.0, "reviews": 144, "place_id": "ChIJa-Ky4l2h0ocRBuPEwsnJDG4", "latitude": 34.7655511, "longitude": -92.4583864, "care_type": "Plastic Surgeon"}, {"name": "Arkansas Oculoplastic Surgery", "address": "900 S Shackleford Rd #220, Little Rock, AR 72211", "city": "Little Rock", "phone": "+1 501-223-2244", "website": "https://www.aosplasticsurgery.com/%3Futm_source%3Dgoogle%26utm_medium%3Dorganic%26utm_campaign%3Dgbp%26utm_term%3DArkansas-Oculoplastic-Surgery-Little-Rock%26utm_content%3Dwebsite", "rating": 5.0, "reviews": 3, "place_id": "ChIJe97rGKqm0ocREl4hZsbWwC0", "latitude": 34.7453468, "longitude": -92.39520259999999, "care_type": "Plastic Surgeon"}, {"name": "Dr. Jennings Boyette", "address": "11412 Huron Ln, Little Rock, AR 72211", "city": "Little Rock", "phone": "+1 501-302-1402", "website": "https://www.drboyette.com/", "rating": 5.0, "reviews": 4, "place_id": "ChIJF7TvUUeh0ocRLEQrnGxN5Dw", "latitude": 34.7666814, "longitude": -92.4005177, "care_type": "Plastic Surgeon"}, {"name": "Cypress Center, LLC", "address": "2200 N Rodney Parham Rd, Little Rock, AR 72212", "city": "Little Rock", "phone": "", "website": "", "rating": 3.7, "reviews": 3, "place_id": "ChIJ2XR7eBWh0ocRtUNaHnsTafE", "latitude": 34.77308379999999, "longitude": -92.40355009999999, "care_type": "Plastic Surgeon"}, {"name": "UAMS Health - David A. Sterling, M.D. - Surgery and Interventional Radiology on Rodney Parham", "address": "Surgery and Interventional Radiology, Premier Medical Plaza, 10915 N Rodney Parham Rd, Little Rock, AR 72212", "city": "Little Rock", "phone": "+1 501-686-6349", "website": "https://uamshealth.com/provider/david-a-sterling/%3Futm_source%3Dgoogle%26utm_medium%3Dgmb%26utm_campaign%3Dclinical%26utm_term%3Dprovider%26utm_content%3Dprofile%26utm_specs%3Ddavid-a-sterling_surgery-interventional-radiology", "rating": null, "reviews": 0, "place_id": "ChIJ_dD5dECh0ocRSm7rUp8wOvk", "latitude": 34.7694905, "longitude": -92.39464269999999, "care_type": "Plastic Surgeon"}, {"name": "UAMS Health - Keith G. Wolter, M.D., Ph.D. - UAMS Medical Center Hospital", "address": "UAMS Medical Center, UAMS Medical Center Hospital, 4301 W Markham St, Little Rock, AR 72205", "city": "Little Rock", "phone": "+1 501-686-8000", "website": "https://uamshealth.com/provider/keith-g-wolter/%3Futm_source%3Dgoogle%26utm_medium%3Dgmb%26utm_campaign%3Dclinical%26utm_term%3Dprovider%26utm_content%3Dprofile%26utm_specs%3Dkeith-g-wolter_uams-medical-center", "rating": 5.0, "reviews": 7, "place_id": "ChIJraqqqv-j0ocRah6BUXVn3Gs", "latitude": 34.7493516, "longitude": -92.3207066, "care_type": "Plastic Surgeon"}, {"name": "Arkansas Children's - James C. Yuen, M.D.", "address": "Children's Hospital, 1 Children's Way, Little Rock, AR 72202", "city": "Little Rock", "phone": "+1 501-263-2621", "website": "https://uamshealth.com/provider/james-c-yuen/%3Futm_source%3Dgoogle%26utm_medium%3Dgmb%26utm_campaign%3Dclinical%26utm_term%3Dprovider%26utm_content%3Dprofile%26utm_specs%3Djames-c-yuen_arkansas-childrens", "rating": null, "reviews": 0, "place_id": "ChIJ04GlGiW70ocR-gSt_uVVtKU", "latitude": 34.7429496, "longitude": -92.2929685, "care_type": "Plastic Surgeon"}, {"name": "UAMS Health - Sagar T. Mehta, M.D. - Plastic Surgery Clinic", "address": "UAMS Medical Center Outpatient Center Plastic Surgery Clinic, 4110 Outpatient Cir, Little Rock, AR 72205", "city": "Little Rock", "phone": "+1 501-686-8111", "website": "https://uamshealth.com/provider/sagar-t-mehta/%3Futm_source%3Dgoogle%26utm_medium%3Dgmb%26utm_campaign%3Dclinical%26utm_term%3Dprovider%26utm_content%3Dprofile%26utm_specs%3Dsagar-t-mehta_plastic-surgery", "rating": null, "reviews": 0, "place_id": "ChIJJXgAgLul0ocRGXG2UQQO2XU", "latitude": 34.7476102, "longitude": -92.3185282, "care_type": "Plastic Surgeon"}, {"name": "SKN at Franks Dermatology", "address": "4220 N Rodney Parham Rd #102, Little Rock, AR 72212", "city": "Little Rock", "phone": "+1 501-859-8973", "website": "http://sknatfranksderm.com/", "rating": 4.9, "reviews": 457, "place_id": "ChIJwxYIXUKh0ocRpXqLYTCMm7o", "latitude": 34.7915762, "longitude": -92.39785669999999, "care_type": "Plastic Surgeon"}, {"name": "Dr. Ramona L. Bates, MD", "address": "500 S University Ave, Little Rock, AR 72205", "city": "Little Rock", "phone": "+1 501-663-3385", "website": "", "rating": null, "reviews": 0, "place_id": "ChIJZX3aJH6k0ocR9QVUuh5FzKg", "latitude": 34.747599, "longitude": -92.342809, "care_type": "Plastic Surgeon"}, {"name": "UAMS Health - Keith G. Wolter, M.D., Ph.D. - Plastic Surgery Clinic", "address": "Freeway Medical Tower Plastic Surgery Clinic, 5800 W 10th St, Little Rock, AR 72204", "city": "Little Rock", "phone": "+1 501-686-8111", "website": "https://uamshealth.com/provider/keith-g-wolter/%3Futm_source%3Dgoogle%26utm_medium%3Dgmb%26utm_campaign%3Dclinical%26utm_term%3Dprovider%26utm_content%3Dprofile%26utm_specs%3Dkeith-g-wolter_plastic-surgery", "rating": null, "reviews": 0, "place_id": "ChIJ5QE8tKql0ocRBgp5AoRwJb0", "latitude": 34.7441472, "longitude": -92.33886079999999, "care_type": "Plastic Surgeon"}, {"name": "UAMS Health - Emre A. Vural, M.D. - Head and Neck Oncology Clinic", "address": "UAMS Winthrop P. Rockefeller Cancer Institute Head and Neck Oncology Clinic, 449 Jack Stephens Dr, Little Rock, AR 72205", "city": "Little Rock", "phone": "+1 501-686-8224", "website": "https://uamshealth.com/provider/emre-a-vural/%3Futm_source%3Dgoogle%26utm_medium%3Dgmb%26utm_campaign%3Dclinical%26utm_term%3Dprovider%26utm_content%3Dprofile%26utm_specs%3Demre-a-vural_head-and-neck-oncology-clinic", "rating": 5.0, "reviews": 25, "place_id": "ChIJ-ShahaGk0ocR2PGuOoqq3Tk", "latitude": 34.7486324, "longitude": -92.3189884, "care_type": "Plastic Surgeon"}, {"name": "Arkansas Children's - Keith G. Wolter, M.D., Ph.D.", "address": "Children's Hospital, 1 Children's Way, Little Rock, AR 72202", "city": "Little Rock", "phone": "+1 501-263-2621", "website": "https://uamshealth.com/provider/keith-g-wolter/%3Futm_source%3Dgoogle%26utm_medium%3Dgmb%26utm_campaign%3Dclinical%26utm_term%3Dprovider%26utm_content%3Dprofile%26utm_specs%3Dkeith-g-wolter_arkansas-childrens", "rating": null, "reviews": 0, "place_id": "ChIJ7wppODe70ocRHAKep8XwKRY", "latitude": 34.7429496, "longitude": -92.2929685, "care_type": "Plastic Surgeon"}, {"name": "The Spa at Fort Smith - Swetnam Cosmetic Surgery", "address": "4208 Jenny Lind Rd, Fort Smith, AR 72901", "city": "Fort Smith", "phone": "+1 479-383-2818", "website": "https://swetnamcosmetic.com/", "rating": 5.0, "reviews": 11, "place_id": "ChIJzw1Mq09NyocRHEDfTOXU8XE", "latitude": 35.3431528, "longitude": -94.4142239, "care_type": "Plastic Surgeon"}, {"name": "Vitality Medical Spa", "address": "2500 W Main St Suite B, Russellville, AR 72801", "city": "Russellville", "phone": "+1 479-890-6773", "website": "http://www.vitalitymedspaar.com/", "rating": 4.9, "reviews": 36, "place_id": "ChIJJdJmNr5TzIcRk16sgoU_Rfw", "latitude": 35.2854573, "longitude": -93.156649, "care_type": "Plastic Surgeon"}, {"name": "The Skin Clinic", "address": "110 E University St, Siloam Springs, AR 72761", "city": "Siloam Springs", "phone": "+1 479-220-1554", "website": "https://www.skinclinicsiloam.com/", "rating": 5.0, "reviews": 89, "place_id": "ChIJ47JxcgujyYcREvg2SOzs3UQ", "latitude": 36.1858823, "longitude": -94.5410615, "care_type": "Plastic Surgeon"}, {"name": "Ozark Dermatology", "address": "2033 Ravenwood Plaza, Siloam Springs, AR 72761", "city": "Siloam Springs", "phone": "+1 479-373-6566", "website": "https://ozarkderm.com/", "rating": 4.7, "reviews": 68, "place_id": "ChIJH_LwH36iyYcRuwvk9wF3tvg", "latitude": 36.1825963, "longitude": -94.5205374, "care_type": "Plastic Surgeon"}, {"name": "Joel Epperson, M.D.", "address": "1000 W Kingshighway #7, Paragould, AR 72450", "city": "Paragould", "phone": "+1 870-239-8427", "website": "http://www.myammc.org/AMMCPhysicianServices/JoelEpperson", "rating": 4.0, "reviews": 5, "place_id": "ChIJs7AAYjsp1IcRFkCiWsDIyEc", "latitude": 36.0516557, "longitude": -90.4986923, "care_type": "Plastic Surgeon"}, {"name": "Beauty Boss Co. Aesthetics & Wellness", "address": "1604 S Pine St Suite C, Cabot, AR 72023", "city": "Cabot", "phone": "+1 501-628-8642", "website": "https://beautyboss.co/", "rating": 5.0, "reviews": 210, "place_id": "ChIJea3RcnTv0ocRVctimgEo0DA", "latitude": 34.946992, "longitude": -92.0092233, "care_type": "Plastic Surgeon"}, {"name": "Revolution Med Spa", "address": "1106 S Pine St suite c, Cabot, AR 72023", "city": "Cabot", "phone": "+1 501-286-4055", "website": "https://revolutioncabot.com/", "rating": 5.0, "reviews": 157, "place_id": "ChIJwz0L6Czv0ocRE-NZXCmjy1I", "latitude": 34.953985, "longitude": -92.0090259, "care_type": "Plastic Surgeon"}, {"name": "Arkansas Dermatology - Cabot", "address": "15506 AR-5, Cabot, AR 72023", "city": "Cabot", "phone": "+1 501-941-3101", "website": "http://www.arkansasdermatology.com/", "rating": 4.7, "reviews": 241, "place_id": "ChIJ43UpK1_u0ocR-YMf8dmJU0U", "latitude": 35.0198979, "longitude": -92.0721562, "care_type": "Plastic Surgeon"}, {"name": "Revive Medical Spa, LLC at Advanced Dermatology", "address": "1320 N Main St Suite C2, Harrison, AR 72601", "city": "Harrison", "phone": "+1 870-204-5810", "website": "http://advancedskinmd.com/revive-medical-spa-harrison", "rating": 5.0, "reviews": 88, "place_id": "ChIJJcI6e1z1zocRlsVzDe7v9VA", "latitude": 36.2619348, "longitude": -93.1339225, "care_type": "Plastic Surgeon"}, {"name": "Advanced Dermatology and Skin Cancer Center, PLLC", "address": "1320 US-62 65 N, Harrison, AR 72601", "city": "Harrison", "phone": "+1 870-204-5279", "website": "http://www.advancedskinmd.com/", "rating": 5.0, "reviews": 636, "place_id": "ChIJOdsFe031zocRxNsxMxz_fm8", "latitude": 36.2618612, "longitude": -93.13391329999999, "care_type": "Plastic Surgeon"}, {"name": "Newman, MD Plastic Surgery", "address": "130 E 9th St, Mountain Home, AR 72653", "city": "Mountain Home", "phone": "+1 870-425-6398", "website": "http://www.newmanmdplasticsurgery.com/", "rating": 4.7, "reviews": 23, "place_id": "ChIJS0H8pX3Z0YcRl2uzkWqku_4", "latitude": 36.3327212, "longitude": -92.3839138, "care_type": "Plastic Surgeon"}, {"name": "Facial Focus Cosmetic Surgery", "address": "626 Burnett Dr, Mountain Home, AR 72653", "city": "Mountain Home", "phone": "+1 870-424-4200", "website": "http://www.mhentallergy.com/", "rating": null, "reviews": 0, "place_id": "ChIJS_1_yQ_Z0YcR4yuc6xSJhYU", "latitude": 36.3397542, "longitude": -92.3945152, "care_type": "Plastic Surgeon"}, {"name": "Eric Rosenberger, MD", "address": "626 Burnett Dr, Mountain Home, AR 72653", "city": "Mountain Home", "phone": "+1 870-424-4200", "website": "https://www.healthgrades.com/physician/dr-eric-rosenberger-gfr75", "rating": 5.0, "reviews": 1, "place_id": "ChIJod1ybH7Z0YcRxPXveSdpdVY", "latitude": 36.3397542, "longitude": -92.3945152, "care_type": "Plastic Surgeon"}, {"name": "Adventure Body Contouring", "address": "1310 S Linden St, Pine Bluff, AR 71603", "city": "Pine Bluff", "phone": "+1 870-550-7730", "website": "http://www.adventurebodycontouring.com/", "rating": 5.0, "reviews": 1, "place_id": "ChIJByU79FI7LYYR10lBr5w8VyA", "latitude": 34.2161086, "longitude": -92.0147507, "care_type": "Plastic Surgeon"}, {"name": "Willow Park Rejuvenation", "address": "909 SE 28th St #9, Bentonville, AR 72712", "city": "Bentonville", "phone": "+1 479-273-1426", "website": "https://willowparkrejuvenation.com/", "rating": 4.6, "reviews": 116, "place_id": "ChIJS5KPe-IRyYcRa84Xub2MjKw", "latitude": 36.3431459, "longitude": -94.2004463, "care_type": "Plastic Surgeon"}, {"name": "Plastic Surgery & Hand Center", "address": "2900 Medical Center Pkwy #220, Bentonville, AR 72712", "city": "Bentonville", "phone": "+1 479-464-9191", "website": "", "rating": null, "reviews": 0, "place_id": "ChIJab6X3fQQyYcRM5TLPAEYjNg", "latitude": 36.3402068, "longitude": -94.1913403, "care_type": "Plastic Surgeon"}]