[{"name": "Central Health MedSpa", "address": "935 California Ave # A3, Wahiawa, HI 96786", "city": "Wahiawa", "phone": "+1 808-778-2065", "website": "https://www.centralhealthhawaii.com/centralhealthmedspa", "rating": 5.0, "reviews": 31, "place_id": "ChIJWed0m9pdAHwRNmLpg5DVUH0", "latitude": 21.4975717, "longitude": -158.0245762, "care_type": "Plastic Surgeon"}, {"name": "Shim Ching, MD: Asia Pacific Aesthetics", "address": "1330 Ala Moana Blvd 4th Floor, Honolulu, HI 96814", "city": "Honolulu", "phone": "+1 808-207-7345", "website": "https://www.drshimching.com/%3Futm_source%3DGMBlisting%26utm_medium%3Dorganic%26utm_campaign%3Dgmb", "rating": 4.9, "reviews": 708, "place_id": "ChIJQf310d9tAHwR3k-Wv_lHoA4", "latitude": 21.292104, "longitude": -157.8485068, "care_type": "Plastic Surgeon"}, {"name": "Honolulu Plastic Surgery LLC", "address": "1100 Ward Ave Ste 808, Honolulu, HI 96814", "city": "Honolulu", "phone": "+1 808-792-6262", "website": "https://randywongmd.com/", "rating": 4.9, "reviews": 33, "place_id": "ChIJ1evvPOdtAHwRS_Q42R3EQCk", "latitude": 21.3032775, "longitude": -157.8498249, "care_type": "Plastic Surgeon"}, {"name": "Dr. Benjamin Chu, MD, Plastic Surgery", "address": "1380 Lusitana St #702, Honolulu, HI 96813", "city": "Honolulu", "phone": "+1 808-524-1551", "website": "http://www.drbenjaminchu.com/", "rating": 4.9, "reviews": 48, "place_id": "ChIJDUgIW95tAHwRrJZYBglaz9o", "latitude": 21.3079806, "longitude": -157.8529051, "care_type": "Plastic Surgeon"}, {"name": "Daniel Murariu MD, MPH, MBA, FACS- Hawaii Aesthetics & Robotic Plastic Surgery", "address": "405 N Kuakini St STE 1001, Honolulu, HI 96817", "city": "Honolulu", "phone": "+1 808-302-7188", "website": "http://www.drmurariu.com/", "rating": 5.0, "reviews": 23, "place_id": "ChIJY1bRQsvzNIgRFFvrbEVWZNI", "latitude": 21.3226528, "longitude": -157.8570599, "care_type": "Plastic Surgeon"}, {"name": "Kevin Dieffenbach, M.D. Cosmetic and Plastic Surgery", "address": "98-1247 Ka\u02bbahumanu St #109, Aiea, HI 96701", "city": "Aiea", "phone": "+1 808-678-1955", "website": "https://www.plasticsurgeryoahu.com/", "rating": 4.4, "reviews": 21, "place_id": "ChIJv2CrGQBmAHwRiesH5VQ3EUU", "latitude": 21.3884889, "longitude": -157.9532251, "care_type": "Plastic Surgeon"}, {"name": "Athena Clinic Plastic Surgery", "address": "1319 Punahou St #1070, Honolulu, HI 96826", "city": "Honolulu", "phone": "+1 808-944-8551", "website": "https://www.athenaclinic.com/", "rating": 5.0, "reviews": 19, "place_id": "ChIJ_2bzIuttAHwRNCYiR77tGfo", "latitude": 21.300042, "longitude": -157.8338631, "care_type": "Plastic Surgeon"}, {"name": "Plastic Surgery Oahu", "address": "98-1247 Ka\u02bbahumanu St #109, Aiea, HI 96701", "city": "Aiea", "phone": "+1 808-678-1955", "website": "https://www.plasticsurgeryoahu.com/", "rating": null, "reviews": 0, "place_id": "ChIJ116j-zlpAHwRTHgzpkamKBk", "latitude": 21.3890419, "longitude": -157.9532758, "care_type": "Plastic Surgeon"}, {"name": "Hawaii Dermatology and Plastic Surgery Centers", "address": "970 N Kalaheo Ave #C-108, Kailua, HI 96734", "city": "Kailua", "phone": "+1 808-218-7889", "website": "http://www.hawaiiderm.com/", "rating": 4.8, "reviews": 368, "place_id": "ChIJ6QuDiDkVAHwR-GsCZrqUubA", "latitude": 21.4211017, "longitude": -157.747301, "care_type": "Plastic Surgeon"}, {"name": "Morning Dew Aesthetics", "address": "95-1249 Meheula Pkwy Unit B34, Mililani, HI 96789", "city": "Mililani", "phone": "+1 808-481-3811", "website": "https://morningdewaesthetics.com/", "rating": 4.5, "reviews": 17, "place_id": "ChIJPx4Vk6xvAHwRmB-ZGTb1edc", "latitude": 21.4521408, "longitude": -158.0074815, "care_type": "Plastic Surgeon"}, {"name": "Restivo Plastic Surgery", "address": "100 Wailea Ike Dr Suite 7, Wailea, HI 96753", "city": "Wailea", "phone": "+1 808-320-1448", "website": "http://www.restivoplasticsurgery.com/%3Futm_source%3DGMBlisting%26utm_medium%3Dorganic%26utm_campaign%3Dgmb", "rating": 4.7, "reviews": 53, "place_id": "ChIJ4UosysMGhYAR7wesnwSBvU0", "latitude": 20.686573, "longitude": -156.4380125, "care_type": "Plastic Surgeon"}, {"name": "Central Health", "address": "935 California Ave B17, Wahiawa, HI 96786", "city": "Wahiawa", "phone": "+1 808-797-2978", "website": "https://www.centralhealthhawaii.com/", "rating": 4.8, "reviews": 48, "place_id": "ChIJa4msdONdAHwRu6JTyroaGQM", "latitude": 21.4968884, "longitude": -158.0246789, "care_type": "Plastic Surgeon"}, {"name": "Robert Peterson, MD", "address": "1319 Punahou St #1070, Honolulu, HI 96826", "city": "Honolulu", "phone": "+1 808-944-8551", "website": "https://www.athenaclinic.com/", "rating": 4.2, "reviews": 12, "place_id": "ChIJ_2bzIuttAHwRSkBZ1SSj84c", "latitude": 21.300042, "longitude": -157.8338631, "care_type": "Plastic Surgeon"}, {"name": "The Wellnest", "address": "95-1249 Meheula Pkwy Suite E5, Mililani, HI 96789", "city": "Mililani", "phone": "+1 808-207-2279", "website": "http://www.thewellnesthealth.com/", "rating": 4.9, "reviews": 54, "place_id": "ChIJ0Y2zJ1lnAHwReA_yZZWnako", "latitude": 21.4529107, "longitude": -158.0065092, "care_type": "Plastic Surgeon"}, {"name": "Dr. Michael Anthony Pasquale D.O.", "address": "677 Ala Moana Blvd Suite 1024, Honolulu, HI 96813", "city": "Honolulu", "phone": "+1 808-737-0205", "website": "http://www.nerve.org/", "rating": 4.0, "reviews": 77, "place_id": "ChIJJT_EpA9uAHwRcC6vV-7sSfI", "latitude": 21.2975996, "longitude": -157.8623548, "care_type": "Plastic Surgeon"}, {"name": "Ali'i Nani Aesthetic Medicine", "address": "579 Farrington Hwy #206, Kapolei, HI 96707", "city": "Kapolei", "phone": "+1 808-693-9930", "website": "http://www.aliinani.com/", "rating": 5.0, "reviews": 58, "place_id": "ChIJAZKZzxVjAHwR4Bifsc2EyS8", "latitude": 21.338689, "longitude": -158.076668, "care_type": "Plastic Surgeon"}, {"name": "Pua Manu Medspa", "address": "1020 Kakala St APT 902, Kapolei, HI 96707", "city": "Kapolei", "phone": "+1 808-900-4351", "website": "http://www.puamanumedspa.com/", "rating": 4.8, "reviews": 95, "place_id": "ChIJrTMFxzljAHwRCvD7nkjBVc4", "latitude": 21.3263473, "longitude": -158.076828, "care_type": "Plastic Surgeon"}, {"name": "Healy Plastic Surgery: Jeff Healy, MD", "address": "98-211 Pali Momi St #103, Aiea, HI 96701", "city": "Aiea", "phone": "+1 808-487-0076", "website": "https://healyplasticsurgery.com/%3Futm_source%3Dgoogle%26utm_medium%3Dorganic%26utm_campaign%3Dgbp", "rating": 5.0, "reviews": 119, "place_id": "ChIJZTIrmU1vAHwRPHrUtlLWJN8", "latitude": 21.38179, "longitude": -157.9382756, "care_type": "Plastic Surgeon"}, {"name": "Complete Dermatology, LLC", "address": "1001 Kamokila Blvd #181, Kapolei, HI 96707", "city": "Kapolei", "phone": "+1 808-621-1000", "website": "https://www.complete-dermatology.com/", "rating": 2.6, "reviews": 41, "place_id": "ChIJZwLfqT1jAHwRGDtz-9KhP38", "latitude": 21.334501, "longitude": -158.08105, "care_type": "Plastic Surgeon"}, {"name": "Hawaii Facial Plastic Surgery", "address": "1150 S King St Suite 504, Honolulu, HI 96814", "city": "Honolulu", "phone": "+1 808-636-9084", "website": "https://hawaiifacialplasticsurgery.com/", "rating": 4.9, "reviews": 51, "place_id": "ChIJRclJPU9tAHwRw9cwbODBVY8", "latitude": 21.3007797, "longitude": -157.8447297, "care_type": "Plastic Surgeon"}, {"name": "Dr. S. Larry Schlesinger - PRP Center Hawaii", "address": "1401 S Beretania St. Suite 590, Honolulu, HI 96814", "city": "Honolulu", "phone": "+1 808-597-8835", "website": "https://www.prpcenterhawaii.com/", "rating": 4.8, "reviews": 211, "place_id": "ChIJiQVzIuVtAHwRKD4i-ddKq1w", "latitude": 21.299469, "longitude": -157.8393154, "care_type": "Plastic Surgeon"}, {"name": "Oculofacial Plastic Surgery of Hawaii | Dr. Bradford W. Lee MD | Blepharoplasty Honolulu", "address": "Queens Physician Office Building 1, 1380 Lusitana St #912, Honolulu, HI 96813", "city": "Honolulu", "phone": "+1 808-707-8801", "website": "https://www.drbradfordlee.com/%3Futm_source%3Dgmb", "rating": 5.0, "reviews": 49, "place_id": "ChIJ-RMtfy5tAHwRdOcqf4wxvNk", "latitude": 21.3079573, "longitude": -157.8528568, "care_type": "Plastic Surgeon"}, {"name": "Midnight Sun Clinic and Medical Spa", "address": "91-3633 Kauluakoko St suite 406, Ewa Beach, HI 96706", "city": "Ewa Beach", "phone": "+1 808-688-7762", "website": "", "rating": 5.0, "reviews": 11, "place_id": "ChIJB01sxn5jAHwRjJqzGDWMn4U", "latitude": 21.3608882, "longitude": -158.0486857, "care_type": "Plastic Surgeon"}, {"name": "Frank Fang, MD. Plastic & Reconstructive Surgery", "address": "970 N Kalaheo Ave #C-108, Kailua, HI 96734", "city": "Kailua", "phone": "+1 808-226-9220", "website": "http://frankfangmd.com/", "rating": 5.0, "reviews": 2, "place_id": "ChIJY-ZBlZgVAHwRiZpAiFXWMhk", "latitude": 21.4211017, "longitude": -157.747301, "care_type": "Plastic Surgeon"}, {"name": "Botox Kailua", "address": "1005 Keolu Dr, Kailua, HI 96734", "city": "Kailua", "phone": "+1 808-272-0444", "website": "https://www.botoxkailuahi.com/", "rating": 5.0, "reviews": 83, "place_id": "ChIJ6Yd55SEVAHwRyO31lihhQHU", "latitude": 21.3789224, "longitude": -157.7281838, "care_type": "Plastic Surgeon"}, {"name": "David K Hiranaka, M.D., D.M.D.", "address": "76-6225 Kuakini Hwy, Kailua-Kona, HI 96740", "city": "Kailua-Kona", "phone": "+1 808-326-2040", "website": "http://www.a-new-face.com/", "rating": 4.8, "reviews": 160, "place_id": "ChIJe0Zz-jwPVHkRFCcBOtVCxLk", "latitude": 19.6174284, "longitude": -155.9709434, "care_type": "Plastic Surgeon"}, {"name": "Premier Island Glow Aesthetics", "address": "333 Uluniu St #201A, Kailua, HI 96734", "city": "Kailua", "phone": "+1 808-620-1374", "website": "https://www.premierislandglowaestheticshonolulu.com/", "rating": 5.0, "reviews": 15, "place_id": "ChIJM6Bqf2wVAHwR8SuDVnFdSjA", "latitude": 21.3967367, "longitude": -157.7424576, "care_type": "Plastic Surgeon"}, {"name": "Ko'olau Clinic", "address": "354 Uluniu St Suite 303, Kailua, HI 96734", "city": "Kailua", "phone": "+1 808-594-8795", "website": "http://www.koolauclinic.com/", "rating": 5.0, "reviews": 46, "place_id": "ChIJPbDSG9wUAHwRdaMeuI9en1E", "latitude": 21.3968533, "longitude": -157.7432959, "care_type": "Plastic Surgeon"}, {"name": "Bao Phan MD - Hawaii Plastic Surgery Institute", "address": "1401 S Beretania St. #999, Honolulu, HI 96814", "city": "Honolulu", "phone": "+1 808-888-6190", "website": "http://www.hawaiiplasticsurgeryinstitute.com/", "rating": 4.9, "reviews": 25, "place_id": "ChIJQcAmgmrTVHkRk_RUzabFJ_s", "latitude": 21.2996402, "longitude": -157.8394022, "care_type": "Plastic Surgeon"}, {"name": "Enhance Hawai\u02bbi", "address": "970 N Kalaheo Ave Ste A-111, Kailua, HI 96734", "city": "Kailua", "phone": "+1 808-343-6341", "website": "https://www.enhancehawaii.com/", "rating": 5.0, "reviews": 93, "place_id": "ChIJj-rek4NrAHwRl9T4PdVUWjg", "latitude": 21.4210799, "longitude": -157.7477389, "care_type": "Plastic Surgeon"}, {"name": "Hawaiian Islands Dermatology", "address": "1051 Keolu Dr #107, Kailua, HI 96734", "city": "Kailua", "phone": "+1 808-263-3233", "website": "https://www.hidermatology.com/", "rating": 4.3, "reviews": 81, "place_id": "ChIJoXINlbUUAHwR9WVKTBdd-H4", "latitude": 21.377689, "longitude": -157.7283721, "care_type": "Plastic Surgeon"}, {"name": "Dr. Maxwell Cooper", "address": "407 Uluniu St Ste 313, Kailua, HI 96734", "city": "Kailua", "phone": "+1 808-261-8988", "website": "", "rating": null, "reviews": 0, "place_id": "ChIJAQAwc9wUAHwRqQ6IgEfZpAc", "latitude": 21.3963119, "longitude": -157.7432028, "care_type": "Plastic Surgeon"}, {"name": "Rejuve Aesthetics & Wellness", "address": "94-210 Pupukahi St Ste 206, Waipahu, HI 96797", "city": "Waipahu", "phone": "+1 808-215-9256", "website": "https://www.rejuveaestheticswellness.com/", "rating": 5.0, "reviews": 49, "place_id": "ChIJT5zPtdVlAHwR3ISj3GI2Tkc", "latitude": 21.3811642, "longitude": -158.0178339, "care_type": "Plastic Surgeon"}, {"name": "Dr. James Okamoto, MD, ABFM", "address": "94-849 Lumiaina St #207, Waipahu, HI 96797", "city": "Waipahu", "phone": "+1 808-673-0704", "website": "http://www.mdvip.com/doctors/jamesokamotomd%3Futm_campaign%3Dlisting-yext%26st-t%3Drep_%26utm_source%3Dgoogle%26utm_medium%3Dorganic", "rating": 4.9, "reviews": 8, "place_id": "ChIJqYdUNoFmAHwRpgeit20A4L8", "latitude": 21.3996371, "longitude": -158.0043814, "care_type": "Plastic Surgeon"}, {"name": "Aloha Plastic Surgery LLC", "address": "677 Ala Moana Blvd Suite 1024, Honolulu, HI 96813", "city": "Honolulu", "phone": "+1 808-737-0205", "website": "http://www.nerve.org/", "rating": 5.0, "reviews": 2, "place_id": "ChIJx4xAxghuAHwRnTtLOWTJmLY", "latitude": 21.2975996, "longitude": -157.8623548, "care_type": "Plastic Surgeon"}, {"name": "Bao Phan MD - Hawaii Plastic Surgery Institute (Maui)", "address": "169 Maa St B, Kahului, HI 96732", "city": "Kahului", "phone": "+1 808-888-6190", "website": "http://www.hawaiiplasticsurgeryinstitute.com/", "rating": 5.0, "reviews": 16, "place_id": "ChIJ4wfnXultAHwRPRldLO7i0ss", "latitude": 20.8664271, "longitude": -156.4955509, "care_type": "Plastic Surgeon"}, {"name": "Straub Benioff Cosmetic Surgery", "address": "888 S King St, Honolulu, HI 96813", "city": "Honolulu", "phone": "+1 808-522-4370", "website": "https://www.hawaiipacifichealth.org/cosmetic-surgery", "rating": null, "reviews": 0, "place_id": "ChIJ2cvv1OBtAHwR0r13oQQnx-s", "latitude": 21.30241, "longitude": -157.850632, "care_type": "Plastic Surgeon"}, {"name": "Dr. Zachary Long", "address": "1330 Ala Moana Blvd 4th Floor, Honolulu, HI 96814", "city": "Honolulu", "phone": "+1 808-585-8855", "website": "https://drshimching.com/", "rating": 5.0, "reviews": 11, "place_id": "ChIJH0PetK1tAHwRk7FNDlRLFpk", "latitude": 21.292104, "longitude": -157.8485068, "care_type": "Plastic Surgeon"}, {"name": "Cosmetic & Laser Surgery Center", "address": "1003 Bishop St #390, Honolulu, HI 96813", "city": "Honolulu", "phone": "+1 808-379-3627", "website": "https://www.plasticsurgeonhonoluluhi.com/", "rating": 4.5, "reviews": 21, "place_id": "ChIJzSd0_HRuAHwR2UNu3o_D4tw", "latitude": 21.3089238, "longitude": -157.860504, "care_type": "Plastic Surgeon"}, {"name": "David Cho MD", "address": "Straub Cosmetic Surgery, 888 S King St, Honolulu, HI 96813", "city": "Honolulu", "phone": "+1 808-522-4370", "website": "https://www.hawaiipacifichealth.org/cosmetic-surgery", "rating": 4.7, "reviews": 15, "place_id": "ChIJ_____9ptAHwR6MTz6l6jHK0", "latitude": 21.3025814, "longitude": -157.8501322, "care_type": "Plastic Surgeon"}, {"name": "Bao Phan MD - Hawaii Plastic Surgery Institute (Kauai)", "address": "4370 Kukui Grove St #207, Lihue, HI 96766", "city": "Lihue", "phone": "+1 808-245-5054", "website": "http://www.hawaiiplasticsurgeryinstitute.com/", "rating": 3.7, "reviews": 3, "place_id": "ChIJtcndQIkeB3wRjqw9YWgvL_E", "latitude": 21.9718418, "longitude": -159.3774212, "care_type": "Plastic Surgeon"}, {"name": "Ivey Plastic Surgery", "address": "411 Huku Lii Pl STE 303, Kihei, HI 96753", "city": "Kihei", "phone": "+1 808-500-5146", "website": "http://iveyplasticsurgery.com/", "rating": 5.0, "reviews": 115, "place_id": "ChIJ6TvEPNi32YgRCeYRPfCQ-nM", "latitude": 20.7719901, "longitude": -156.4515649, "care_type": "Plastic Surgeon"}, {"name": "Walter W. Tom, MD, FACS Maui Cosmetic Surgery", "address": "169 Ma'a St, Wailuku, HI 96793", "city": "Wailuku", "phone": "+1 808-445-6800", "website": "http://mauicosmeticsurgery.com/", "rating": 5.0, "reviews": 4, "place_id": "ChIJHSLUg2rTVHkR6wsv8DsnEis", "latitude": 20.8664333, "longitude": -156.4954883, "care_type": "Plastic Surgeon"}, {"name": "Mirzai Plastic Surgery and Medical Aesthetics", "address": "1939 E Vineyard St, Wailuku, HI 96793", "city": "Wailuku", "phone": "+1 808-952-9779", "website": "http://www.mirzaiplasticsurgery.com/", "rating": null, "reviews": 0, "place_id": "ChIJQcAmgmrTVHkRpPNJhSo1plQ", "latitude": 20.889856, "longitude": -156.501162, "care_type": "Plastic Surgeon"}, {"name": "RevitalizeMaui Aesthetic & Longevity Medicine", "address": "411 Huku Lii Pl STE 102, Kihei, HI 96753", "city": "Kihei", "phone": "+1 808-419-7445", "website": "https://www.revitalizemaui.com/", "rating": 4.8, "reviews": 126, "place_id": "ChIJ8QtDnMrRVHkRMatf9izOyo4", "latitude": 20.7718833, "longitude": -156.4516332, "care_type": "Plastic Surgeon"}, {"name": "MediSpa Maui | Aesthetics & Wellness At The Stolley Center", "address": "1445 S Kihei Rd, Kihei, HI 96753", "city": "Kihei", "phone": "+1 808-879-4909", "website": "https://www.medispamaui.com/%3Futm_source%3Dgoogle%26utm_medium%3Dorganic%26utm_campaign%3Dgbp%26utm_term%3DMediSpa-Maui-Aesthetics%26Wellness-At-The-Stolley-Center%26utm_content%3Dwebsite", "rating": 4.9, "reviews": 238, "place_id": "ChIJuXqCfmrQVHkRDXPor_ADWFk", "latitude": 20.744896, "longitude": -156.454378, "care_type": "Plastic Surgeon"}, {"name": "Jon Ivey", "address": "411 Huku Lii Pl, Kihei, HI 96753", "city": "Kihei", "phone": "+1 808-877-7710", "website": "", "rating": null, "reviews": 0, "place_id": "ChIJJ_hvW7XRVHkRoK4UF-gt27U", "latitude": 20.7719745, "longitude": -156.4515659, "care_type": "Plastic Surgeon"}, {"name": "Cosmetic & Laser Surgery Center", "address": "1129 Lower Main St STE 306, Wailuku, HI 96793", "city": "Wailuku", "phone": "+1 808-243-2273", "website": "http://www.drherbich.com/", "rating": 4.7, "reviews": 9, "place_id": "ChIJfzfmYDrTVHkRgs-807Y_hLU", "latitude": 20.8981363, "longitude": -156.4899769, "care_type": "Plastic Surgeon"}, {"name": "Jamie Johnson", "address": "1190 Waianuenue Ave, Hilo, HI 967202089", "city": "Hilo", "phone": "+1 808-932-3000", "website": "https://www.hilomedicalcenter.org/physician/jamie-johnson/", "rating": 4.0, "reviews": 3, "place_id": "ChIJq6pqsqS0U3kRpOIHQYmSFiE", "latitude": 19.7182454, "longitude": -155.1127462, "care_type": "Plastic Surgeon"}, {"name": "Integrated Medicine Institute, Inc.", "address": "1028 Kinoole St, Hilo, HI 96720", "city": "Hilo", "phone": "+1 808-657-4644", "website": "http://www.imiclinics.com/", "rating": 4.8, "reviews": 105, "place_id": "ChIJz2SHxVlLUnkRrJHPqhAwroU", "latitude": 19.7136025, "longitude": -155.0819883, "care_type": "Plastic Surgeon"}, {"name": "Dr. Carl L. De Los Reyes, MD", "address": "670 Ponahawai St, Hilo, HI 96720", "city": "Hilo", "phone": "+1 808-935-7890", "website": "", "rating": null, "reviews": 0, "place_id": "ChIJIbREubK0U3kRitrI2THi8m4", "latitude": 19.7145607, "longitude": -155.0968072, "care_type": "Plastic Surgeon"}, {"name": "Complete Dermatology", "address": "100 Kahelu Ave #226, Mililani, HI 96789", "city": "Mililani", "phone": "+1 808-621-1000", "website": "http://complete-dermatology.com/", "rating": 3.9, "reviews": 97, "place_id": "ChIJqW3CJmdnAHwR1HwUwbjMlQI", "latitude": 21.4803347, "longitude": -158.0211944, "care_type": "Plastic Surgeon"}, {"name": "Foley OB & Aesthetics", "address": "95-720 Lanikuhana Ave Suite #220, Mililani, HI 96789", "city": "Mililani", "phone": "+1 808-762-0261", "website": "http://www.foleyobandaesthetics.com/", "rating": 4.3, "reviews": 42, "place_id": "ChIJPfrQZj5nAHwRQCQ1xNnPDko", "latitude": 21.4548999, "longitude": -158.0056923, "care_type": "Plastic Surgeon"}, {"name": "Maui Cosmetic Laser & Medical Spa", "address": "40 Kupaoa St unit B-101, Makawao, HI 96768", "city": "Makawao", "phone": "+1 808-482-5405", "website": "http://www.mauicosmeticlaser.com/", "rating": 4.1, "reviews": 26, "place_id": "ChIJAfFxnHDTVHkRMB2WVFFkMhY", "latitude": 20.8215212, "longitude": -156.330484, "care_type": "Plastic Surgeon"}, {"name": "Mirzai Plastic Surgery and Medical Aesthetics", "address": "765 Amana St # 502, Honolulu, HI 96814", "city": "Honolulu", "phone": "+1 808-952-9779", "website": "https://www.mirzaiplasticsurgery.com/", "rating": null, "reviews": 0, "place_id": "ChIJb_ngEu5tAHwR5YhpMwo0Sco", "latitude": 21.2939996, "longitude": -157.8400592, "care_type": "Plastic Surgeon"}, {"name": "The Oculoplastics Center", "address": "1380 Lusitana St # 708, Honolulu, HI 96813", "city": "Honolulu", "phone": "+1 808-599-4755", "website": "http://oculoplasticscenter.com/", "rating": 4.9, "reviews": 762, "place_id": "ChIJDUgIW95tAHwRC2Ex0l8iOVg", "latitude": 21.3080213, "longitude": -157.852902, "care_type": "Plastic Surgeon"}, {"name": "Aesthetics Hawaii: Dr Yew Botox Filler Specialist", "address": "725 Kapiolani Blvd STE C101, Honolulu, HI 96813", "city": "Honolulu", "phone": "+1 808-633-8585", "website": "http://www.hawaiibotox.com/%3Futm_source%3Dgoogle%26utm_medium%3Dorganic%26utm_campaign%3Dgmb", "rating": 4.7, "reviews": 175, "place_id": "ChIJEYs_M3RuAHwRyUIBf3C-hdQ", "latitude": 21.3009458, "longitude": -157.8552087, "care_type": "Plastic Surgeon"}, {"name": "Dr. Kenneth Kao", "address": "3288 Moanalua Rd, Honolulu, HI 96819", "city": "Honolulu", "phone": "+1 808-432-0000", "website": "https://healthy.kaiserpermanente.org/hawaii/provider/kenneth-kao-9116850", "rating": 5.0, "reviews": 1, "place_id": "ChIJAQAAS9luAHwRG4UT4U23Q2U", "latitude": 21.3632544, "longitude": -157.9000128, "care_type": "Plastic Surgeon"}, {"name": "Randy Wong MD", "address": "1100 Ward Ave Ste 808, Honolulu, HI 96814", "city": "Honolulu", "phone": "+1 808-792-6262", "website": "http://www.randywongmd.com/", "rating": 4.6, "reviews": 10, "place_id": "ChIJAQBwPOdtAHwRyVYyqMZSX64", "latitude": 21.3035122, "longitude": -157.8498528, "care_type": "Plastic Surgeon"}, {"name": "Rei Facial Plastic Surgery", "address": "1329 Lusitana St # 710, Honolulu, HI 96813", "city": "Honolulu", "phone": "+1 808-400-3272", "website": "https://reifacialplasticsurgery.com/%3Futm_source%3DGMBlisting%26utm_medium%3Dorganic%26utm_campaign%3Dbusiness-profile", "rating": 5.0, "reviews": 16, "place_id": "ChIJ5TlE1PhtAHwRbgEO25F6jws", "latitude": 21.3075359, "longitude": -157.8521078, "care_type": "Plastic Surgeon"}, {"name": "CdR Plastic Surgery", "address": "1329 Lusitana St # 710, Honolulu, HI 96813", "city": "Honolulu", "phone": "+1 808-525-6590", "website": "https://cdrmd.com/", "rating": 5.0, "reviews": 5, "place_id": "ChIJDUgIW95tAHwRK3xpCxRfGPk", "latitude": 21.3075359, "longitude": -157.8521078, "care_type": "Plastic Surgeon"}, {"name": "The Ferguson Clinic | Beauty Defined", "address": "677 Ala Moana Blvd Ste 1011, Honolulu, HI 96813", "city": "Honolulu", "phone": "+1 808-521-1999", "website": "https://www.thefergusonclinic.com/%3Futm_source%3Dgoogle%26utm_medium%3Dorganic%26utm_campaign%3Dgbp_listing", "rating": 4.3, "reviews": 66, "place_id": "ChIJp8aNyAhuAHwRcReEXGpGArw", "latitude": 21.2973958, "longitude": -157.8622118, "care_type": "Plastic Surgeon"}, {"name": "Ishii Plastic Surgery", "address": "1329 Lusitana St # 304, Honolulu, HI 96813", "city": "Honolulu", "phone": "+1 808-537-6630", "website": "", "rating": 5.0, "reviews": 1, "place_id": "ChIJXfHBbN5tAHwRIYTqVFfgMNc", "latitude": 21.3075359, "longitude": -157.8521078, "care_type": "Plastic Surgeon"}, {"name": "Carolyn Mai, MD", "address": "1522 Makaloa St #201, Honolulu, HI 96814", "city": "Honolulu", "phone": "+1 808-469-1997", "website": "https://carolynmaimd.com/", "rating": 4.9, "reviews": 43, "place_id": "ChIJs9HxOu5tAHwRDG-KaXwHVa8", "latitude": 21.293609, "longitude": -157.841269, "care_type": "Plastic Surgeon"}, {"name": "Military Plastic Surgery", "address": "677 Ala Moana Blvd Suite 1024, Honolulu, HI 96813", "city": "Honolulu", "phone": "+1 808-737-0205", "website": "http://www.militaryplasticsurgery.com/", "rating": null, "reviews": 0, "place_id": "ChIJj670yAhuAHwRxTRE3aSrbe0", "latitude": 21.2975996, "longitude": -157.8623548, "care_type": "Plastic Surgeon"}, {"name": "David Yew MD: Botox Filler Specialists", "address": "725 Kapiolani Blvd STE C101, Honolulu, HI 96813", "city": "Honolulu", "phone": "+1 808-633-8585", "website": "http://www.hawaiibotox.com/", "rating": 4.9, "reviews": 28, "place_id": "ChIJUflJJvBtAHwRbCmchZ8WRbg", "latitude": 21.3009458, "longitude": -157.8552087, "care_type": "Plastic Surgeon"}, {"name": "Dr. Timothy F. Mcdevitt, MD", "address": "1380 Lusitana St, Honolulu, HI 96813", "city": "Honolulu", "phone": "+1 808-599-4755", "website": "http://www.oculoplasticscenter.com/", "rating": 4.8, "reviews": 97, "place_id": "ChIJDUgIW95tAHwRRnJ1W9_4zt8", "latitude": 21.3079806, "longitude": -157.8529051, "care_type": "Plastic Surgeon"}, {"name": "Ferguson John MD", "address": "677 Ala Moana Blvd Ste 1011, Honolulu, HI 96813", "city": "Honolulu", "phone": "+1 808-521-1999", "website": "https://www.thefergusonclinic.com/dr-ferguson/", "rating": 4.6, "reviews": 9, "place_id": "ChIJJT_EpA9uAHwRSd0q0JwN6ug", "latitude": 21.2974026, "longitude": -157.8620891, "care_type": "Plastic Surgeon"}, {"name": "Infinity Life Center", "address": "677 Ala Moana Blvd Suite 1024, Honolulu, HI 96813", "city": "Honolulu", "phone": "+1 808-737-0205", "website": "http://infinitylifecenter.com/", "rating": 4.6, "reviews": 21, "place_id": "ChIJq--1EfttAHwRSdZBTcpGjKI", "latitude": 21.2973897, "longitude": -157.8622797, "care_type": "Plastic Surgeon"}, {"name": "Robert W. Schulz, MD", "address": "888 S King St, Honolulu, HI 96813", "city": "Honolulu", "phone": "+1 808-522-4370", "website": "https://www.hawaiipacifichealth.org/cosmetic-surgery", "rating": 5.0, "reviews": 3, "place_id": "ChIJ2cvv1OBtAHwR3yM5AJOzXT4", "latitude": 21.3025808, "longitude": -157.8505419, "care_type": "Plastic Surgeon"}, {"name": "Parsa F Don Dr Inc", "address": "1329 Lusitana St # 807, Honolulu, HI 96813", "city": "Honolulu", "phone": "+1 808-526-0303", "website": "", "rating": 5.0, "reviews": 2, "place_id": "ChIJXfHBbN5tAHwRf36MZ4FTD8k", "latitude": 21.3075359, "longitude": -157.8521078, "care_type": "Plastic Surgeon"}, {"name": "Michael Pharaon, MD", "address": "Dept.of Plastic Surgery, Straub Medical Center, 888 S King St, Honolulu, HI 96813", "city": "Honolulu", "phone": "+1 808-522-4370", "website": "https://www.hawaiipacifichealth.org/straub/find-a-physician/search-results//physician%3Fid%3D857", "rating": 5.0, "reviews": 6, "place_id": "ChIJFUsW0-ZtAHwR4lONiQQQXOQ", "latitude": 21.3025814, "longitude": -157.8501322, "care_type": "Plastic Surgeon"}, {"name": "Renewal Plastic Surgeon Clinic", "address": "4 Goldfield Rd, Honolulu, HI 965657", "city": "Honolulu", "phone": "", "website": "http://labiaplasty.co.za/", "rating": null, "reviews": 0, "place_id": "ChIJA9J5mXVuAHwRbbQA2wYGc8c", "latitude": 21.3098845, "longitude": -157.8581401, "care_type": "Plastic Surgeon"}, {"name": "Cosmetic Surgery International", "address": "1003 Bishop St #390, Honolulu, HI 96813", "city": "Honolulu", "phone": "+1 808-230-2400", "website": "http://plasticsurgeonhonoluluhi.com/", "rating": null, "reviews": 0, "place_id": "ChIJyRZbDtwUAHwRqRMC07d8ZYw", "latitude": 21.3089238, "longitude": -157.860504, "care_type": "Plastic Surgeon"}, {"name": "Nip Vincent J Dr Inc", "address": "1380 Lusitana St # 808, Honolulu, HI 96813", "city": "Honolulu", "phone": "+1 808-538-1050", "website": "https://www.queens.org/providers/1028/vincent-j-nip/", "rating": 3.8, "reviews": 14, "place_id": "ChIJDUgIW95tAHwR3dQORl2ETgo", "latitude": 21.3080213, "longitude": -157.852902, "care_type": "Plastic Surgeon"}, {"name": "Dr. Carl Delos Reyes", "address": "1329 Lusitana St # 710, Honolulu, HI 96813", "city": "Honolulu", "phone": "+1 808-525-6590", "website": "https://www.cdrmd.com/", "rating": 3.0, "reviews": 1, "place_id": "ChIJVVVl2OZtAHwRFR3chwHxFHI", "latitude": 21.3075591, "longitude": -157.8521238, "care_type": "Plastic Surgeon"}, {"name": "Matsuda Dermatology", "address": "405 N Kuakini St STE 703, Honolulu, HI 96817", "city": "Honolulu", "phone": "+1 808-949-7568", "website": "http://matsudadermatology.com/%3Futm_source%3Dgmb_auth", "rating": 4.8, "reviews": 0, "place_id": "ChIJ5Y4MqHhuAHwRWwilCd5deI8", "latitude": 21.3226409, "longitude": -157.8570981, "care_type": "Plastic Surgeon"}, {"name": "Aloha Laser Aesthetics", "address": "1100 Ward Ave #1015, Honolulu, HI 96814", "city": "Honolulu", "phone": "+1 808-792-8421", "website": "https://www.alohalaseraesthetics.com/", "rating": 5.0, "reviews": 0, "place_id": "ChIJGS0_OthtAHwR1GA9BaDQb7U", "latitude": 21.3035122, "longitude": -157.8498528, "care_type": "Plastic Surgeon"}, {"name": "Honolulu MedSpa", "address": "1650 Liliha St Suite 102, Honolulu, HI 96817", "city": "Honolulu", "phone": "+1 808-528-0888", "website": "https://honolulumedspa.com/", "rating": 4.6, "reviews": 0, "place_id": "ChIJJ9d3w3huAHwRynYt-qKUihY", "latitude": 21.3228122, "longitude": -157.8590478, "care_type": "Plastic Surgeon"}, {"name": "The Things We Do", "address": "660 Ala Moana Blvd #150, Honolulu, HI 96813", "city": "Honolulu", "phone": "+1 808-464-6628", "website": "https://thethingswedo.co/", "rating": 4.7, "reviews": 0, "place_id": "ChIJY69pqtlvAHwR6hNqg6ejBZo", "latitude": 21.2984366, "longitude": -157.8619263, "care_type": "Plastic Surgeon"}, {"name": "Beauty Defined Hawaii Med Spa", "address": "677 Ala Moana Blvd Ste 1011, Honolulu, HI 96813", "city": "Honolulu", "phone": "+1 808-521-1999", "website": "https://linkin.bio/beautydefined", "rating": 5.0, "reviews": 0, "place_id": "ChIJ__9PyAhuAHwRwjvQpdgoZ-U", "latitude": 21.2973958, "longitude": -157.8622118, "care_type": "Plastic Surgeon"}, {"name": "Ageless Sculpting and Wellness", "address": "1708 Nuuanu Ave Suite 2, Honolulu, HI 96817", "city": "Honolulu", "phone": "+1 808-728-1141", "website": "http://www.agelesssculptingandwellness.com/", "rating": 4.8, "reviews": 0, "place_id": "ChIJyws01bZtAHwRIvHIMPbWC7o", "latitude": 21.3182321, "longitude": -157.8550598, "care_type": "Plastic Surgeon"}, {"name": "SCOTT M NISHIKAWA", "address": "711 Kapiolani Blvd Suite 500, Honolulu, HI 96813", "city": "Honolulu", "phone": "+1 808-942-8108", "website": "https://healthy.kaiserpermanente.org/hawaii/provider/scott-nishikawa-6809852", "rating": null, "reviews": 0, "place_id": "ChIJJfUf7uFtAHwRp_kHNmaxhrc", "latitude": 21.301318, "longitude": -157.8559533, "care_type": "Plastic Surgeon"}, {"name": "Kauai Aesthetics", "address": "5-4280 Kuhio Hwy # C208, Princeville, HI 96722", "city": "Princeville", "phone": "+1 808-977-0109", "website": "http://www.kauaiaesthetics.com/", "rating": 5.0, "reviews": 73, "place_id": "ChIJI1IL4rflBnwRlerWOTmmHT0", "latitude": 22.2138977, "longitude": -159.4740408, "care_type": "Plastic Surgeon"}, {"name": "Maui Plastic Surgery", "address": "239 E Wakea Ave, Kahului, HI 96732", "city": "Kahului", "phone": "+1 808-871-9791", "website": "https://doctorleonardyu.com/", "rating": null, "reviews": 0, "place_id": "ChIJ2yFE48LSVHkR43d1MwPHJGE", "latitude": 20.8868943, "longitude": -156.4609566, "care_type": "Plastic Surgeon"}, {"name": "Body Rx", "address": "91-1121 Keaunui Dr Suite #208, Ewa Beach, HI 96706", "city": "Ewa Beach", "phone": "+1 808-761-3677", "website": "http://bodyrxhawaii.com/", "rating": 5.0, "reviews": 63, "place_id": "ChIJGyh3mVVnAHwRlYE7TqEOntI", "latitude": 21.328231, "longitude": -158.0208567, "care_type": "Plastic Surgeon"}]