[{"name": "Des Moines Plastic Surgery", "address": "6420 Coachlight Dr #100, West Des Moines, IA 50266", "city": "West Des Moines", "phone": "+1 515-221-9999", "website": "https://www.dsmplasticsurgery.com/%3Futm_source%3Dgoogle%26utm_medium%3Dorganic%26utm_campaign%3Dgbp%26utm_term%3DDes-Moines-Plastic-Surgery%26utm_content%3Dwebsite", "rating": 4.7, "reviews": 308, "place_id": "ChIJRz4yKBkh7IcRPugOQmnzDRQ", "latitude": 41.5655283, "longitude": -93.7963999, "care_type": "Plastic Surgeon"}, {"name": "Koch & Carlisle Plastic Surgery & Spa", "address": "4855 Mills Civic Pkwy #100, West Des Moines, IA 50265", "city": "West Des Moines", "phone": "+1 515-277-5555", "website": "https://www.kochandcarlisle.com/%3Futm_source%3Dgoogle%26utm_medium%3Dlocal%26utm_campaign%3Ddesmoines-practice-website", "rating": 4.9, "reviews": 581, "place_id": "ChIJkQs-Dtee7ocRBrXONaBcnx0", "latitude": 41.55983579999999, "longitude": -93.76806119999999, "care_type": "Plastic Surgeon"}, {"name": "Bryan Folkers, DO, FACOS", "address": "1801 Hickman Rd, Des Moines, IA 50314", "city": "Des Moines", "phone": "+1 515-282-8280", "website": "https://www.broadlawns.org/clinics-and-services/plastic-surgery", "rating": 4.9, "reviews": 57, "place_id": "ChIJqRwtdyCZ7ocRIe_R4ATxHjA", "latitude": 41.616506, "longitude": -93.64214969999999, "care_type": "Plastic Surgeon"}, {"name": "Konstantinos Lekkas, MD, FACS", "address": "5950 University Ave, West Des Moines, IA 50266", "city": "West Des Moines", "phone": "+1 515-875-9744", "website": "https://www.iowaclinic.com/doctors/konstantinos-lekkas/%3Futm_source%3Dextnet%26utm_medium%3Dyext", "rating": 4.7, "reviews": 46, "place_id": "ChIJiSwOgyIh7IcR02GtYpspSdY", "latitude": 41.59866, "longitude": -93.7923812, "care_type": "Plastic Surgeon"}, {"name": "Cody A. Koch, MD, PhD", "address": "4855 Mills Civic Pkwy #100, West Des Moines, IA 50265", "city": "West Des Moines", "phone": "+1 515-277-5555", "website": "https://www.kochandcarlisle.com/about-us/dr-cody-koch/%3Futm_source%3Dgoogle%26utm_medium%3Dlocal%26utm_campaign%3Ddesmoines-c-koch-website", "rating": 5.0, "reviews": 10, "place_id": "ChIJAc6ZpkAg7IcRmE8kZp6PkcA", "latitude": 41.559858, "longitude": -93.76804399999999, "care_type": "Plastic Surgeon"}, {"name": "Michael Carlisle, MD", "address": "4855 Mills Civic Pkwy #100, West Des Moines, IA 50265", "city": "West Des Moines", "phone": "+1 515-277-5555", "website": "https://www.kochandcarlisle.com/about-us/dr-michael-carlisle/%3Futm_source%3Dgoogle%26utm_medium%3Dlocal%26utm_campaign%3Ddesmoines-carlisle-website", "rating": 4.6, "reviews": 26, "place_id": "ChIJFR1NoAmZ7ocRLs_NgJ9r4kY", "latitude": 41.5598469, "longitude": -93.76805259999999, "care_type": "Plastic Surgeon"}, {"name": "David Robbins", "address": "6420 Coachlight Dr #100, West Des Moines, IA 50266", "city": "West Des Moines", "phone": "", "website": "https://www.dsmplasticsurgery.com/about-us/dr-david-robbins/", "rating": 5.0, "reviews": 1, "place_id": "ChIJBQHUUboh7IcR5-RnpdBgzDo", "latitude": 41.5655283, "longitude": -93.7963999, "care_type": "Plastic Surgeon"}, {"name": "Heartland Plastic & Reconstructive Surgery, P.C.", "address": "10611 Hickman Rd, Des Moines, IA 50322", "city": "Des Moines", "phone": "+1 515-254-2265", "website": "https://heartlandps.com/", "rating": 3.8, "reviews": 38, "place_id": "ChIJRa-d87Ug7IcR1kPQ8rVzqgg", "latitude": 41.6158316, "longitude": -93.7635825, "care_type": "Plastic Surgeon"}, {"name": "Dr. Eugene J. Cherny, MD", "address": "10611 Hickman Rd, Urbandale, IA 50322", "city": "Urbandale", "phone": "+1 515-254-2265", "website": "https://heartlandps.com/dr-eugene-chernys-credentials/", "rating": 3.6, "reviews": 11, "place_id": "ChIJRa-d87Ug7IcReWrUY2JPHpE", "latitude": 41.6159176, "longitude": -93.76353069999999, "care_type": "Plastic Surgeon"}, {"name": "Brenton B. Koch, MD, FACS", "address": "4855 Mills Civic Pkwy #100, West Des Moines, IA 50265", "city": "West Des Moines", "phone": "+1 515-277-5555", "website": "https://www.kochandcarlisle.com/about-us/dr-brenton-koch/%3Futm_source%3Dgoogle%26utm_medium%3Dlocal%26utm_campaign%3Ddesmoines-koch-website", "rating": 3.8, "reviews": 8, "place_id": "ChIJkQs-Dtee7ocRBOWJBAwmxQg", "latitude": 41.5598469, "longitude": -93.76805259999999, "care_type": "Plastic Surgeon"}, {"name": "Dr. David Jerkins, MD - PCI Plastic & Reconstructive Surgery", "address": "202 10th St SE, Cedar Rapids, IA 52403", "city": "Cedar Rapids", "phone": "+1 319-247-3800", "website": "https://www.pciplasticsurgery.com/", "rating": 4.9, "reviews": 44, "place_id": "ChIJr3qEVoT35IcRr0jZcta863o", "latitude": 41.9833627, "longitude": -91.6582036, "care_type": "Plastic Surgeon"}, {"name": "McNaughton Plastic Surgery, LLC", "address": "302 Jones St STE 330, Sioux City, IA 51101", "city": "Sioux City", "phone": "+1 712-202-2260", "website": "http://www.mcnaughtonps.com/", "rating": 4.8, "reviews": 34, "place_id": "ChIJLbTS0Gn9jYcRkPjZxEWJ_i0", "latitude": 42.4934437, "longitude": -96.3997588, "care_type": "Plastic Surgeon"}, {"name": "Dr. Andrews Plastic Surgery", "address": "1100 5th St #210, Coralville, IA 52241", "city": "Coralville", "phone": "+1 319-450-7619", "website": "https://www.drandrewsplasticsurgery.com/", "rating": 4.8, "reviews": 463, "place_id": "ChIJIel5N0r35IcRQ8dLEnvC9ss", "latitude": 41.6752203, "longitude": -91.5794943, "care_type": "Plastic Surgeon"}, {"name": "MercyOne Clive Plastic & Reconstructive Surgery", "address": "1601 NW 114th St Suite 151, Clive, IA 50325", "city": "Clive", "phone": "+1 515-643-5455", "website": "https://www.mercyone.org/location/mercyone-clive-plastic-reconstructive-surgery", "rating": 3.0, "reviews": 4, "place_id": "ChIJBxgPl1qZ7ocRert4M7wb8Q8", "latitude": 41.6051303, "longitude": -93.7731773, "care_type": "Plastic Surgeon"}, {"name": "Katy Skibba, MD @ MercyOne Plastic and Reconstructive Surgery", "address": "1601 NW 114th St Suite 151, Clive, IA 50325", "city": "Clive", "phone": "+1 515-643-5455", "website": "https://www.mercyone.org/desmoines/provider/katy-skibba-md-plastic-and-reconstructive-surgery", "rating": 5.0, "reviews": 17, "place_id": "ChIJx0qclQkh7IcRQE7za3oIg5M", "latitude": 41.6051021, "longitude": -93.77315329999999, "care_type": "Plastic Surgeon"}, {"name": "SOMA Cosmetic Surgery & Aesthetics", "address": "12107 Stratford Dr, Clive, IA 50325", "city": "Clive", "phone": "+1 515-395-7661", "website": "https://www.somadsm.com/", "rating": 4.8, "reviews": 18, "place_id": "ChIJyYwgdqwh7IcRssl0AvicpIE", "latitude": 41.6028404, "longitude": -93.7842253, "care_type": "Plastic Surgeon"}, {"name": "The Iowa Clinic Plastic Surgery - West Des Moines Campus", "address": "5950 University Ave, West Des Moines, IA 50266", "city": "West Des Moines", "phone": "+1 515-875-9744", "website": "https://www.iowaclinic.com/locations/the-iowa-clinic-west-des-moines-campus/plastic-surgery-west-des-moines/%3Futm_source%3Dextnet%26utm_medium%3Dyext", "rating": 3.0, "reviews": 4, "place_id": "ChIJiSwOgyIh7IcRc11pmev8ajk", "latitude": 41.598691, "longitude": -93.792406, "care_type": "Plastic Surgeon"}, {"name": "Sono Bello Des Moines", "address": "1055 Jordan Creek Pkwy Suite 140, West Des Moines, IA 50266", "city": "West Des Moines", "phone": "+1 515-257-6990", "website": "https://www.sonobello.com/", "rating": 4.9, "reviews": 186, "place_id": "ChIJL1bRCU0h7IcRxzVDZXloK5g", "latitude": 41.58345, "longitude": -93.8077033, "care_type": "Plastic Surgeon"}, {"name": "Audrey Ko, MD", "address": "6200 Westown Pkwy, West Des Moines, IA 50266", "city": "West Des Moines", "phone": "+1 515-223-8685", "website": "https://www.wolfeeyeclinic.com/find-a-doctor/audrey-c-ko", "rating": 4.9, "reviews": 90, "place_id": "ChIJv1FPnV2Z7ocRCnB-MmemPws", "latitude": 41.5937726, "longitude": -93.7944287, "care_type": "Plastic Surgeon"}, {"name": "The Iowa Clinic Plastic Surgery - South Waukee Campus", "address": "1025 SE Tallgrass Ln, Waukee, IA 50263", "city": "Waukee", "phone": "+1 515-875-9744", "website": "https://www.iowaclinic.com/locations/the-iowa-clinic-south-waukee-campus/plastic-surgery-south-waukee/%3Futm_source%3Dextnet%26utm_medium%3Dyext", "rating": null, "reviews": 0, "place_id": "ChIJsZVf8fEj7IcRQtcXIzM5eVE", "latitude": 41.5863372, "longitude": -93.8536609, "care_type": "Plastic Surgeon"}, {"name": "Suzie Kuhnen, DO", "address": "4949 Westown Pkwy Suite 100, West Des Moines, IA 50266", "city": "West Des Moines", "phone": "+1 515-225-7001", "website": "https://www.iowaspecialtysurgeons.com/suzie_kuhnen.html", "rating": 4.0, "reviews": 4, "place_id": "ChIJVaPVmykh7IcRnMs8MmiMajc", "latitude": 41.5964339, "longitude": -93.77033499999999, "care_type": "Plastic Surgeon"}, {"name": "Coachlight Clinic & Spa", "address": "6420 Coachlight Dr #200, West Des Moines, IA 50266", "city": "West Des Moines", "phone": "+1 515-221-4905", "website": "https://www.dsmcoachlight.com/%3Futm_source%3Dgoogle%26utm_medium%3Dorganic%26utm_campaign%3Dgbp%26utm_term%3DCoachlight-Clinic%26Spa-West-Des-Moines%26utm_content%3Dwebsite", "rating": 4.9, "reviews": 1101, "place_id": "ChIJRz4yKBkh7IcRGt5kHu0EzP4", "latitude": 41.5654678, "longitude": -93.7962951, "care_type": "Plastic Surgeon"}, {"name": "Catherine Coyne, MD", "address": "5950 University Ave, West Des Moines, IA 50266", "city": "West Des Moines", "phone": "+1 515-875-9744", "website": "https://www.iowaclinic.com/doctors/catherine-coyne/%3Futm_source%3Dextnet%26utm_medium%3Dyext", "rating": 5.0, "reviews": 2, "place_id": "ChIJD6PXMagh7IcRcp2nFFr6lxw", "latitude": 41.598737, "longitude": -93.79282789999999, "care_type": "Plastic Surgeon"}, {"name": "MercyOne Des Moines Cleft & Craniofacial Center", "address": "1601 NW 114th St, Clive, IA 50325", "city": "Clive", "phone": "+1 515-643-5455", "website": "https://www.mercyone.org/desmoines/location/mercyone-des-moines-cleft-craniofacial-center", "rating": null, "reviews": 0, "place_id": "ChIJx5qAyUOZ7ocRkXuj_7oJ6b4", "latitude": 41.6050292, "longitude": -93.7734223, "care_type": "Plastic Surgeon"}, {"name": "Timothy Schurman, MD, FACS", "address": "5950 University Ave, West Des Moines, IA 50266", "city": "West Des Moines", "phone": "+1 515-875-9744", "website": "https://www.iowaclinic.com/doctors/d188/timothy-schurman/%3Futm_source%3Dextnet%26utm_medium%3Dyext", "rating": 3.9, "reviews": 39, "place_id": "ChIJiSwOgyIh7IcR4HeTHTBjsak", "latitude": 41.5986304, "longitude": -93.79240949999999, "care_type": "Plastic Surgeon"}, {"name": "DASH Aesthetics at Aesthetic Collective", "address": "6750 Westown Pkwy #110, West Des Moines, IA 50266", "city": "West Des Moines", "phone": "+1 515-220-1838", "website": "https://aestheticcollectives.com/west-des-moines/", "rating": 5.0, "reviews": 55, "place_id": "ChIJp0CKQHEh7IcRlFcvZUs8frg", "latitude": 41.5944906, "longitude": -93.8029454, "care_type": "Plastic Surgeon"}, {"name": "Versteeg Plastic Surgery", "address": "1045 76th St # 1050, West Des Moines, IA 50266", "city": "West Des Moines", "phone": "+1 515-224-8946", "website": "", "rating": null, "reviews": 0, "place_id": "ChIJ0YgkJXEh7IcRYMcn-n2uGiM", "latitude": 41.5839013, "longitude": -93.8119804, "care_type": "Plastic Surgeon"}, {"name": "Aesthetic Collective", "address": "6750 Westown Pkwy #110, West Des Moines, IA 50266", "city": "West Des Moines", "phone": "+1 515-220-1838", "website": "https://aestheticcollectives.com/west-des-moines/", "rating": 5.0, "reviews": 246, "place_id": "ChIJjZ-MMVsh7IcRsqYj3cgQKtU", "latitude": 41.5944906, "longitude": -93.8029454, "care_type": "Plastic Surgeon"}, {"name": "Iowa Face and Body", "address": "4090 Westown Pkwy STE A1, West Des Moines, IA 50266", "city": "West Des Moines", "phone": "+1 515-225-8889", "website": "http://www.iowafaceandbody.com/", "rating": 4.9, "reviews": 107, "place_id": "ChIJt1s4jhkh7IcR8y4_yEFkEfw", "latitude": 41.5937571, "longitude": -93.75930129999999, "care_type": "Plastic Surgeon"}, {"name": "Maria Steil, MD", "address": "5950 University Ave, West Des Moines, IA 50266", "city": "West Des Moines", "phone": "+1 515-875-9744", "website": "https://www.iowaclinic.com/doctors/maria-steil/%3Futm_source%3Dextnet%26utm_medium%3Dyext", "rating": 4.7, "reviews": 9, "place_id": "ChIJUxbfKVch7IcRuuSSC2f9W5Q", "latitude": 41.5987149, "longitude": -93.79237309999999, "care_type": "Plastic Surgeon"}, {"name": "Dr. Greg Ganske", "address": "6000 University Ave Suite 140, West Des Moines, IA 50266", "city": "West Des Moines", "phone": "", "website": "", "rating": 2.3, "reviews": 3, "place_id": "ChIJ5wEbZT0h7IcRiZnvVf_l4VY", "latitude": 41.5991365, "longitude": -93.79594399999999, "care_type": "Plastic Surgeon"}, {"name": "Forefront Dermatology Clive, IA - Aesthetics", "address": "12327 Stratford Dr Suite A, Clive, IA 50325", "city": "Clive", "phone": "+1 515-224-7088", "website": "https://forefrontdermatology.com/location/clive-ia-50325/cosmetic-dermatology/", "rating": 4.1, "reviews": 53, "place_id": "ChIJ6ZJQHyEh7IcRaVrW3jYe-_4", "latitude": 41.6026192, "longitude": -93.7871282, "care_type": "Plastic Surgeon"}, {"name": "Chapter Aesthetic Studio", "address": "210 Jordan Creek Pkwy, West Des Moines, IA 50266", "city": "West Des Moines", "phone": "+1 515-310-3556", "website": "https://www.mychapter.com/locations/ia/west-des-moines/210-jordan-creek-parkway/%3Futm_source%3DGoogle_Places%26utm_medium%3DYext_Listings%26utm_campaign%3D,IA", "rating": 4.7, "reviews": 193, "place_id": "ChIJOce92mch7IcRpEky7kcORtQ", "latitude": 41.570445, "longitude": -93.80995109999999, "care_type": "Plastic Surgeon"}, {"name": "Vaginal Rejuvenation Iowa", "address": "6420 Coachlight Dr, West Des Moines, IA 50266", "city": "West Des Moines", "phone": "+1 515-221-9999", "website": "https://www.dsmplasticsurgery.com/body-procedures/vaginal-rejuvenation/", "rating": null, "reviews": 0, "place_id": "ChIJ7c3oUboh7IcRVxOuITC4bMY", "latitude": 41.565553, "longitude": -93.7964791, "care_type": "Plastic Surgeon"}, {"name": "Suzanne Kuhnen", "address": "4949 Westown Pkwy Suite 100, West Des Moines, IA 50266", "city": "West Des Moines", "phone": "+1 515-225-7001", "website": "https://www.iowaspecialtysurgeons.com/suzie_kuhnen.html", "rating": null, "reviews": 0, "place_id": "ChIJq6qqDekg7IcRl2CWcCfHcFc", "latitude": 41.5964339, "longitude": -93.77033499999999, "care_type": "Plastic Surgeon"}, {"name": "Mark Reece, MD", "address": "5950 University Ave, West Des Moines, IA 50266", "city": "West Des Moines", "phone": "+1 515-875-9744", "website": "", "rating": 3.0, "reviews": 2, "place_id": "ChIJiSwOgyIh7IcR0DZS7LwB1u0", "latitude": 41.5987379, "longitude": -93.79241929999999, "care_type": "Plastic Surgeon"}, {"name": "Skiff Surgery Clinic", "address": "300 N 4th Ave E, Newton, IA 50208", "city": "Newton", "phone": "+1 641-787-3161", "website": "", "rating": 1.0, "reviews": 1, "place_id": "ChIJl9nySNwc74cREqz6FBqJ2Dw", "latitude": 41.7034577, "longitude": -93.0507284, "care_type": "Plastic Surgeon"}, {"name": "FFC Beauty", "address": "302 E Trail Ridge Ave Suite 200, Indianola, IA 50125", "city": "Indianola", "phone": "+1 515-310-3663", "website": "http://www.ffc-beauty.com/%3Futm_source%3Dgoogle%26utm_medium%3Dwix_google_business_profile%26utm_campaign%3D1080297192680247185", "rating": 4.9, "reviews": 11, "place_id": "ChIJ4c9c49yx7ocRz4SP4DTkY00", "latitude": 41.3842341, "longitude": -93.5545597, "care_type": "Plastic Surgeon"}, {"name": "Indianola IV & Wellness", "address": "112 E Detroit Ave, Indianola, IA 50125", "city": "Indianola", "phone": "+1 515-518-9103", "website": "http://www.indianolaiv.com/", "rating": 5.0, "reviews": 92, "place_id": "ChIJken-WzGx7ocREzYvXCTdmAA", "latitude": 41.3646339, "longitude": -93.5598727, "care_type": "Plastic Surgeon"}, {"name": "MercyOne Genesis Plastic Surgery", "address": "4334 E 53rd St, Davenport, IA 52807", "city": "Davenport", "phone": "+1 563-421-9000", "website": "https://www.mercyone.org/location/mercyone-genesis-plastic-surgery", "rating": 4.6, "reviews": 105, "place_id": "ChIJ77vT4ms24ocRlyRoZzDlvrY", "latitude": 41.5755163, "longitude": -90.5105564, "care_type": "Plastic Surgeon"}, {"name": "Epiphany Dermatology", "address": "2605 Washington St, Pella, IA 50219", "city": "Pella", "phone": "+1 641-620-9119", "website": "https://www.epiphanydermatology.com/location/pella-ia/", "rating": 4.9, "reviews": 851, "place_id": "ChIJD6LJolsl74cR9gLqp-af_iQ", "latitude": 41.4091529, "longitude": -92.95366659999999, "care_type": "Plastic Surgeon"}, {"name": "Iowa City Plastic Surgery", "address": "501 12th Ave Ste 102, Coralville, IA 52241", "city": "Coralville", "phone": "", "website": "https://www.drandrewsplasticsurgery.com/", "rating": 5.0, "reviews": 1, "place_id": "ChIJszlrQOdD5IcRsCe_7yrRDso", "latitude": 41.6760907, "longitude": -91.5801742, "care_type": "Plastic Surgeon"}, {"name": "Scott Owen, MD", "address": "200 Hawkins Dr, Iowa City, IA 52242", "city": "Iowa City", "phone": "+1 319-356-3600", "website": "https://uihc.org/scott-owen", "rating": 4.7, "reviews": 25, "place_id": "ChIJITxlnZBB5IcRWkx6JncgVXU", "latitude": 41.6601201, "longitude": -91.5486088, "care_type": "Plastic Surgeon"}, {"name": "Surgical Services", "address": "510 E Bloomington St, Iowa City, IA 52245", "city": "Iowa City", "phone": "+1 319-458-5328", "website": "http://www.surgeryiowacity.com/", "rating": 4.9, "reviews": 30, "place_id": "ChIJV5JxzPtB5IcRA1htNCxAB4s", "latitude": 41.6650374, "longitude": -91.527915, "care_type": "Plastic Surgeon"}, {"name": "Dr. Mark Fisher", "address": "200 Hawkins Dr, Iowa City, IA 52242", "city": "Iowa City", "phone": "+1 319-353-6811", "website": "", "rating": 5.0, "reviews": 1, "place_id": "ChIJsY6PN5BB5IcRNqtv4jrRtPs", "latitude": 41.6596442, "longitude": -91.54862589999999, "care_type": "Plastic Surgeon"}, {"name": "Dr. Stephanie M. Fischer, MD", "address": "200 Hawkins Dr, Iowa City, IA 52242", "city": "Iowa City", "phone": "+1 319-356-1616", "website": "http://www.uihealthcare.org/", "rating": 5.0, "reviews": 1, "place_id": "ChIJITxlnZBB5IcRo2xQkO3Kohk", "latitude": 41.6594594, "longitude": -91.5479919, "care_type": "Plastic Surgeon"}, {"name": "The ReCenter", "address": "1100 5th St Suite 201, Coralville, IA 52241", "city": "Coralville", "phone": "+1 319-694-6086", "website": "https://www.therecenter.com/", "rating": 5.0, "reviews": 189, "place_id": "ChIJ1_-sUXtD5IcRs-mwudATdUA", "latitude": 41.6751805, "longitude": -91.5794918, "care_type": "Plastic Surgeon"}, {"name": "Plastic Surgery Center PC", "address": "3385 Dexter Ct Pavilion 3, Ste 115, Davenport, IA 52807", "city": "Davenport", "phone": "+1 563-359-4777", "website": "https://www.mvhealth.net/practices/plastic-surgery-center-pc", "rating": null, "reviews": 0, "place_id": "ChIJc3lOhHc24ocRjN9HAo-KK2U", "latitude": 41.569668, "longitude": -90.52534279999999, "care_type": "Plastic Surgeon"}, {"name": "Dr. Andrews Plastic Surgery", "address": "1700 1st Ave NE Suite 150, Cedar Rapids, IA 52402", "city": "Cedar Rapids", "phone": "+1 319-382-8230", "website": "https://www.drandrewsplasticsurgery.com/", "rating": null, "reviews": 0, "place_id": "ChIJGXCrsVDx5IcRGi-vUuglTjE", "latitude": 41.9907054, "longitude": -91.6484708, "care_type": "Plastic Surgeon"}, {"name": "University Of Iowa Dermatology", "address": "200 Hawkins Dr, Iowa City, IA 52242", "city": "Iowa City", "phone": "+1 319-356-7546", "website": "https://uihc.org/services/dermatology", "rating": 2.3, "reviews": 19, "place_id": "ChIJITxlnZBB5IcROBWzQxhy5G4", "latitude": 41.6594594, "longitude": -91.5479919, "care_type": "Plastic Surgeon"}, {"name": "Jerrod Keith", "address": "2591 Holiday Rd, Iowa City, IA 52241", "city": "Iowa City", "phone": "+1 319-356-2211", "website": "https://uihc.org/providers/jerrod-n-keith", "rating": null, "reviews": 0, "place_id": "ChIJA8iCZHpE5IcRDla82LyO_0g", "latitude": 41.7004334, "longitude": -91.6053639, "care_type": "Plastic Surgeon"}, {"name": "Epiphany Dermatology", "address": "501 12th Ave Ste 101, Coralville, IA 52241", "city": "Coralville", "phone": "+1 319-337-3177", "website": "https://www.epiphanydermatology.com/location/coralville-ia/", "rating": 4.9, "reviews": 678, "place_id": "ChIJszlrQOdD5IcROC7mTrcyZJo", "latitude": 41.6760253, "longitude": -91.5801925, "care_type": "Plastic Surgeon"}, {"name": "Jerrod Keith", "address": "200 Hawkins Dr, Iowa City, IA 52242", "city": "Iowa City", "phone": "+1 319-356-1616", "website": "https://uihc.org/providers/jerrod-n-keith", "rating": null, "reviews": 0, "place_id": "ChIJsY6PN5BB5IcRdTSkDrO8pj8", "latitude": 41.6596442, "longitude": -91.54862589999999, "care_type": "Plastic Surgeon"}, {"name": "Infinity Skin Care", "address": "1100 5th St #125, Coralville, IA 52241", "city": "Coralville", "phone": "+1 319-337-5355", "website": "https://www.infinityskinhealth.com/", "rating": 4.8, "reviews": 308, "place_id": "ChIJ6YfwSudD5IcRttm5jOhFZ-4", "latitude": 41.6751549, "longitude": -91.5794806, "care_type": "Plastic Surgeon"}, {"name": "Aly Al S MD", "address": "501 12th Ave #202, Coralville, IA 52241", "city": "Coralville", "phone": "+1 319-337-3740", "website": "", "rating": null, "reviews": 0, "place_id": "ChIJszlrQOdD5IcRVo-R0PtjEB4", "latitude": 41.6763489, "longitude": -91.58015019999999, "care_type": "Plastic Surgeon"}, {"name": "Hayek Shady MD", "address": "1512 1st Ave # 204A, Coralville, IA 52241", "city": "Coralville", "phone": "+1 319-512-6813", "website": "", "rating": null, "reviews": 0, "place_id": "ChIJxwR1ybZD5IcRB0o8GmNU7EY", "latitude": 41.6954033, "longitude": -91.5671521, "care_type": "Plastic Surgeon"}, {"name": "Adam Rasmussen", "address": "200 Hawkins Dr, Iowa City, IA 52242", "city": "Iowa City", "phone": "+1 319-356-1616", "website": "", "rating": null, "reviews": 0, "place_id": "ChIJsY6PN5BB5IcRl46XKKKzXD0", "latitude": 41.6596442, "longitude": -91.54862589999999, "care_type": "Plastic Surgeon"}, {"name": "Avalon Plastic Surgery Center", "address": "2710 St Francis Dr #401, Waterloo, IA 50702", "city": "Waterloo", "phone": "+1 319-272-8488", "website": "http://avalonpsc.com/", "rating": 5.0, "reviews": 2, "place_id": "ChIJSRndB81T5YcRTDE6gi5tHc4", "latitude": 42.4604429, "longitude": -92.3448927, "care_type": "Plastic Surgeon"}, {"name": "Cedar Valley ASCENT - Facial Plastic Surgery", "address": "2515 Cyclone Dr Suite B, Waterloo, IA 50701", "city": "Waterloo", "phone": "+1 319-888-8044", "website": "https://cvascent.com/facial-plastics/", "rating": 3.0, "reviews": 6, "place_id": "ChIJjeqmaHNU5YcRVYui7bcN_FM", "latitude": 42.4681994, "longitude": -92.40765259999999, "care_type": "Plastic Surgeon"}, {"name": "UnityPoint Clinic Plastic Surgery - Waukee Medical Park", "address": "2515 Grand Prairie Pkwy, Waukee, IA 50263", "city": "Waukee", "phone": "+1 515-644-9033", "website": "https://www.unitypoint.org/locations/unitypoint-clinic-plastic-surgery---waukee-medical-park", "rating": null, "reviews": 0, "place_id": "ChIJO47iaZoj7IcRll3tLipMID4", "latitude": 41.5855098, "longitude": -93.8506917, "care_type": "Plastic Surgeon"}, {"name": "Plastic Surgery Aesthetics: Kennedy Erin M MD", "address": "3395 Lake Ridge Dr, Dubuque, IA 52003", "city": "Dubuque", "phone": "+1 563-589-9119", "website": "http://www.ekplasticsurgery.com/", "rating": 3.8, "reviews": 13, "place_id": "ChIJp-obgIsr44cRyilEm-xPW1U", "latitude": 42.4859588, "longitude": -90.7193013, "care_type": "Plastic Surgeon"}, {"name": "Rose Revival Aesthetics", "address": "1085 Liberty Way suite 119, North Liberty, IA 52317", "city": "North Liberty", "phone": "+1 319-853-1194", "website": "https://www.roserevivalaesthetics.com/", "rating": 5.0, "reviews": 56, "place_id": "ChIJNQ83xPdb5IcR9cMa9Cm6a28", "latitude": 41.7512087, "longitude": -91.6166911, "care_type": "Plastic Surgeon"}, {"name": "Revitalize U Med Spa & Salon", "address": "1750 Jordan St, North Liberty, IA 52317", "city": "North Liberty", "phone": "+1 319-569-6444", "website": "https://www.revitalizeuspa.com/", "rating": 4.9, "reviews": 613, "place_id": "ChIJG0X-pARF5IcR87rWJ83zdKU", "latitude": 41.7249107, "longitude": -91.6061706, "care_type": "Plastic Surgeon"}, {"name": "MercyOne North Iowa Plastic and Reconstructive Surgery", "address": "250 S Crescent Dr #103, Mason City, IA 50401", "city": "Mason City", "phone": "+1 641-494-5360", "website": "https://www.mercyone.org/northiowa/location/mercyone-north-iowa-plastics-and-reconstructive-surgery", "rating": null, "reviews": 0, "place_id": "ChIJYTKzLO4H8YcRQ4N7eemsLSI", "latitude": 43.1498865, "longitude": -93.2146442, "care_type": "Plastic Surgeon"}, {"name": "Rene F. Recinos, M.D.,PhD", "address": "250 S Crescent Dr, Mason City, IA 50401", "city": "Mason City", "phone": "+1 641-494-5360", "website": "https://www.mcclinic.com/services/plastic-surgery/", "rating": 4.7, "reviews": 32, "place_id": "ChIJ93VUSAsH8YcRZoI0iti5DaI", "latitude": 43.149685, "longitude": -93.215567, "care_type": "Plastic Surgeon"}, {"name": "Samuel Maurice, MD", "address": "2515 Grand Prairie Pkwy, Waukee, IA 50263", "city": "Waukee", "phone": "+1 515-644-9033", "website": "", "rating": null, "reviews": 0, "place_id": "ChIJsYsOdxMj7IcR3JnfKPbq0SA", "latitude": 41.5855098, "longitude": -93.8506917, "care_type": "Plastic Surgeon"}, {"name": "Advanced Dermatology of the Midlands", "address": "928 Valley View Dr Suite 10, Council Bluffs, IA 51503", "city": "Council Bluffs", "phone": "+1 402-933-3770", "website": "https://www.midlandsderm.com/", "rating": 4.9, "reviews": 328, "place_id": "ChIJqQcsCPWDk4cRpEAph0xgbfc", "latitude": 41.2499517, "longitude": -95.8135882, "care_type": "Plastic Surgeon"}, {"name": "CB Skin Secrets", "address": "1010 S Main St #500, Council Bluffs, IA 51503", "city": "Council Bluffs", "phone": "+1 402-915-2756", "website": "http://cbskinsecrets.com/", "rating": 4.5, "reviews": 8, "place_id": "ChIJow5TTpOEk4cRdohjojuS37o", "latitude": 41.2519519, "longitude": -95.85183219999999, "care_type": "Plastic Surgeon"}, {"name": "Bleicher Joel N MD", "address": "21005 McPherson Ave, Council Bluffs, IA 51503", "city": "Council Bluffs", "phone": "+1 712-322-2012", "website": "", "rating": 1.0, "reviews": 1, "place_id": "ChIJwe9rVAWDk4cRuH9ulZeKcIA", "latitude": 41.2630539, "longitude": -95.780368, "care_type": "Plastic Surgeon"}, {"name": "Dr. Stacey E. Whitehead, MD", "address": "201 Ridge St #214, Council Bluffs, IA 51503", "city": "Council Bluffs", "phone": "+1 712-396-4320", "website": "", "rating": null, "reviews": 0, "place_id": "ChIJAfvoXeuEk4cRhzmpanf5Rhc", "latitude": 41.2684586, "longitude": -95.8349374, "care_type": "Plastic Surgeon"}, {"name": "Bleicher Joel N MD", "address": "800 Mercy Dr Ste 200, Council Bluffs, IA 51503", "city": "Council Bluffs", "phone": "+1 402-829-6384", "website": "", "rating": null, "reviews": 0, "place_id": "ChIJVcHjjOuEk4cR-VzWPwWgvHU", "latitude": 41.268657, "longitude": -95.839511, "care_type": "Plastic Surgeon"}, {"name": "Andrew Coughlin", "address": "1 Edmundson Pl, Council Bluffs, IA 51503", "city": "Council Bluffs", "phone": "+1 402-354-5048", "website": "", "rating": null, "reviews": 0, "place_id": "ChIJMVlRVeuEk4cRVJlQH0uhLhk", "latitude": 41.2686175, "longitude": -95.8354052, "care_type": "Plastic Surgeon"}, {"name": "McFarland Clinic Plastic Surgery", "address": "1215 Duff Ave, Ames, IA 50010", "city": "Ames", "phone": "+1 515-239-4400", "website": "https://www.mcfarlandclinic.com/specialties/plastic-surgery%3Futm_medium%3Dorganic%26utm_source%3Dgoogle%2Bmy%2Bbusiness%26utm_campaign%3Dmcf_ames_1215duff-plasticsurgery", "rating": null, "reviews": 0, "place_id": "ChIJE--pPhNx7ocRkcJyC1evjzY", "latitude": 42.03365609999999, "longitude": -93.61201919999999, "care_type": "Plastic Surgeon"}, {"name": "Sturm Cosmetic Surgery", "address": "1405 Baltimore Dr, Ames, IA 50010", "city": "Ames", "phone": "+1 515-292-2480", "website": "http://www.sturmcosmetic.com/", "rating": 4.8, "reviews": 146, "place_id": "ChIJRwrVtuBx7ocRg_9K50Wcjvc", "latitude": 42.0358497, "longitude": -93.586094, "care_type": "Plastic Surgeon"}, {"name": "369 Aesthetics", "address": "214 Jefferson St, Burlington, IA 52601", "city": "Burlington", "phone": "+1 309-337-8322", "website": "https://369.glossgenius.com/", "rating": 5.0, "reviews": 13, "place_id": "ChIJucPz41kx4YcRH1BLu-qpdZI", "latitude": 40.810041, "longitude": -91.102183, "care_type": "Plastic Surgeon"}, {"name": "Glamour Medical Aesthetics at Kyn & Co", "address": "108 N 4th St, Burlington, IA 52601", "city": "Burlington", "phone": "+1 319-850-1043", "website": "http://www.glamour-burlington.com/", "rating": 5.0, "reviews": 32, "place_id": "ChIJfxevQQMx4YcRA5wWtoK7HPU", "latitude": 40.8087502, "longitude": -91.1042035, "care_type": "Plastic Surgeon"}, {"name": "Lumi Beauty Clinic", "address": "205 Washington St, Burlington, IA 52601", "city": "Burlington", "phone": "", "website": "http://www.vagaro.com/lumibeautyclinic", "rating": 5.0, "reviews": 14, "place_id": "ChIJ7_Wnkt4x4YcRovvkQ1S965g", "latitude": 40.8105465, "longitude": -91.1016825, "care_type": "Plastic Surgeon"}, {"name": "Sono Bello Davenport", "address": "1800 E 54th St B, Davenport, IA 52807", "city": "Davenport", "phone": "+1 563-275-5171", "website": "", "rating": 5.0, "reviews": 31, "place_id": "ChIJPz0jDxI14ocRqFVzs8yzJj8", "latitude": 41.5769777, "longitude": -90.5501797, "care_type": "Plastic Surgeon"}, {"name": "Paul James F DDS MD", "address": "3385 Dexter Ct # 115, Davenport, IA 52807", "city": "Davenport", "phone": "+1 563-359-4777", "website": "https://www.plasticsurgery.org/md/DRJAMESPAUL.html", "rating": 4.4, "reviews": 19, "place_id": "ChIJc3lOhHc24ocRFXSP5EW6vhE", "latitude": 41.5708399, "longitude": -90.5238408, "care_type": "Plastic Surgeon"}, {"name": "Premier Aesthetics", "address": "4610 Utica Ridge Rd Suite 103, Davenport, IA 52807", "city": "Davenport", "phone": "+1 563-293-2031", "website": "http://www.premieraestheticsia.com/", "rating": 5.0, "reviews": 0, "place_id": "ChIJo_27RW434ocRz-XPKD27epg", "latitude": 41.5679948, "longitude": -90.51773709999999, "care_type": "Plastic Surgeon"}, {"name": "Plastic Surgery Specialists MD", "address": "5335 Eastern Ave # C, Davenport, IA 52807", "city": "Davenport", "phone": "+1 563-323-0026", "website": "https://weence.com/medical/doctors/davenport/plastic-surgery-specialists-md/", "rating": 1.0, "reviews": 1, "place_id": "ChIJHeLpeLw14ocRa-9pWKDH6Vw", "latitude": 41.57583229999999, "longitude": -90.5507772, "care_type": "Plastic Surgeon"}, {"name": "Refresh (Botox and Fillers)", "address": "1627 W 69th St, Davenport, IA 52806", "city": "Davenport", "phone": "+1 309-269-5547", "website": "", "rating": 5.0, "reviews": 0, "place_id": "ChIJa4UkgqY14ocRiYaEckrtpms", "latitude": 41.5909425, "longitude": -90.5987545, "care_type": "Plastic Surgeon"}, {"name": "Chapter Aesthetic Studio", "address": "2711 E 53rd St, Davenport, IA 52807", "city": "Davenport", "phone": "+1 563-209-9574", "website": "https://www.mychapter.com/locations/ia/davenport/2711-east-53rd-street/%3Futm_source%3DGoogle_Places%26utm_medium%3DBirdeye_Listings%26utm_campaign%3Ddavenport,ia", "rating": 4.9, "reviews": 153, "place_id": "ChIJBU-U1PE14ocRhDsN8H03hnE", "latitude": 41.5744098, "longitude": -90.5354692, "care_type": "Plastic Surgeon"}, {"name": "Jeffries III James M MD", "address": "1800 E 54th St B, Davenport, IA 52807", "city": "Davenport", "phone": "+1 563-344-7546", "website": "", "rating": 5.0, "reviews": 1, "place_id": "ChIJ0Ut2Mbw14ocRddPUwCP900o", "latitude": 41.577046, "longitude": -90.550164, "care_type": "Plastic Surgeon"}, {"name": "Searles John M MD", "address": "5335 Eastern Ave # C, Davenport, IA 52807", "city": "Davenport", "phone": "+1 563-323-0026", "website": "", "rating": 5.0, "reviews": 1, "place_id": "ChIJHeLpeLw14ocR9q0B_12TdAM", "latitude": 41.575841, "longitude": -90.5507829, "care_type": "Plastic Surgeon"}, {"name": "Revive at The Group Med Spa", "address": "5374 Eastern Ave STE 100, Davenport, IA 52807", "city": "Davenport", "phone": "+1 563-345-5477", "website": "https://www.reviveatthegroup.com/", "rating": 4.5, "reviews": 103, "place_id": "ChIJxfi_mrw14ocRr6cHp5M4DYw", "latitude": 41.5762519, "longitude": -90.5525741, "care_type": "Plastic Surgeon"}, {"name": "THRIVE - Physicians Laser & Aesthetics Clinic", "address": "3385 Dexter Ct #100, Davenport, IA 52807", "city": "Davenport", "phone": "+1 563-296-8100", "website": "https://www.thriveyourwayqc.com/", "rating": 4.4, "reviews": 37, "place_id": "ChIJgRLshHc24ocRfczC7h8vs6o", "latitude": 41.5706732, "longitude": -90.52375819999999, "care_type": "Plastic Surgeon"}, {"name": "Mississippi Valley Endoscopy Center", "address": "5041 Utica Ridge Rd STE 200, Davenport, IA 52807", "city": "Davenport", "phone": "+1 563-359-5490", "website": "https://www.mvhealth.net/", "rating": 4.5, "reviews": 6, "place_id": "ChIJ8wQx9V834ocRId0ra33aYCY", "latitude": 41.5709485, "longitude": -90.5128615, "care_type": "Plastic Surgeon"}, {"name": "Scar and Skin by Jade Engler", "address": "2550 Middle Rd # 101, Bettendorf, IA 52722", "city": "Bettendorf", "phone": "+1 563-726-4660", "website": "https://complexionsbeautylab.com/", "rating": 5.0, "reviews": 55, "place_id": "ChIJ9yBTMRI14ocR6NkPgViVRak", "latitude": 41.5480847, "longitude": -90.4974711, "care_type": "Plastic Surgeon"}, {"name": "Fairfield James C MD", "address": "1800 E 54th St B, Davenport, IA 52807", "city": "Davenport", "phone": "+1 563-344-7546", "website": "http://www.soderstromskininstitute.com/", "rating": null, "reviews": 0, "place_id": "ChIJ0Ut2Mbw14ocRQPruyq1VLCs", "latitude": 41.577046, "longitude": -90.550164, "care_type": "Plastic Surgeon"}, {"name": "OptiSkyn", "address": "3432 Jersey Ridge Rd Suite# 3, Davenport, IA 52807", "city": "Davenport", "phone": "+1 563-723-0053", "website": "http://www.optiskyn.com/", "rating": 5.0, "reviews": 68, "place_id": "ChIJj4w7M5I14ocRCOnHMXVgE0E", "latitude": 41.5555433, "longitude": -90.54236039999999, "care_type": "Plastic Surgeon"}, {"name": "Lomax John E MD", "address": "1800 E 54th St B, Davenport, IA 52807", "city": "Davenport", "phone": "+1 563-344-7546", "website": "", "rating": null, "reviews": 0, "place_id": "ChIJ0Ut2Mbw14ocRIonDHQKnfYE", "latitude": 41.5769093, "longitude": -90.55015999999999, "care_type": "Plastic Surgeon"}, {"name": "Laura McNaughton, MD", "address": "302 Jones St STE 330, Sioux City, IA 51101", "city": "Sioux City", "phone": "+1 712-202-2260", "website": "https://www.mercyone.org/siouxland/provider/laura-mcnaughton-md-plastic-reconstructive-surgery", "rating": null, "reviews": 0, "place_id": "ChIJS3b4TfL9jYcREvkGq1SY-Nw", "latitude": 42.4934437, "longitude": -96.3997588, "care_type": "Plastic Surgeon"}, {"name": "Lace & Needle", "address": "326 W 25th St, Sioux City, IA 51104", "city": "Sioux City", "phone": "+1 712-383-8528", "website": "https://www.laceandneedle.com/", "rating": 5.0, "reviews": 119, "place_id": "ChIJQaSQ5BEHjocRAlnw1fZb4co", "latitude": 42.515957, "longitude": -96.4180085, "care_type": "Plastic Surgeon"}, {"name": "Laura Mcnaughton", "address": "2720 Stone Park Blvd, Sioux City, IA 51104", "city": "Sioux City", "phone": "+1 712-279-3500", "website": "", "rating": 1.0, "reviews": 2, "place_id": "ChIJBUTuJ1j9jYcRp5S3218uq9g", "latitude": 42.518995, "longitude": -96.405795, "care_type": "Plastic Surgeon"}, {"name": "Core Dermatology Medspa - Clinton", "address": "2027 S 21st St, Clinton, IA 52732", "city": "Clinton", "phone": "+1 563-242-3571", "website": "https://core-dermatology.com/", "rating": 4.6, "reviews": 14, "place_id": "ChIJ49s4FAVj4ocRFWC8w8UdFHU", "latitude": 41.8243976, "longitude": -90.2349835, "care_type": "Plastic Surgeon"}, {"name": "Core Beauty Medspa", "address": "1320 11th St NW g, Clinton, IA 52732", "city": "Clinton", "phone": "+1 563-559-6950", "website": "http://www.corebeautymedspa.com/", "rating": 5.0, "reviews": 74, "place_id": "ChIJ4fwKKD1j4ocR6PDXkv3agwM", "latitude": 41.8599678, "longitude": -90.21193939999999, "care_type": "Plastic Surgeon"}, {"name": "Sculpted515", "address": "to the left of Cheese Bar, 2925 Ingersoll Ave Suite 102, Des Moines, IA 50312", "city": "Des Moines", "phone": "+1 515-669-3637", "website": "", "rating": 4.8, "reviews": 0, "place_id": "ChIJc_0p4LYh7IcRHF-2OXdDW_0", "latitude": 41.5862318, "longitude": -93.65769189999999, "care_type": "Plastic Surgeon"}, {"name": "Ronald S Bergman", "address": "2000 Grand Ave 2nd Floor, Des Moines, IA 50312", "city": "Des Moines", "phone": "+1 515-222-1111", "website": "http://www.bergmancosmeticsurgery.com/", "rating": 3.0, "reviews": 2, "place_id": "ChIJq6racCCZ7ocRvVkl--fgEiY", "latitude": 41.5838738, "longitude": -93.6438297, "care_type": "Plastic Surgeon"}, {"name": "Bryan Folkers", "address": "580 SW 9th St, Des Moines, IA 50309", "city": "Des Moines", "phone": "+1 512-282-2489", "website": "https://www.broadlawns.org/about/medical-staff/bryan-folkers", "rating": 5.0, "reviews": 1, "place_id": "ChIJb0kxpPmY7ocRqSZKRDna2gc", "latitude": 41.5763681, "longitude": -93.6255759, "care_type": "Plastic Surgeon"}, {"name": "Sonya Mack, PA-C", "address": "411 Laurel St # 2225, Des Moines, IA 50314", "city": "Des Moines", "phone": "+1 515-643-5455", "website": "https://www.mercyone.org/desmoines/provider/sonya-mack-pa-c-plastic-reconstructive-surgery", "rating": null, "reviews": 0, "place_id": "ChIJZW-_RTCZ7ocRgQYoBEXlhpY", "latitude": 41.5978171, "longitude": -93.6228093, "care_type": "Plastic Surgeon"}, {"name": "Robin Gregg R MD", "address": "1221 Pleasant St # 400, Des Moines, IA 50309", "city": "Des Moines", "phone": "+1 515-875-9290", "website": "http://www.iowaclinic.com/", "rating": null, "reviews": 0, "place_id": "ChIJL467ohuZ7ocRW6jneBePnrU", "latitude": 41.59008499999999, "longitude": -93.63502299999999, "care_type": "Plastic Surgeon"}, {"name": "Dr. Bradley D. Bergman, DO", "address": "1215 Pleasant St, Des Moines, IA 50309", "city": "Des Moines", "phone": "+1 515-241-5722", "website": "", "rating": null, "reviews": 0, "place_id": "ChIJUR3SmxuZ7ocRmuGn8q00bHg", "latitude": 41.5897083, "longitude": -93.63472569999999, "care_type": "Plastic Surgeon"}, {"name": "Sono Bello Cedar Rapids", "address": "3900 Fountains Blvd, Cedar Rapids, IA 52411", "city": "Cedar Rapids", "phone": "+1 319-893-6004", "website": "https://www.sonobello.com/", "rating": 4.8, "reviews": 42, "place_id": "ChIJ40BtXd_75IcRIUUJA0QP20k", "latitude": 42.03245099999999, "longitude": -91.698261, "care_type": "Plastic Surgeon"}, {"name": "Mercy Plastic & Reconstructive Surgery Clinic", "address": "701 10th St SE, Cedar Rapids, IA 52403", "city": "Cedar Rapids", "phone": "+1 319-398-6887", "website": "https://www.mercycare.org/services/plastic--reconstructive-surgery-clinic/%3Futm_source%3Dgoogle-my-business%26utm_campaign%3Dlocal-listings%26utm_medium%3D09752800054115161300", "rating": 5.0, "reviews": 1, "place_id": "ChIJw9gV_N_35IcRh9vZQRhzYpQ", "latitude": 41.9782848, "longitude": -91.655676, "care_type": "Plastic Surgeon"}, {"name": "A John Vander Zee MD., P.C.", "address": "411 10th St SE, Cedar Rapids, IA 52403", "city": "Cedar Rapids", "phone": "+1 319-366-1549", "website": "http://drvanderzee.com/", "rating": 4.4, "reviews": 24, "place_id": "ChIJsb6Gxkn35IcR4ZvmWF1KUvY", "latitude": 41.9801682, "longitude": -91.65774619999999, "care_type": "Plastic Surgeon"}, {"name": "Dr. Vanessa Leonhard, DO - PCI Plastic & Reconstructive Surgery", "address": "202 10th St SE #290, Cedar Rapids, IA 52403", "city": "Cedar Rapids", "phone": "", "website": "https://www.pcofiowa.com/find-a-doctor/p125/vanessa-d-leonhard/", "rating": 5.0, "reviews": 3, "place_id": "ChIJN7C6LK_35IcRGjvxNQSwR4E", "latitude": 41.9832937, "longitude": -91.6583211, "care_type": "Plastic Surgeon"}, {"name": "Dominic Heffel, MD, FACS", "address": "701 10th St SE, Cedar Rapids, IA 52403", "city": "Cedar Rapids", "phone": "+1 319-398-6887", "website": "https://www.mercycare.org/doctors/results/provider-profile/dominic-heffel/%3Futm_source%3Dgoogle-my-business%26utm_campaign%3Dlocal-listings%26utm_medium%3DMMC-P%26RS-HEFFEL", "rating": 5.0, "reviews": 5, "place_id": "ChIJURLrh7f35IcRJy6ROHqNN1E", "latitude": 41.9782848, "longitude": -91.655676, "care_type": "Plastic Surgeon"}, {"name": "A. Vander Zee M.D.", "address": "202 10th St SE, Cedar Rapids, IA 52403", "city": "Cedar Rapids", "phone": "+1 319-558-4876", "website": "https://www.unitypoint.org/cedarrapids/provider.aspx%3Fid%3D1643%26clinicid%3D991", "rating": 5.0, "reviews": 1, "place_id": "ChIJ4TN5P-n35IcR1HWM_xUEYC4", "latitude": 41.9833627, "longitude": -91.6582036, "care_type": "Plastic Surgeon"}, {"name": "Versteeg Plastic Surgery, Pc", "address": "310 2nd Ave S, Fort Dodge, IA 50501", "city": "Fort Dodge", "phone": "+1 515-955-3127", "website": "", "rating": null, "reviews": 0, "place_id": "ChIJy0E1xLJ38ocRMnf0p8XPYUQ", "latitude": 42.5024909, "longitude": -94.1931266, "care_type": "Plastic Surgeon"}, {"name": "Core Dermatology & Medspa - Muscatine", "address": "2300a Park Ave, Muscatine, IA 52761", "city": "Muscatine", "phone": "+1 563-263-2113", "website": "https://core-dermatology.com/", "rating": 4.6, "reviews": 19, "place_id": "ChIJizoeQpDv44cRmBcak4exzmI", "latitude": 41.4481391, "longitude": -91.0313491, "care_type": "Plastic Surgeon"}, {"name": "Ageless", "address": "1195 E Post Rd # 4, Marion, IA 52302", "city": "Marion", "phone": "+1 319-393-3984", "website": "http://agelessmedspaiowa.com/", "rating": 4.9, "reviews": 0, "place_id": "ChIJWUhCL2fw5IcRYse3zt83-bU", "latitude": 42.01767359999999, "longitude": -91.5986233, "care_type": "Plastic Surgeon"}, {"name": "Coachlight Clinic", "address": "225 NW 18th St Suite 109, Ankeny, IA 50023", "city": "Ankeny", "phone": "+1 515-513-6262", "website": "https://www.dsmcoachlight.com/%3Futm_source%3Dgoogle%26utm_medium%3Dorganic%26utm_campaign%3Dgbp%26utm_term%3DCoachlight-Clinic-Ankeny%26utm_content%3Dwebsite", "rating": 4.9, "reviews": 346, "place_id": "ChIJZa-BVS2F7ocRka2Y438Z0Vk", "latitude": 41.7449545, "longitude": -93.60245049999999, "care_type": "Plastic Surgeon"}, {"name": "RenuYou", "address": "1705 N Ankeny Blvd Suite B, Ankeny, IA 50021", "city": "Ankeny", "phone": "+1 515-330-8900", "website": "https://www.renuyouaestheticsandbotox.com/%3Futm_source%3Dgoogle%26utm_medium%3Dorganic%26utm_campaign%3Dgbp", "rating": 4.9, "reviews": 267, "place_id": "ChIJn5QrbOmF7ocR22hPCAAc1yA", "latitude": 41.745945, "longitude": -93.599626, "care_type": "Plastic Surgeon"}, {"name": "360 MedSpas", "address": "1325 SW Oralabor Rd Ste. 220, Ankeny, IA 50023", "city": "Ankeny", "phone": "+1 515-720-4377", "website": "https://www.360medspas.com/", "rating": 5.0, "reviews": 27, "place_id": "ChIJ9QsPMZiF7ocRejsVsLvyup8", "latitude": 41.7020646, "longitude": -93.61819729999999, "care_type": "Plastic Surgeon"}, {"name": "The Iowa Clinic Plastic Surgery Department - Ankeny Campus", "address": "1410 SW Tradition Dr, Ankeny, IA 50023", "city": "Ankeny", "phone": "+1 515-875-9744", "website": "https://www.iowaclinic.com/plastic-surgery/", "rating": null, "reviews": 0, "place_id": "ChIJCwleE9Wa7ocRpevnqrjI2R8", "latitude": 41.702215, "longitude": -93.620438, "care_type": "Plastic Surgeon"}, {"name": "Greater Des Moines Dermatology PC", "address": "2424 Northwest 128th Street, Urbandale, IA 50323", "city": "Urbandale", "phone": "+1 515-243-8676", "website": "http://www.greaterdesmoinesdermatology.com/", "rating": 4.6, "reviews": 46, "place_id": "ChIJFcp6qNom7IcRd-nzljr01NQ", "latitude": 41.6162086, "longitude": -93.7920383, "care_type": "Plastic Surgeon"}, {"name": "Midwest Aesthetics Nurse Cindy, LLC", "address": "5731 Greendale Rd Suite 109, Johnston, IA 50131", "city": "Johnston", "phone": "+1 515-499-0197", "website": "https://midwestaestheticsnursecindy.com/", "rating": 5.0, "reviews": 121, "place_id": "ChIJC0Bht28FYEARep_MVFgDn0w", "latitude": 41.664226, "longitude": -93.6992827, "care_type": "Plastic Surgeon"}, {"name": "PlasmaLift Skin Clinic", "address": "3545 Middle Rd Suite 314, Bettendorf, IA 52722", "city": "Bettendorf", "phone": "+1 563-313-9648", "website": "http://www.plasmaliftclinic.com/", "rating": 5.0, "reviews": 0, "place_id": "ChIJa7z0RSU34ocRn-ruPRvS1-4", "latitude": 41.5509527, "longitude": -90.4822164, "care_type": "Plastic Surgeon"}, {"name": "Core Dermatology & Medspa - Davenport", "address": "1950 E 54th St, Davenport, IA 52807", "city": "Davenport", "phone": "+1 563-344-7546", "website": "https://core-dermatology.com/", "rating": 3.7, "reviews": 109, "place_id": "ChIJ0Ut2Mbw14ocRRZY6aiCbRqU", "latitude": 41.5771145, "longitude": -90.5476712, "care_type": "Plastic Surgeon"}, {"name": "WOW Aesthetics & Wellness/ Med Spa", "address": "4617 Progress Dr, Davenport, IA 52807", "city": "Davenport", "phone": "+1 563-343-7015", "website": "https://wow-aesthetics.com/%3Futm_source%3Dgoogle%26utm_medium%3Dlocalsearch%26utm_campaign%3Dgmb", "rating": 4.8, "reviews": 90, "place_id": "ChIJ1cWh-B434ocRLr5qcB2TX1w", "latitude": 41.5679798, "longitude": -90.51843099999999, "care_type": "Plastic Surgeon"}, {"name": "Cramer Anne MD", "address": "3400 Dexter Ct, Davenport, IA 52807", "city": "Davenport", "phone": "+1 563-323-0026", "website": "", "rating": null, "reviews": 0, "place_id": "ChIJV9ILonc24ocRModZXVSXBWs", "latitude": 41.5695875, "longitude": -90.52513599999999, "care_type": "Plastic Surgeon"}, {"name": "Anastasia Peterson", "address": "4480 Utica Ridge Rd Ste 160, Bettendorf, IA 52722", "city": "Bettendorf", "phone": "+1 563-742-5950", "website": "", "rating": null, "reviews": 0, "place_id": "ChIJ7XxMkXs24ocRenCWHnbXZG4", "latitude": 41.5659927, "longitude": -90.5195263, "care_type": "Plastic Surgeon"}, {"name": "Mark W. Mulkey, M.D.", "address": "250 S Crescent Dr, Mason City, IA 50401", "city": "Mason City", "phone": "+1 641-494-5360", "website": "https://www.mcclinic.com/services/plastic-surgery/", "rating": 4.2, "reviews": 25, "place_id": "ChIJ93VUSAsH8YcR-6eCKVQtUIY", "latitude": 43.149691, "longitude": -93.215605, "care_type": "Plastic Surgeon"}, {"name": "Jeffrey Maire, D.O.", "address": "1015 Union St, Boone, IA 50036", "city": "Boone", "phone": "+1 515-433-8500", "website": "https://www.boonehospital.com/services/surgery/", "rating": null, "reviews": 0, "place_id": "ChIJizrQYhTb7YcRK2EnX54uSOM", "latitude": 42.056078, "longitude": -93.8770969, "care_type": "Plastic Surgeon"}, {"name": "John Erickson, D.P.M., FACFAS, FACFAOM", "address": "1015 Union St, Boone, IA 50036", "city": "Boone", "phone": "+1 515-433-8500", "website": "https://www.boonehospital.com/services/surgery/", "rating": null, "reviews": 0, "place_id": "ChIJdQZTL93b7YcRdrPgbzPJGps", "latitude": 42.056078, "longitude": -93.8770969, "care_type": "Plastic Surgeon"}]