[{"name": "Lexington Plastic Surgery\u2122", "address": "166 Pasadena Dr # 100, Lexington, KY 40503", "city": "Lexington", "phone": "+1 859-279-2111", "website": "https://lexingtonps.com/%3Futm_campaign%3DGoogleMyBusiness", "rating": 4.9, "reviews": 283, "place_id": "ChIJqVx9b1pDQogR41Sy_FA1vGU", "latitude": 38.0038506, "longitude": -84.5220542, "care_type": "Plastic Surgeon"}, {"name": "Loftus Plastic Surgery Center : Jean M Loftus, MD", "address": "1881 Dixie Hwy #300, Fort Wright, KY 41011", "city": "Fort Wright", "phone": "+1 513-793-4000", "website": "https://infoplasticsurgery.com/", "rating": 4.8, "reviews": 143, "place_id": "ChIJ3W_atCK3QYgRcaFDA9JsgXc", "latitude": 39.0581068, "longitude": -84.5421013, "care_type": "Plastic Surgeon"}, {"name": "TPSG Crestview Hills Office", "address": "340 Thomas More Pkwy, Crestview Hills, KY 41017", "city": "Crestview Hills", "phone": "+1 859-331-8777", "website": "https://theplasticsurgerygroup.com/", "rating": 4.8, "reviews": 194, "place_id": "ChIJn-2WOSu4QYgR6Qs4qRU0YjA", "latitude": 39.024199, "longitude": -84.56524309999999, "care_type": "Plastic Surgeon"}, {"name": "Rejuvene - Dr. Deborah Sillins", "address": "2940 Hebron Park Dr, Hebron, KY 41048", "city": "Hebron", "phone": "+1 859-429-3333", "website": "https://rejuveneyouth.com/", "rating": 4.8, "reviews": 55, "place_id": "ChIJAx239iTPQYgRaqNLEtLWH0Q", "latitude": 39.0679127, "longitude": -84.703706, "care_type": "Plastic Surgeon"}, {"name": "H\u016be Aesthetics", "address": "102 Fairfield Ave Suite 1, Bellevue, KY 41073", "city": "Bellevue", "phone": "+1 859-815-8050", "website": "https://www.huemedspa.com/", "rating": 5.0, "reviews": 115, "place_id": "ChIJgz0ofoCxQYgR7GNfrzINiiY", "latitude": 39.1028702, "longitude": -84.4870849, "care_type": "Plastic Surgeon"}, {"name": "Dr. Martin Kassan", "address": "1536 Winchester Ave Suite 304, Ashland, KY 41101", "city": "Ashland", "phone": "+1 606-939-1449", "website": "", "rating": 3.4, "reviews": 5, "place_id": "ChIJMXSMJzF0RogRGQMGGnRTYoM", "latitude": 38.4786166, "longitude": -82.64026249999999, "care_type": "Plastic Surgeon"}, {"name": "Atalla Plastic Surgery Skin + Laser", "address": "1048 Ashley St Suite 303, Bowling Green, KY 42103", "city": "Bowling Green", "phone": "+1 270-796-8960", "website": "http://atallamd.com/", "rating": 4.9, "reviews": 424, "place_id": "ChIJtcqO_knvZYgRoEXX4D4-zo0", "latitude": 36.9665107, "longitude": -86.4302062, "care_type": "Plastic Surgeon"}, {"name": "Salameh LippyLipo", "address": "996 Wilkinson Trace Building C, Bowling Green, KY 42103", "city": "Bowling Green", "phone": "+1 270-904-7791", "website": "https://salamehplasticsurgery.com/", "rating": 4.9, "reviews": 666, "place_id": "ChIJ6TjJ0aLoZYgRal9L5WeS2KA", "latitude": 36.9673156, "longitude": -86.4285177, "care_type": "Plastic Surgeon"}, {"name": "Dr. Katherine Durnen", "address": "1048 Ashley St Suite 303, Bowling Green, KY 42103", "city": "Bowling Green", "phone": "+1 270-796-8960", "website": "https://atallamd.com/about-dr-durnen/", "rating": 4.4, "reviews": 25, "place_id": "ChIJ__8vOb3oZYgR1lQRtwfwfjs", "latitude": 36.9666195, "longitude": -86.42976279999999, "care_type": "Plastic Surgeon"}, {"name": "Smiley Aesthetics Medical Spa - Botox & Weight Loss Clinic Bowling Green", "address": "615 E 7th Ave, Bowling Green, KY 42101", "city": "Bowling Green", "phone": "+1 270-310-6178", "website": "https://smileyaesthetics.com/locations/bowling-green/", "rating": 5.0, "reviews": 93, "place_id": "ChIJzULIPizvZYgRZV4IFV8FDkc", "latitude": 36.9926284, "longitude": -86.4363187, "care_type": "Plastic Surgeon"}, {"name": "Fouad Atalla", "address": "1048 Ashley St Suite 303, Bowling Green, KY 42103", "city": "Bowling Green", "phone": "+1 270-796-8960", "website": "https://atallamd.com/", "rating": 5.0, "reviews": 2, "place_id": "ChIJ__8vOb3oZYgRYq0xmBbt-Vo", "latitude": 36.9666195, "longitude": -86.42976279999999, "care_type": "Plastic Surgeon"}, {"name": "Zaydon Joseph J MD", "address": "720 E 2nd Ave # 302, Bowling Green, KY 42101", "city": "Bowling Green", "phone": "+1 270-843-1100", "website": "", "rating": 4.8, "reviews": 5, "place_id": "ChIJ-SaX_E_vZYgRLrf5B8LLS7c", "latitude": 36.9965321, "longitude": -86.4288223, "care_type": "Plastic Surgeon"}, {"name": "Owensboro Health Plastic & Reconstructive Surgery", "address": "2211 Mayfair Ave #305, Owensboro, KY 42301", "city": "Owensboro", "phone": "+1 270-688-3700", "website": "https://www.owensborohealth.org/locations/profile/plastic-surgery/%3Futm_source%3Dlocal-listing%26utm_medium%3Dorganic%26utm_campaign%3Dwebsite-link", "rating": 4.7, "reviews": 55, "place_id": "ChIJSzlAW967b4gR4rw8s1A3__k", "latitude": 37.7527889, "longitude": -87.1227147, "care_type": "Plastic Surgeon"}, {"name": "Janae Kittinger, MD", "address": "2211 Mayfair Ave #305, Owensboro, KY 42301", "city": "Owensboro", "phone": "+1 270-688-3700", "website": "https://www.owensborohealth.org/find-doctor/basic-profile/janae-kittinger/%3Futm_source%3Dlocal-listing%26utm_medium%3Dorganic%26utm_campaign%3Dwebsite-link", "rating": 4.5, "reviews": 36, "place_id": "ChIJMRtUxoa6b4gRiUv2RI_uQUw", "latitude": 37.7527889, "longitude": -87.1227147, "care_type": "Plastic Surgeon"}, {"name": "Hatef Aesthetics & Plastic Surgery Kentucky", "address": "2818 Farrell Crescent, Owensboro, KY 42303", "city": "Owensboro", "phone": "+1 270-926-9033", "website": "https://hatefaesthetics.com/", "rating": 4.9, "reviews": 52, "place_id": "ChIJXZn_XQO7b4gRZ55TrtvdAcg", "latitude": 37.7475524, "longitude": -87.0953317, "care_type": "Plastic Surgeon"}, {"name": "Benjamin Kittinger, MD", "address": "2211 Mayfair Ave #305, Owensboro, KY 42301", "city": "Owensboro", "phone": "+1 270-688-3700", "website": "https://www.owensborohealth.org/find-doctor/basic-profile/benjamin-kittinger/%3Futm_source%3Dlocal-listing%26utm_medium%3Dorganic%26utm_campaign%3Dwebsite-link", "rating": 4.6, "reviews": 9, "place_id": "ChIJbx5FSaW7b4gRDqgwn80V1O8", "latitude": 37.7527889, "longitude": -87.1227147, "care_type": "Plastic Surgeon"}, {"name": "Dr. Gerald G. Edds, MD", "address": "2818 Farrell Crescent, Owensboro, KY 42303", "city": "Owensboro", "phone": "+1 270-926-9033", "website": "http://www.eddscosmeticsurgery.com/", "rating": 4.9, "reviews": 48, "place_id": "ChIJ7SZD1PO6b4gRv258K6MJKis", "latitude": 37.7475524, "longitude": -87.0953317, "care_type": "Plastic Surgeon"}, {"name": "Jim Tidwell III, MD", "address": "2211 Mayfair Ave #305, Owensboro, KY 42301", "city": "Owensboro", "phone": "+1 270-688-3700", "website": "https://www.owensborohealth.org/find-doctor/basic-profile/james-tidwell/%3Futm_source%3Dlocal-listing%26utm_medium%3Dorganic%26utm_campaign%3Dwebsite-link", "rating": 5.0, "reviews": 4, "place_id": "ChIJMRtUxoa6b4gRMZ9aDtEbeao", "latitude": 37.7527889, "longitude": -87.1227147, "care_type": "Plastic Surgeon"}, {"name": "Holzapfel & Lied Plastic Surgery", "address": "133 Barnwood Dr, Edgewood, KY 41017", "city": "Edgewood", "phone": "+1 859-331-9600", "website": "http://www.renewyourlooks.com/", "rating": 4.8, "reviews": 25, "place_id": "ChIJ46njNSW4QYgRiwgsfuW2FO8", "latitude": 39.0184818, "longitude": -84.5757065, "care_type": "Plastic Surgeon"}, {"name": "The Plastic Surgery Group - Williams, Richard MD", "address": "340 Thomas More Pkwy, Crestview Hills, KY 41017", "city": "Crestview Hills", "phone": "+1 859-331-8777", "website": "http://www.theplasticsurgerygroup.com/", "rating": 5.0, "reviews": 1, "place_id": "ChIJn-2WOSu4QYgRDmumAKbkVog", "latitude": 39.0241901, "longitude": -84.56516049999999, "care_type": "Plastic Surgeon"}, {"name": "Cosmetic Laser Institute: Anthony Mamari MD", "address": "800 Alexandria Pike #2160, Fort Thomas, KY 41075", "city": "Fort Thomas", "phone": "+1 859-442-9000", "website": "https://lookyourbestnow.com/", "rating": 4.8, "reviews": 106, "place_id": "ChIJYwA9ETOwQYgRxWRd0SlVNeE", "latitude": 39.0627023, "longitude": -84.4524143, "care_type": "Plastic Surgeon"}, {"name": "The Plastic Surgery Group - Hummel, Robert MD", "address": "340 Thomas More Pkwy, Crestview Hills, KY 41017", "city": "Crestview Hills", "phone": "+1 859-331-8777", "website": "http://www.theplasticsurgerygroup.com/", "rating": null, "reviews": 0, "place_id": "ChIJn-2WOSu4QYgRjihYokKWPsw", "latitude": 39.0240889, "longitude": -84.5652813, "care_type": "Plastic Surgeon"}, {"name": "Daniel G. Kuy, MD FACS", "address": "2845 Chancellor Dr Suite #1B, Fort Mitchell, KY 41017", "city": "Fort Mitchell", "phone": "+1 859-757-4858", "website": "https://www.drkuy.com/", "rating": 5.0, "reviews": 2, "place_id": "ChIJgT6PddO5QYgRFydxTGE7onc", "latitude": 39.0215693, "longitude": -84.56155419999999, "care_type": "Plastic Surgeon"}, {"name": "Julia Elpers, M.D.", "address": "2865 Chancellor Dr # 210, Crestview Hills, KY 41017", "city": "Crestview Hills", "phone": "+1 513-493-0962", "website": "https://midwesteyecenter.com/eye-doctor/julia-t-elpers-m-d/", "rating": 5.0, "reviews": 133, "place_id": "ChIJF4OSK7hyaYgRHP9-MBIsfSg", "latitude": 39.0206541, "longitude": -84.56119729999999, "care_type": "Plastic Surgeon"}, {"name": "Dermatology Aesthetics of Northern Kentucky", "address": "8275 Ewing Blvd, Florence, KY 41042", "city": "Florence", "phone": "+1 859-363-5394", "website": "https://dermaestheticsnky.com/contact-us/", "rating": 4.9, "reviews": 76, "place_id": "ChIJP_8_AK7HQYgRhawgYdc6c50", "latitude": 39.0003319, "longitude": -84.6425979, "care_type": "Plastic Surgeon"}, {"name": "Cosmetic Laser Institute", "address": "800 Alexandria Pike #2160, Fort Thomas, KY 41075", "city": "Fort Thomas", "phone": "+1 859-442-9000", "website": "https://lookyourbestnow.com/", "rating": 4.7, "reviews": 162, "place_id": "ChIJYwA9ETOwQYgRNFRijh1Tir0", "latitude": 39.0626806, "longitude": -84.4523827, "care_type": "Plastic Surgeon"}, {"name": "aesthetics by jeanne", "address": "18 Commonwealth Ave # E, Erlanger, KY 41018", "city": "Erlanger", "phone": "+1 859-609-5544", "website": "https://aesthetics-by-jeanne.square.site/", "rating": 5.0, "reviews": 6, "place_id": "ChIJbZ6T8da5QYgRUhhIe4yA3dQ", "latitude": 39.0175107, "longitude": -84.6006252, "care_type": "Plastic Surgeon"}, {"name": "Mangat-Kuy Plastic Surgery Center: Savage Christopher MD", "address": "133 Barnwood Dr, Edgewood, KY 41017", "city": "Edgewood", "phone": "+1 859-331-9600", "website": "", "rating": null, "reviews": 0, "place_id": "ChIJ46njNSW4QYgR-WozQEC_3Wk", "latitude": 39.01841599999999, "longitude": -84.5758723, "care_type": "Plastic Surgeon"}, {"name": "\u00c9tage Laser & Skin Care Center", "address": "133 Barnwood Dr, Edgewood, KY 41017", "city": "Edgewood", "phone": "+1 859-331-5025", "website": "https://renewyourlooks.com/etage-skin-care/", "rating": 4.8, "reviews": 16, "place_id": "ChIJtwf_FyW4QYgRxR1ro6V08Aw", "latitude": 39.0184525, "longitude": -84.57597679999999, "care_type": "Plastic Surgeon"}, {"name": "Dr. Ryan Wilson", "address": "340 Thomas More Pkwy Ste 100, Crestview Hills, KY 41017", "city": "Crestview Hills", "phone": "+1 513-791-4440", "website": "https://theplasticsurgerygroup.com/surgeons/dr-ryan-wilson/", "rating": 5.0, "reviews": 2, "place_id": "ChIJ2cttPyu4QYgREDTqZN9Y3ZA", "latitude": 39.024199, "longitude": -84.56524309999999, "care_type": "Plastic Surgeon"}, {"name": "Toxbar-KY", "address": "2883 Town Center Blvd, Crestview Hills, KY 41017", "city": "Crestview Hills", "phone": "+1 859-512-1868", "website": "https://toxbar-ky.com/", "rating": 5.0, "reviews": 55, "place_id": "ChIJG-9imLnBQYgRFo7MT1Vqi68", "latitude": 39.0239267, "longitude": -84.578696, "care_type": "Plastic Surgeon"}, {"name": "Waldman Schantz Turner Plastic Surgery Center", "address": "3288 Eagle View Ln UNIT 300, Lexington, KY 40509", "city": "Lexington", "phone": "+1 859-254-5665", "website": "https://www.waldmanplasticsurgery.com/", "rating": 5.0, "reviews": 1071, "place_id": "ChIJ4zkB2OpEQogRzyOA5NwRNC8", "latitude": 37.9997647, "longitude": -84.4433954, "care_type": "Plastic Surgeon"}, {"name": "Loftus Total Skin Care", "address": "1881 Dixie Hwy #300, Fort Wright, KY 41011", "city": "Fort Wright", "phone": "+1 859-426-5100", "website": "http://loftustotalskincare.com/", "rating": 4.9, "reviews": 141, "place_id": "ChIJ3W_atCK3QYgRT6tbj3ksEZs", "latitude": 39.0581132, "longitude": -84.5421416, "care_type": "Plastic Surgeon"}, {"name": "Dr. Allison Lied", "address": "133 Barnwood Dr, Edgewood, KY 41017", "city": "Edgewood", "phone": "+1 859-331-9600", "website": "https://renewyourlooks.com/", "rating": null, "reviews": 0, "place_id": "ChIJq6o6SiW4QYgR0ApyVqHufJw", "latitude": 39.0184231, "longitude": -84.5758188, "care_type": "Plastic Surgeon"}, {"name": "MediMorph", "address": "541 Buttermilk Pike Suite 100, Crescent Springs, KY 41017", "city": "Crescent Springs", "phone": "+1 513-991-6066", "website": "https://medimorph.com/%3Futm_source%3DGoogle%2BBusiness%2BProfile%2BCrescent%2BSprings%26utm_medium%3DOrganic%2BSearch%26utm_campaign%3DGoogle%2BBusiness%2BProfile%2BCrescent%2BSprings%26utm_term%3Dutm_term%26utm_content%3Dutm_content", "rating": 4.9, "reviews": 380, "place_id": "ChIJW7hwvNi3QYgRQ8_ZVA-TkmM", "latitude": 39.0486705, "longitude": -84.5778157, "care_type": "Plastic Surgeon"}, {"name": "Commonwealth Plastic Surgery: Jared Nimtz, MD", "address": "202 N Hill St, London, KY 40741", "city": "London", "phone": "+1 859-277-8615", "website": "https://www.commonwealthplastics.com/%3Futm_source%3Dgoogle%26utm_medium%3Dlocal%26utm_campaign%3Dlondon-practice-website", "rating": 5.0, "reviews": 5, "place_id": "ChIJ6XqGKrXSXIgRFK0VRsY3CNw", "latitude": 37.1300797, "longitude": -84.0834831, "care_type": "Plastic Surgeon"}, {"name": "Face Lab Aesthetics", "address": "1088 Walburg Ave Suite 303, Villa Hills, KY 41017", "city": "Villa Hills", "phone": "+1 859-443-8070", "website": "https://facelabnky.com/", "rating": 5.0, "reviews": 48, "place_id": "ChIJtWVsNhm3QYgRKwWimQ3EjYY", "latitude": 39.06467079999999, "longitude": -84.6015286, "care_type": "Plastic Surgeon"}, {"name": "Richard Williams, MD", "address": "20 Medical Village Dr Suite 254, Edgewood, KY 41017", "city": "Edgewood", "phone": "+1 859-655-7400", "website": "https://www.stelizabethphysicians.com/providers/bio/richard-williams-md", "rating": null, "reviews": 0, "place_id": "ChIJKwpRFkK5QYgRQFMrwUmtb6A", "latitude": 39.0134635, "longitude": -84.56129349999999, "care_type": "Plastic Surgeon"}, {"name": "Dr. Lawrence C. Kurtzman, MD", "address": "340 Thomas More Pkwy, Crestview Hills, KY 41017", "city": "Crestview Hills", "phone": "+1 513-891-4440", "website": "https://kurtzmanplasticsurgery.com/", "rating": null, "reviews": 0, "place_id": "ChIJn-2WOSu4QYgRjhdMlhUbVkI", "latitude": 39.0241901, "longitude": -84.5651604, "care_type": "Plastic Surgeon"}, {"name": "The Dermatology Center, PSC", "address": "10060 Demia Way, Florence, KY 41042", "city": "Florence", "phone": "+1 859-525-6770", "website": "http://nkydermatology.com/", "rating": 4.6, "reviews": 735, "place_id": "ChIJZ1dKHjbHQYgRAZuGCFAxvMQ", "latitude": 38.9539347, "longitude": -84.62710109999999, "care_type": "Plastic Surgeon"}, {"name": "Brian W. Starr MD", "address": "2765 Chapel Pl, Crestview Hills, KY 41017", "city": "Crestview Hills", "phone": "+1 859-344-5390", "website": "https://www.cincinnatichildrens.org/bio/s/brian-starr%3Futm_source%3Dgoogle%26utm_medium%3Dorganic%26utm_campaign%3Dprofile_listing", "rating": null, "reviews": 0, "place_id": "ChIJp02E9u25QYgRkXM4Xn-jv7E", "latitude": 39.0242337, "longitude": -84.5629876, "care_type": "Plastic Surgeon"}, {"name": "Women's Touch Plastic Surgery", "address": "3005 Dixie Hwy, Edgewood, KY 41017", "city": "Edgewood", "phone": "+1 859-341-3309", "website": "", "rating": null, "reviews": 0, "place_id": "ChIJtc4hdCK4QYgRo1YS6s5zK9s", "latitude": 39.0223723, "longitude": -84.5850179, "care_type": "Plastic Surgeon"}, {"name": "Kainos Aesthetics", "address": "250 Grandview Dr Suite 115, Fort Mitchell, KY 41017", "city": "Fort Mitchell", "phone": "+1 859-212-3686", "website": "http://kainosaesthetics.com/", "rating": 5.0, "reviews": 61, "place_id": "ChIJ11PJsCa3QYgRu_1DSH9hIew", "latitude": 39.052582, "longitude": -84.5606269, "care_type": "Plastic Surgeon"}, {"name": "Image Surgical Arts - Dr. Brady Harris, MD", "address": "1210 Johnson Blvd Unit #3, Murray, KY 42071", "city": "Murray", "phone": "+1 615-499-4224", "website": "http://imagesurgicalarts.com/", "rating": 5.0, "reviews": 34, "place_id": "ChIJ5Rpjy4Gte4gRxS05VuKFKlQ", "latitude": 36.5994248, "longitude": -88.31749789999999, "care_type": "Plastic Surgeon"}, {"name": "Mizuguchi Plastic Surgery", "address": "7501 New La Grange Rd, Louisville, KY 40222", "city": "Louisville", "phone": "+1 502-200-0600", "website": "https://www.nanamd.com/", "rating": 4.9, "reviews": 292, "place_id": "ChIJOVg4B0N1aYgRbJ-PZCNkyS8", "latitude": 38.252962, "longitude": -85.6150945, "care_type": "Plastic Surgeon"}, {"name": "CaloAesthetics\u00ae Plastic Surgery Center", "address": "2341 Lime Kiln Ln, Louisville, KY 40222", "city": "Louisville", "phone": "+1 502-899-9979", "website": "https://www.caloaesthetics.com/%3Futm_source%3DGMBlisting%26utm_medium%3Dorganic%26utm_campaign%3Dgmb-louisville/", "rating": 4.9, "reviews": 329, "place_id": "ChIJd2iMgKN1aYgRov1f3jCCg3c", "latitude": 38.285218, "longitude": -85.628073, "care_type": "Plastic Surgeon"}, {"name": "Associates In Plastic Surgery", "address": "6400 New Dutchmans Pkwy Suite 205, Louisville, KY 40205", "city": "Louisville", "phone": "+1 502-895-5466", "website": "http://louisvilleplasticsurgeon.com/", "rating": 4.6, "reviews": 19, "place_id": "ChIJeZYgqSt1aYgROi9mW1iTPBg", "latitude": 38.2284752, "longitude": -85.6420168, "care_type": "Plastic Surgeon"}, {"name": "Corbett Cosmetic Surgery", "address": "13125 Eastpoint Park Blvd #102, Louisville, KY 40223", "city": "Louisville", "phone": "+1 502-721-0330", "website": "http://www.corbettcosmeticsurgery.com/%3Futm_source%3Dgoogle%26utm_medium%3Dgmb%26utm_campaign%3Dlisting", "rating": 4.7, "reviews": 166, "place_id": "ChIJnQcmOc0KaYgR9AK3j5LT2CY", "latitude": 38.27992649999999, "longitude": -85.5151753, "care_type": "Plastic Surgeon"}, {"name": "Mays Plastic Surgery & Med Spa", "address": "4111 Oechsli Ave, Louisville, KY 40207", "city": "Louisville", "phone": "+1 502-576-6918", "website": "https://maysplasticsurgery.com/", "rating": 4.9, "reviews": 131, "place_id": "ChIJE-8Zc1eZaYgRPzZbnZoZGYk", "latitude": 38.254729, "longitude": -85.6456347, "care_type": "Plastic Surgeon"}, {"name": "F. Ryan Wermeling, MD", "address": "6400 New Dutchmans Pkwy Suite 205, Louisville, KY 40207", "city": "Louisville", "phone": "+1 502-895-5466", "website": "http://louisvilleplasticsurgeon.com/", "rating": 4.8, "reviews": 71, "place_id": "ChIJ8XszC7V1aYgR1ovQowlFK8E", "latitude": 38.228644, "longitude": -85.6418389, "care_type": "Plastic Surgeon"}, {"name": "Digenis Plastic Surgery & MediSpa/Dr. Alexander Digenis", "address": "2950 Terra Crossing Blvd, Louisville, KY 40245", "city": "Louisville", "phone": "+1 502-589-5544", "website": "http://www.digenis.com/", "rating": 4.9, "reviews": 128, "place_id": "ChIJXWamfLZyaYgRa3xR1mO-VRk", "latitude": 38.2799912, "longitude": -85.49873149999999, "care_type": "Plastic Surgeon"}, {"name": "Center For Beauty - Dr. Sean Maguire", "address": "224 Chenoweth Ln, Louisville, KY 40207", "city": "Louisville", "phone": "+1 502-897-7546", "website": "https://mycenterforbeauty.com/", "rating": 4.8, "reviews": 244, "place_id": "ChIJnyANjzt1aYgR0nl4SO6S-Mw", "latitude": 38.257467, "longitude": -85.6595018, "care_type": "Plastic Surgeon"}, {"name": "O'Daniel Studios - T. Gerald O'Daniel, MD, FACS", "address": "132 Chenoweth Ln, Louisville, KY 40207", "city": "Louisville", "phone": "+1 502-584-1109", "website": "https://www.drodaniel.com/", "rating": 5.0, "reviews": 366, "place_id": "ChIJHQ4sybtyaYgRweouo1__P8k", "latitude": 38.2545804, "longitude": -85.6572355, "care_type": "Plastic Surgeon"}, {"name": "Chet Mays, MD", "address": "4111 Oechsli Ave, Louisville, KY 40207", "city": "Louisville", "phone": "+1 502-576-6918", "website": "https://maysplasticsurgery.com/", "rating": 4.9, "reviews": 35, "place_id": "ChIJ4dJmgKN1aYgRNksJURfiSpQ", "latitude": 38.254729, "longitude": -85.6456347, "care_type": "Plastic Surgeon"}, {"name": "Plastic & Aesthetic Surgery Specialists", "address": "4001 Kresge Way STE 320, Louisville, KY 40207", "city": "Louisville", "phone": "+1 502-895-5850", "website": "http://www.kyplasticsurgery.com/", "rating": 4.6, "reviews": 9, "place_id": "ChIJJb6qiyt1aYgRbPIvAwwU5vk", "latitude": 38.2392391, "longitude": -85.64082599999999, "care_type": "Plastic Surgeon"}, {"name": "Prescott Plastic Surgery (Formerly Banis Plastic Surgery)", "address": "2507 Bush Ridge Dr, Louisville, KY 40245", "city": "Louisville", "phone": "+1 502-589-8000", "website": "https://www.aesthetics.com/%3Futm_source%3Dgoogle%26utm_medium%3Dorganic%26utm_campaign%3Dgbp%26utm_term%3DPrescott-Plastic-Surgery%26utm_content%3Dwebsite", "rating": 5.0, "reviews": 632, "place_id": "ChIJwyaU0dQKaYgRYeAItMkTBYM", "latitude": 38.2729307, "longitude": -85.4886709, "care_type": "Plastic Surgeon"}, {"name": "M. Bradley Calobrace, MD, FACS", "address": "2341 Lime Kiln Ln, Louisville, KY 40222", "city": "Louisville", "phone": "+1 502-899-9979", "website": "https://www.caloaesthetics.com/about/dr-calobrace/%3Futm_source%3Dgoogle%26utm_medium%3Dlocal%26utm_campaign%3Dlouisville-calobrace-website", "rating": 4.9, "reviews": 78, "place_id": "ChIJd2iMgKN1aYgR-iN55FYiGYk", "latitude": 38.2853084, "longitude": -85.6279744, "care_type": "Plastic Surgeon"}, {"name": "Chatham Facial Plastic Surgery & Medical Skin Care, Chatham Donn R MD", "address": "4001 Kresge Way, St Matthews, KY 40207", "city": "St Matthews", "phone": "+1 502-895-4820", "website": "http://www.drchatham.com/", "rating": 5.0, "reviews": 79, "place_id": "ChIJJb6qiyt1aYgRl74VRfLlaT8", "latitude": 38.2390867, "longitude": -85.64070819999999, "care_type": "Plastic Surgeon"}, {"name": "Ziad Katrib, MD", "address": "2429 Bush Ridge Dr #103, Louisville, KY 40245", "city": "Louisville", "phone": "+1 502-445-9311", "website": "https://www.zknoses.com/", "rating": 4.9, "reviews": 351, "place_id": "ChIJ4aR90rdyaYgRWSP_mCNpV1o", "latitude": 38.2725105, "longitude": -85.4880676, "care_type": "Plastic Surgeon"}, {"name": "Juan Quintero, MD", "address": "2341 Lime Kiln Ln, Louisville, KY 40222", "city": "Louisville", "phone": "+1 502-899-9979", "website": "https://www.caloaesthetics.com/about/dr-quintero/%3Futm_source%3Dgoogle%26utm_medium%3Dlocal%26utm_campaign%3Dlouisville-quintero-website", "rating": 4.7, "reviews": 111, "place_id": "ChIJMT2r8tt0aYgRxQVyPsuS54o", "latitude": 38.2853084, "longitude": -85.6279744, "care_type": "Plastic Surgeon"}, {"name": "Julene B. Samuels MD, FACS", "address": "9419 Norton Commons Blvd #101, Prospect, KY 40059", "city": "Prospect", "phone": "+1 502-897-9411", "website": "https://awomanstouchmd.com/%3Futm_source%3Dgbp%26utm_medium%3Dorganic", "rating": 4.9, "reviews": 197, "place_id": "ChIJGYKHQNYKaYgRN1H_nV0PrYs", "latitude": 38.324841, "longitude": -85.566946, "care_type": "Plastic Surgeon"}, {"name": "Sarah Khayat MD, Facial Plastic and Reconstructive Surgery Center", "address": "2429 Bush Ridge Dr #103, Louisville, KY 40245", "city": "Louisville", "phone": "+1 502-588-0479", "website": "https://sarahkhayatmd.com/", "rating": 5.0, "reviews": 33, "place_id": "ChIJc0Opcy2ZaYgR5CUvvWEmrRI", "latitude": 38.2725105, "longitude": -85.4880676, "care_type": "Plastic Surgeon"}, {"name": "Sono Bello Louisville", "address": "7410 New La Grange Rd Suite 209, Louisville, KY 40222", "city": "Louisville", "phone": "+1 502-650-9129", "website": "https://www.sonobello.com/locations/louisville/", "rating": 4.5, "reviews": 23, "place_id": "ChIJ1dF6UTRzaYgRXHVU4vimWc0", "latitude": 38.2520618, "longitude": -85.6144125, "care_type": "Plastic Surgeon"}, {"name": "ThorntonMD Plastic Surgery", "address": "210 E Gray St, Louisville, KY 40202", "city": "Louisville", "phone": "+1 502-290-7575", "website": "https://providers.nortonhealthcare.com/provider/brian-p-thornton/496363", "rating": 5.0, "reviews": 6, "place_id": "ChIJ9xqihLZyaYgRLb8XkBOLOYM", "latitude": 38.2465017, "longitude": -85.7506507, "care_type": "Plastic Surgeon"}, {"name": "Michelle Palazzo, MD", "address": "4010 Dupont Cir suite 308b, Louisville, KY 40207", "city": "Louisville", "phone": "+1 502-561-4200", "website": "https://uoflhealth.org/provider/michelle-palazzo-plastic-hand-surgeon/", "rating": 4.4, "reviews": 23, "place_id": "ChIJ4Uo5fOMLaYgRA__s0FUl_MY", "latitude": 38.2332727, "longitude": -85.6300843, "care_type": "Plastic Surgeon"}, {"name": "Louisville Plastic Surgery Consultants, LLC", "address": "13281 O'Bannon Station Way, Louisville, KY 40223", "city": "Louisville", "phone": "+1 502-899-9996", "website": "http://www.louisvillepsc.com/", "rating": 1.0, "reviews": 2, "place_id": "ChIJJTU3j9YKaYgRuBB2cONSsP8", "latitude": 38.2821052, "longitude": -85.5133238, "care_type": "Plastic Surgeon"}, {"name": "CC Lou Aesthetics and Wellness", "address": "800 Stone Creek Pkwy # 2, Louisville, KY 40223", "city": "Louisville", "phone": "+1 502-466-2568", "website": "http://cclouaesthetics.com/", "rating": 5.0, "reviews": 0, "place_id": "ChIJ202aFa51aYgRc3iGcEF43vg", "latitude": 38.2357752, "longitude": -85.5744076, "care_type": "Plastic Surgeon"}, {"name": "Joshua H. Choo, MD", "address": "401 E Chestnut St Suite 790, Louisville, KY 40202", "city": "Louisville", "phone": "+1 502-583-8303", "website": "https://uoflhealth.org/provider/joshua-choo/", "rating": 4.2, "reviews": 15, "place_id": "ChIJzyoyPnNzaYgRHwpfI1sPRXk", "latitude": 38.2480521, "longitude": -85.7467891, "care_type": "Plastic Surgeon"}, {"name": "Dr. Maurine Waterhouse", "address": "3920 Dutchmans Ln, Louisville, KY 40207", "city": "Louisville", "phone": "+1 502-635-1550", "website": "", "rating": 5.0, "reviews": 1, "place_id": "ChIJLda7uNMKaYgRCK79R8YOH0c", "latitude": 38.2318127, "longitude": -85.6366905, "care_type": "Plastic Surgeon"}, {"name": "Louisville Body Contouring LLC", "address": "8915 Stone Green Way #100b, Louisville, KY 40220", "city": "Louisville", "phone": "+1 502-384-1019", "website": "http://www.louisvillebodycontouring.com/", "rating": 4.9, "reviews": 0, "place_id": "ChIJZ4zdN_ehaYgR6sXZ7u3uL7g", "latitude": 38.2143577, "longitude": -85.5993139, "care_type": "Plastic Surgeon"}, {"name": "CaloSpa\u00ae Rejuvenation Center", "address": "2341 Lime Kiln Ln, Louisville, KY 40222", "city": "Louisville", "phone": "+1 502-814-3000", "website": "https://www.calospa.com/%3Futm_source%3Dgoogle%26utm_medium%3Dlocal%26utm_campaign%3Dlouisville-medspa-website", "rating": 4.9, "reviews": 0, "place_id": "ChIJd2iMgKN1aYgRJ24FNoHMvxU", "latitude": 38.285218, "longitude": -85.628073, "care_type": "Plastic Surgeon"}, {"name": "Dr. R. Kevin Majzoub, M.D.,", "address": "13281 O'Bannon Station Way, Louisville, KY 40223", "city": "Louisville", "phone": "+1 502-899-9996", "website": "http://www.louisvillepsc.com/", "rating": 4.0, "reviews": 6, "place_id": "ChIJf7cgRC6ZaYgRImNx1SHN2ZQ", "latitude": 38.2821052, "longitude": -85.5133238, "care_type": "Plastic Surgeon"}, {"name": "Maurine Waterhouse, M.D.", "address": "4001 Kresge Way STE 320, Louisville, KY 40207", "city": "Louisville", "phone": "+1 502-895-5850", "website": "http://www.kyplasticsurgery.com/our-doctors/maurine-waterhouse/", "rating": 4.5, "reviews": 24, "place_id": "ChIJy_nosSt1aYgR7_2HLKv5wm8", "latitude": 38.2391836, "longitude": -85.64052699999999, "care_type": "Plastic Surgeon"}, {"name": "Samsara Aesthetics and Wellness", "address": "806 Stone Creek Pkwy STE 12, Louisville, KY 40223", "city": "Louisville", "phone": "+1 502-509-5379", "website": "https://samsaraky.com/", "rating": 5.0, "reviews": 0, "place_id": "ChIJgUuCU9efaYgRItx4qYWpHNI", "latitude": 38.234996, "longitude": -85.5745807, "care_type": "Plastic Surgeon"}, {"name": "Dr. Thomas J. Haas, MD", "address": "7501 New La Grange Rd, Louisville, KY 40222", "city": "Louisville", "phone": "+1 502-894-8595", "website": "", "rating": 3.3, "reviews": 24, "place_id": "ChIJjSvqqUN1aYgRBh_QLZi3LJo", "latitude": 38.2529384, "longitude": -85.6151256, "care_type": "Plastic Surgeon"}, {"name": "Aubrey Medical Lipo Laser", "address": "7410 New La Grange Rd, Louisville, KY 40222", "city": "Louisville", "phone": "+1 888-282-3535", "website": "", "rating": null, "reviews": 0, "place_id": "ChIJ8wT5EkN1aYgRMcAF5STsrtg", "latitude": 38.2520956, "longitude": -85.6142919, "care_type": "Plastic Surgeon"}, {"name": "Louisville Dermatology: Jeffersontown", "address": "2300 Hurstbourne Village Dr #900, Louisville, KY 40299", "city": "Louisville", "phone": "+1 502-245-4450", "website": "https://www.vitalskinderm.com/locations/louisville-dermatology-jeffersontown/%3Futm_source%3Dgmb%26utm_medium%3Dorganic%26y_source%3D1_MTg2MjQ0NDItNzE1LWxvY2F0aW9uLndlYnNpdGU%253D", "rating": 4.4, "reviews": 55, "place_id": "ChIJs3BZtFagaYgRu4n-fL8I_t8", "latitude": 38.2162195, "longitude": -85.5792615, "care_type": "Plastic Surgeon"}, {"name": "Elevated Aesthetics PLLC", "address": "9900 Shelbyville Rd #5A, Louisville, KY 40223", "city": "Louisville", "phone": "+1 502-808-1944", "website": "https://elevatedaestheticsllc.com/%3Futm_campaign%3Dgmb", "rating": 5.0, "reviews": 22, "place_id": "ChIJYXJrgf6baYgRFWcnFzYPgm4", "latitude": 38.2454901, "longitude": -85.5720347, "care_type": "Plastic Surgeon"}, {"name": "Cole Norman M MD", "address": "9812 Shelbyville Rd # 1, Louisville, KY 40223", "city": "Louisville", "phone": "+1 502-423-0509", "website": "", "rating": null, "reviews": 0, "place_id": "ChIJtSS7UJCfaYgRLBp2n3qz4kE", "latitude": 38.2459837, "longitude": -85.5730853, "care_type": "Plastic Surgeon"}, {"name": "Tathyana Fensterer MD", "address": "511 Robinbrooke Blvd Suite 100, Elizabethtown, KY 42701", "city": "Elizabethtown", "phone": "+1 270-706-1945", "website": "https://www.baptisthealth.com/providers/tathyana-m-fensterer-md-plastic-surgery%3Futm_source%3Dgoogle%26utm_medium%3Dorganic%26utm_content%3Dgbp-website%26utm_campaign%3D034-pro-gbp-listing", "rating": 4.6, "reviews": 20, "place_id": "ChIJsYKNvHPpaIgRoMvGPT3vFqU", "latitude": 37.7240784, "longitude": -85.90895359999999, "care_type": "Plastic Surgeon"}, {"name": "Dr. Vera C. Van Aalst-Barker, MD", "address": "901 Dupont Rd #202, Louisville, KY 40207", "city": "Louisville", "phone": "+1 502-599-8000", "website": "http://www.aesthetics.com/", "rating": null, "reviews": 0, "place_id": "ChIJwyaU0dQKaYgROqIMPx1A03Q", "latitude": 38.2354399, "longitude": -85.64037499999999, "care_type": "Plastic Surgeon"}, {"name": "Charles A Kincaid Psc", "address": "4001 Dutchmans Ln, Louisville, KY 40207", "city": "Louisville", "phone": "+1 502-897-1891", "website": "", "rating": null, "reviews": 0, "place_id": "ChIJu48FlNIKaYgR8eDpoTOk_7U", "latitude": 38.2353692, "longitude": -85.6321385, "care_type": "Plastic Surgeon"}, {"name": "Verbist Plastic Surgery", "address": "225 Medical Center Dr Suite Suite 208A, Paducah, KY 42003", "city": "Paducah", "phone": "+1 270-709-1984", "website": "http://verbistplasticsurgery.com/", "rating": 4.8, "reviews": 66, "place_id": "ChIJP0Yt2oMReogRwIe41QvDvvE", "latitude": 37.0542901, "longitude": -88.6431365, "care_type": "Plastic Surgeon"}, {"name": "Ballert Medical Aesthetics", "address": "130 Lone Oak Rd Suite 115, Paducah, KY 42001", "city": "Paducah", "phone": "+1 270-534-5641", "website": "https://ballertmedical.com/", "rating": 4.7, "reviews": 32, "place_id": "ChIJVewfrn4aeogRpm2eOoUOQb0", "latitude": 37.0695263, "longitude": -88.637914, "care_type": "Plastic Surgeon"}, {"name": "Renaissance Plastic Surgery", "address": "2601 Kentucky Ave, Paducah, KY 42003", "city": "Paducah", "phone": "+1 270-444-8200", "website": "http://www.drdantkach.com/", "rating": 4.3, "reviews": 11, "place_id": "ChIJRfKoQIcQeogRfEwtU3WyGXs", "latitude": 37.0740381, "longitude": -88.6268491, "care_type": "Plastic Surgeon"}, {"name": "Baptist Health Medical Group Facial Plastic & Reconstructive Surgery", "address": "2605 Kentucky Ave #402, Paducah, KY 42003", "city": "Paducah", "phone": "+1 270-408-3230", "website": "https://www.baptisthealth.com/care-services/services/plastic-reconstructive-surgery%3Futm_source%3Dgoogle%26utm_medium%3Dorganic%26utm_content%3Dgbp-website%26utm_campaign%3D034-loc-gbp-listing", "rating": null, "reviews": 0, "place_id": "ChIJY9njFOIReogRNcgKAZa8k3E", "latitude": 37.0733903, "longitude": -88.6287479, "care_type": "Plastic Surgeon"}, {"name": "Ruxer Med Spa", "address": "4720 Village Square Dr Suite B, Paducah, KY 42001", "city": "Paducah", "phone": "+1 270-554-0090", "website": "https://www.ruxermedspa.com/", "rating": 4.9, "reviews": 269, "place_id": "ChIJu0iU_UkaeogRc42oHV5cuy8", "latitude": 37.0698997, "longitude": -88.68722799999999, "care_type": "Plastic Surgeon"}, {"name": "Dr. Daniel M. Tkach, MD", "address": "2601 Kentucky Ave # 401, Paducah, KY 42003", "city": "Paducah", "phone": "+1 270-444-8200", "website": "https://www.drdantkach.com/about", "rating": 3.9, "reviews": 14, "place_id": "ChIJRfKoQIcQeogRRsLmNnYwjzo", "latitude": 37.0740381, "longitude": -88.6268491, "care_type": "Plastic Surgeon"}, {"name": "Dr. Peter A. Ward, MD", "address": "242 Berger Rd, Paducah, KY 42003", "city": "Paducah", "phone": "+1 270-444-0119", "website": "", "rating": 5.0, "reviews": 4, "place_id": "ChIJ-XnHRnEaeogRa-AQrfnSxvA", "latitude": 37.0590418, "longitude": -88.63813119999999, "care_type": "Plastic Surgeon"}, {"name": "Plastic Surgeons of Lexington", "address": "2424 Harrodsburg Rd Ste 200, Lexington, KY 40503", "city": "Lexington", "phone": "+1 859-276-3883", "website": "https://www.plasticsurgeonsoflexington.com/", "rating": 4.9, "reviews": 320, "place_id": "ChIJxdZ-u1lDQogRAlIzYlgLtg0", "latitude": 38.0179946, "longitude": -84.5467079, "care_type": "Plastic Surgeon"}, {"name": "RejuvenateRx Medspa", "address": "236 E Main St, Richmond, KY 40475", "city": "Richmond", "phone": "+1 859-376-5215", "website": "https://www.rejuvenaterxky.com/", "rating": 4.9, "reviews": 0, "place_id": "ChIJZ4kBLtH9QogRWjVF1I12W-o", "latitude": 37.7463057, "longitude": -84.2920305, "care_type": "Plastic Surgeon"}, {"name": "The Skin Suite - Medical Aesthetics & Wellness", "address": "1012 Center Dr ste a, Richmond, KY 40475", "city": "Richmond", "phone": "+1 859-484-6736", "website": "https://theskinsuiteky.com/", "rating": 4.7, "reviews": 0, "place_id": "ChIJqUi4RqX9QogRRP0MQapld4w", "latitude": 37.7315354, "longitude": -84.271352, "care_type": "Plastic Surgeon"}, {"name": "The Center For Plastic Surgery and Med Spa: Sandra Bouzaglou, MD, FACS", "address": "501 Darby Creek Rd UNIT 59, Lexington, KY 40509", "city": "Lexington", "phone": "+1 859-600-6904", "website": "https://www.center4plasticsurgery.com/", "rating": 4.9, "reviews": 209, "place_id": "ChIJBxWszQVQQogRUsgSNgahGcw", "latitude": 38.0073818, "longitude": -84.43370279999999, "care_type": "Plastic Surgeon"}, {"name": "Kirn Plastic Surgery", "address": "2376 Alexandria Dr, Lexington, KY 40504", "city": "Lexington", "phone": "+1 859-296-3195", "website": "https://www.kirnplasticsurgery.com/%3Futm_source%3Dgoogle%26utm_medium%3Dorganic%26utm_campaign%3Dgbp%26utm_term%3DKirn-Plastic-Surgery%26utm_content%3Dwebsite", "rating": 4.7, "reviews": 30, "place_id": "ChIJecpTc8xcQogR0JXePDRmPBA", "latitude": 38.01786, "longitude": -84.548795, "care_type": "Plastic Surgeon"}, {"name": "Commonwealth Plastic Surgery: Jared Nimtz, MD", "address": "715 Shaker Dr STE 100, Lexington, KY 40504", "city": "Lexington", "phone": "+1 859-277-9435", "website": "https://www.commonwealthplastics.com/%3Futm_source%3Dgoogle%26utm_medium%3Dlocal%26utm_campaign%3Dlexington-practice-website", "rating": 4.8, "reviews": 82, "place_id": "ChIJVeaao7tEQogRS_eC8kMMUMY", "latitude": 38.0322341, "longitude": -84.5296793, "care_type": "Plastic Surgeon"}, {"name": "Barton Bruce R MD", "address": "519 Hampton Way STE 4, Richmond, KY 40475", "city": "Richmond", "phone": "+1 859-623-0064", "website": "", "rating": null, "reviews": 0, "place_id": "ChIJCyP0APv8QogR4pr-khW-zGE", "latitude": 37.7331428, "longitude": -84.32951349999999, "care_type": "Plastic Surgeon"}, {"name": "Evan Moore, MD, Plastic Surgeon, Lexington, KY", "address": "2424 Harrodsburg Rd Suite 200, Lexington, KY 40503", "city": "Lexington", "phone": "+1 859-276-3883", "website": "https://plasticsurgeonsoflexington.com/about/evan-moore-m-d/", "rating": 5.0, "reviews": 3, "place_id": "ChIJq6pqpVlDQogRrvtwAX-Wll0", "latitude": 38.0331754, "longitude": -84.5255936, "care_type": "Plastic Surgeon"}, {"name": "Wells Plastic Surgery & Skin Care", "address": "1707 Nicholasville Rd, Lexington, KY 40503", "city": "Lexington", "phone": "+1 859-255-6649", "website": "https://www.wellsplasticsurgery.com/", "rating": 4.9, "reviews": 154, "place_id": "ChIJMfSF4epEQogRcJoTo1-0PT0", "latitude": 38.0199198, "longitude": -84.5140468, "care_type": "Plastic Surgeon"}, {"name": "Amit Bipin Patel, MD", "address": "2195 Harrodsburg Rd 2nd Floor Suite E, Lexington, KY 40504", "city": "Lexington", "phone": "+1 859-517-4299", "website": "http://www.amitpatelmd.com/", "rating": 5.0, "reviews": 95, "place_id": "ChIJ5fPZirpEQogRGz6LThCGzYY", "latitude": 38.0256956, "longitude": -84.5406501, "care_type": "Plastic Surgeon"}, {"name": "UK Plastic Surgery", "address": "2195 Harrodsburg Rd 2nd Floor, Lexington, KY 40504", "city": "Lexington", "phone": "+1 859-323-8082", "website": "https://ukhealthcare.uky.edu/plastic-surgery", "rating": 4.0, "reviews": 9, "place_id": "ChIJVeaao7tEQogR6jI5oAUIltM", "latitude": 38.0256956, "longitude": -84.5406501, "care_type": "Plastic Surgeon"}, {"name": "Body Spectrum Plastic Surgery - Bruce R Barton MD", "address": "2414 Greatstone Point, Lexington, KY 40504", "city": "Lexington", "phone": "+1 859-224-1235", "website": "https://www.bodyspectrum.net/meet-the-doctor-from-lexington-kentucky/", "rating": 3.9, "reviews": 7, "place_id": "ChIJiwrhisxcQogRkoDY8TcGHwA", "latitude": 38.01909879999999, "longitude": -84.5496866, "care_type": "Plastic Surgeon"}, {"name": "Dr. Joseph Hill Jr., MD", "address": "2424 Harrodsburg Rd Ste 200, Lexington, KY 40503", "city": "Lexington", "phone": "+1 859-276-3883", "website": "http://plasticsurgeonsoflexington.com/joe-hill-md/", "rating": 5.0, "reviews": 6, "place_id": "ChIJ6x2Or1lDQogRAKFFaWSdmw4", "latitude": 38.0179943, "longitude": -84.54670449999999, "care_type": "Plastic Surgeon"}, {"name": "Toothologie \u2013 A Smile Studio", "address": "8667 US-42 Suite 100, Union, KY 41091", "city": "Union", "phone": "+1 859-384-0393", "website": "https://www.toothologiesmilestudio.com/", "rating": 5.0, "reviews": 783, "place_id": "ChIJJQRTdubHQYgRyaKdkJmact0", "latitude": 38.9670385, "longitude": -84.67086809999999, "care_type": "Plastic Surgeon"}, {"name": "Dr. Stephen A. Schantz, MD", "address": "3288 Eagle View Ln UNIT 300, Lexington, KY 40509", "city": "Lexington", "phone": "+1 859-254-5665", "website": "http://www.waldmanplasticsurgery.com/", "rating": 4.7, "reviews": 6, "place_id": "ChIJ4zkB2OpEQogRw-kZhMVv2Dk", "latitude": 37.9997942, "longitude": -84.4433557, "care_type": "Plastic Surgeon"}, {"name": "The Dermatology Group", "address": "330 Thomas More Pkwy STE 201, Crestview Hills, KY 41017", "city": "Crestview Hills", "phone": "+1 513-770-4212", "website": "https://thedermgrouppartners.com/locations/crestview-hills-ky/%3Futm_medium%3Dlocal%26utm_source%3Dgoogle%26utm_campaign%3Dyext", "rating": 4.5, "reviews": 76, "place_id": "ChIJC4TD1hG5QYgRkOudqHmbRos", "latitude": 39.024667, "longitude": -84.566983, "care_type": "Plastic Surgeon"}, {"name": "Premier Beauty", "address": "218 Mini Mall Dr, Berea, KY 40403", "city": "Berea", "phone": "+1 859-408-1766", "website": "http://www.premierbeautyky.com/", "rating": 4.9, "reviews": 135, "place_id": "ChIJ8VIiPcEDQ4gRzDdK6g4BjSA", "latitude": 37.5874065, "longitude": -84.2858625, "care_type": "Plastic Surgeon"}, {"name": "Reflections Wellness and Spa of Berea", "address": "402 Richmond Rd N Suite B, Berea, KY 40403", "city": "Berea", "phone": "+1 859-868-1058", "website": "https://reflectionswellnessandspa.com/", "rating": 5.0, "reviews": 67, "place_id": "ChIJTUsMCQDjQogRG6sFFEouZe4", "latitude": 37.5889098, "longitude": -84.2832744, "care_type": "Plastic Surgeon"}, {"name": "Modern Dermatology of KY and Cosmetic Specialists - Richmond", "address": "120 Meridian Way Ste 2, Richmond, KY 40475", "city": "Richmond", "phone": "+1 859-276-1511", "website": "https://www.moderndermky.com/%3Futm_source%3Dgmb%26utm_medium%3Dorganic%26utm_campaign%3Dlisting", "rating": 3.8, "reviews": 165, "place_id": "ChIJnwLwaGr8QogRxUgtWTKN6Yk", "latitude": 37.7344605, "longitude": -84.3349271, "care_type": "Plastic Surgeon"}, {"name": "Dr. Christopher Marek, MD", "address": "100 Daniel Dr, Danville, KY 40422", "city": "Danville", "phone": "+1 859-236-1670", "website": "https://seibellamedicalspa.com/", "rating": 4.9, "reviews": 23, "place_id": "ChIJJyTcAPRJXYgRDVCNoWHdts4", "latitude": 37.6207173, "longitude": -84.7625242, "care_type": "Plastic Surgeon"}, {"name": "Plastic Surgery Center", "address": "1900 N Main St, Madisonville, KY 42431", "city": "Madisonville", "phone": "+1 270-245-2105", "website": "http://www.kentuckyplasticsurgerycenter.com/", "rating": null, "reviews": 0, "place_id": "ChIJo9JoPIf-b4gRQJeKZz9B7Zg", "latitude": 37.35521689999999, "longitude": -87.49703079999999, "care_type": "Plastic Surgeon"}, {"name": "H. Garth Smith, D.M.D., M.D.", "address": "1900 N Main St, Madisonville, KY 42431", "city": "Madisonville", "phone": "+1 270-245-2105", "website": "http://www.kentuckyplasticsurgerycenter.com/", "rating": 5.0, "reviews": 2, "place_id": "ChIJo9JoPIf-b4gRH-7gt73llNs", "latitude": 37.355035, "longitude": -87.4971813, "care_type": "Plastic Surgeon"}, {"name": "Henry Smith, MD", "address": "1900 N Main St, Madisonville, KY 42431", "city": "Madisonville", "phone": "", "website": "", "rating": null, "reviews": 0, "place_id": "ChIJty6Xcn__b4gRlA9HeTfnSj0", "latitude": 37.3545696, "longitude": -87.4968435, "care_type": "Plastic Surgeon"}, {"name": "Luxe Med Spa", "address": "903 W Lexington Ave Suite 3, Winchester, KY 40391", "city": "Winchester", "phone": "+1 859-644-5170", "website": "https://luxemedspaky.com/", "rating": 4.3, "reviews": 15, "place_id": "ChIJK2Kxs6GtQ4gRYHxA-eRRWrY", "latitude": 37.9985078, "longitude": -84.1935791, "care_type": "Plastic Surgeon"}, {"name": "Sorelle Aesthetics", "address": "12 Court St, Winchester, KY 40391", "city": "Winchester", "phone": "+1 859-379-8111", "website": "http://www.sorelleaestheticsky.com/", "rating": 5.0, "reviews": 40, "place_id": "ChIJ8-8cCjdrMCkRMVolnkm2jhY", "latitude": 37.9925283, "longitude": -84.1781106, "care_type": "Plastic Surgeon"}, {"name": "New You Aesthetics", "address": "33 E Main St Unit C, Mt Sterling, KY 40353", "city": "Mt Sterling", "phone": "+1 606-359-1216", "website": "http://new-you-aesthetics-100745.square.site/", "rating": 5.0, "reviews": 4, "place_id": "ChIJ54uSJ0i9Q4gRJzmsc7TA4CU", "latitude": 38.0568343, "longitude": -83.9413982, "care_type": "Plastic Surgeon"}, {"name": "AB Aesthetics", "address": "2317 W Cumberland Ave, Middlesboro, KY 40965", "city": "Middlesboro", "phone": "+1 606-273-8420", "website": "https://abaestheticsky.square.site/", "rating": 4.6, "reviews": 43, "place_id": "ChIJPXBkPXqZXIgR48YXAK97AIw", "latitude": 36.6065481, "longitude": -83.7196294, "care_type": "Plastic Surgeon"}, {"name": "Affordatox, LLC", "address": "1445 US-25E, Middlesboro, KY 40965", "city": "Middlesboro", "phone": "+1 606-670-4441", "website": "https://affordatox.glossgenius.com/", "rating": 4.9, "reviews": 293, "place_id": "ChIJa18r7NybXIgRPyuZ6CwBq-Q", "latitude": 36.6254177, "longitude": -83.7043503, "care_type": "Plastic Surgeon"}, {"name": "Middlesboro Rejuvenation Center", "address": "2145 US-25E, Middlesboro, KY 40965", "city": "Middlesboro", "phone": "+1 606-246-1660", "website": "https://rejuvenationcenter.com/rejuvenation-center-in-middlesboro-ky/", "rating": 5.0, "reviews": 11, "place_id": "ChIJA0UpuDmFXIgRKxPy5YdIPkE", "latitude": 36.6338998, "longitude": -83.70409029999999, "care_type": "Plastic Surgeon"}, {"name": "MD Aesthetics and Wellness", "address": "250 Belmont Drive Suite 2, Somerset, KY 42501", "city": "Somerset", "phone": "+1 606-303-1392", "website": "https://mdaestheticandwellness.com/", "rating": 5.0, "reviews": 152, "place_id": "ChIJlb5tR_5JXYgRKzZEvZkk2Og", "latitude": 37.0753644, "longitude": -84.6200313, "care_type": "Plastic Surgeon"}, {"name": "LakePointe Aesthetics", "address": "133 E Ridge Ln Suite B, Somerset, KY 42501", "city": "Somerset", "phone": "+1 606-677-0505", "website": "https://www.lakepointeaesthetics.com/", "rating": 4.9, "reviews": 24, "place_id": "ChIJHQ4u_ko1XYgRI65-VOjr3VE", "latitude": 37.1011774, "longitude": -84.59315959999999, "care_type": "Plastic Surgeon"}, {"name": "Wurth Oral, Facial, & Cosmetic Surgery", "address": "39 Bogle Office Park Dr, Somerset, KY 42503", "city": "Somerset", "phone": "+1 606-451-0888", "website": "http://www.wurthofcs.com/", "rating": 3.9, "reviews": 7, "place_id": "ChIJfzS8FPRJXYgRShmRca1RI3M", "latitude": 37.0867701, "longitude": -84.6236705, "care_type": "Plastic Surgeon"}, {"name": "SkinX Aesthetics", "address": "259 S Maple St, Somerset, KY 42501", "city": "Somerset", "phone": "+1 606-305-1537", "website": "https://www.skinxaesthetics.com/", "rating": 5.0, "reviews": 66, "place_id": "ChIJT1nuOhVJXYgRx9Z17U_AXqo", "latitude": 37.0908788, "longitude": -84.60266969999999, "care_type": "Plastic Surgeon"}, {"name": "W Aesthetics", "address": "1056 S Hwy 27, Somerset, KY 42501", "city": "Somerset", "phone": "+1 606-341-4993", "website": "https://waestheticsky.com/", "rating": 4.9, "reviews": 36, "place_id": "ChIJp5wBJ8pJXYgR2EXjV6Qm9Lg", "latitude": 37.0793329, "longitude": -84.61631009999999, "care_type": "Plastic Surgeon"}, {"name": "Bradley A. Wurth, DMD", "address": "39 Bogle Office Park Dr, Somerset, KY 42503", "city": "Somerset", "phone": "+1 606-451-0888", "website": "http://www.wurthofcs.com/", "rating": 4.7, "reviews": 13, "place_id": "ChIJfzS8FPRJXYgR1PcQdIncrtA", "latitude": 37.0867701, "longitude": -84.6236705, "care_type": "Plastic Surgeon"}, {"name": "Owen Brown, MD", "address": "3950 Kresge Way Suite 302, St Matthews, KY 40207", "city": "St Matthews", "phone": "+1 502-928-4020", "website": "https://www.baptisthealth.com/providers/owen-harris-brown-md-plastic-surgery%3Futm_source%3Dgoogle%26utm_medium%3Dorganic%26utm_content%3Dgbp-website%26utm_campaign%3D034-pro-gbp-listing", "rating": 5.0, "reviews": 2, "place_id": "ChIJ7QyLAGF1aYgRBs-0HBWq71k", "latitude": 38.2379101, "longitude": -85.6389615, "care_type": "Plastic Surgeon"}, {"name": "Baptist Heath Medical Group Plastic & Reconstructive Surgery", "address": "3950 Kresge Way Suite 302, St Matthews, KY 40207", "city": "St Matthews", "phone": "+1 502-928-4020", "website": "https://www.baptisthealth.com/care-services/services/plastic-reconstructive-surgery", "rating": null, "reviews": 0, "place_id": "ChIJBSffC0t1aYgR3Hohdc0TJjU", "latitude": 38.2379101, "longitude": -85.6389615, "care_type": "Plastic Surgeon"}, {"name": "Martin S. Fox, MD", "address": "4001 Kresge Way STE 320, Louisville, KY 40207", "city": "Louisville", "phone": "+1 502-895-5850", "website": "http://www.kyplasticsurgery.com/", "rating": 3.6, "reviews": 84, "place_id": "ChIJJb6qiyt1aYgR2KHNaYtDRWM", "latitude": 38.238942, "longitude": -85.640536, "care_type": "Plastic Surgeon"}, {"name": "Spa V - Dr. Lori Warren", "address": "161 Chenoweth Ln, Louisville, KY 40207", "city": "Louisville", "phone": "+1 502-425-5258", "website": "http://www.spa-v.com/", "rating": 5.0, "reviews": 31, "place_id": "ChIJPc-g73ueaYgRdeHp6VTa-1M", "latitude": 38.2564975, "longitude": -85.65818229999999, "care_type": "Plastic Surgeon"}, {"name": "John W. Derr Jr. MD, FACS", "address": "4001 Kresge Way STE 320, Louisville, KY 40207", "city": "Louisville", "phone": "+1 502-895-5850", "website": "", "rating": 4.0, "reviews": 21, "place_id": "ChIJJb6qiyt1aYgR-0vbDsIQdfE", "latitude": 38.2391952, "longitude": -85.64055839999999, "care_type": "Plastic Surgeon"}, {"name": "Dr. Michelle D. Palazzo, MD", "address": "3900 Kresge Way, Louisville, KY 40207", "city": "Louisville", "phone": "+1 502-562-0333", "website": "", "rating": 5.0, "reviews": 1, "place_id": "ChIJ45iRbCt1aYgRbbwgbF4DMEI", "latitude": 38.2375305, "longitude": -85.639473, "care_type": "Plastic Surgeon"}, {"name": "Cummins Thomas MD", "address": "6002 Brownsboro Park Blvd, Louisville, KY 40207", "city": "Louisville", "phone": "+1 502-897-1441", "website": "", "rating": 4.3, "reviews": 26, "place_id": "ChIJUQlNNap1aYgRIbMZPyOIOzg", "latitude": 38.2803115, "longitude": -85.6389239, "care_type": "Plastic Surgeon"}, {"name": "Face Amore", "address": "2240 Taylorsville Rd Suite 201, Louisville, KY 40205", "city": "Louisville", "phone": "+1 502-749-8011", "website": "https://rymap.org/business/face-amore-bpn38s", "rating": 4.6, "reviews": 84, "place_id": "ChIJB-NvV28LaYgRYRE8j-Yg5YA", "latitude": 38.2233249, "longitude": -85.68284109999999, "care_type": "Plastic Surgeon"}, {"name": "Dr Mark Chariker, Md", "address": "222 S 1st St, Louisville, KY 40202", "city": "Louisville", "phone": "+1 502-568-4800", "website": "http://www.drchariker.com/", "rating": 4.5, "reviews": 47, "place_id": "ChIJyxiKPrpyaYgR1iDpguH-Arg", "latitude": 38.2538765, "longitude": -85.75222989999999, "care_type": "Plastic Surgeon"}, {"name": "Dr. John J. Whitt, MD", "address": "4001 Kresge Way STE 220, St Matthews, KY 40207", "city": "St Matthews", "phone": "+1 502-895-5466", "website": "", "rating": null, "reviews": 0, "place_id": "ChIJJb6qiyt1aYgRSBI4MkgApQ8", "latitude": 38.2391952, "longitude": -85.64055839999999, "care_type": "Plastic Surgeon"}, {"name": "Dr. Geoffrey Durham-Smith, MD", "address": "4001 Kresge Way STE 320, Louisville, KY 40207", "city": "Louisville", "phone": "+1 502-895-5850", "website": "https://www.kyplasticsurgery.com/our-doctors/geoffrey-durham-smith", "rating": 4.2, "reviews": 15, "place_id": "ChIJJb6qiyt1aYgRdn4AgsD5gyY", "latitude": 38.2391665, "longitude": -85.64062129999999, "care_type": "Plastic Surgeon"}, {"name": "Louisville Plastic Surgery", "address": "100 Mallard Creek Rd, Louisville, KY 40207", "city": "Louisville", "phone": "+1 502-899-9998", "website": "", "rating": null, "reviews": 0, "place_id": "ChIJK8DY0TN1aYgRkLndT-chsT8", "latitude": 38.2396633, "longitude": -85.6302448, "care_type": "Plastic Surgeon"}, {"name": "Louisville Aesthetics", "address": "9345 Leesgate Rd, Hurstbourne, KY 40222", "city": "Hurstbourne", "phone": "+1 502-290-8361", "website": "https://www.thelouisvilleaesthetics.com/", "rating": 5.0, "reviews": 121, "place_id": "ChIJ75sb-4CfaYgRaUug0GEja5s", "latitude": 38.244704, "longitude": -85.5802765, "care_type": "Plastic Surgeon"}, {"name": "Ultimate Vein Care", "address": "4003 Kresge Way #228, St Matthews, KY 40207", "city": "St Matthews", "phone": "+1 502-649-9400", "website": "http://ultimateveincare.com/", "rating": 4.7, "reviews": 96, "place_id": "ChIJJb6qiyt1aYgRUbKNXWDD0mI", "latitude": 38.2395276, "longitude": -85.64003459999999, "care_type": "Plastic Surgeon"}, {"name": "Summers Aesthetics", "address": "701 Executive Park 2nd Floor, St Matthews, KY 40207", "city": "St Matthews", "phone": "+1 502-305-5056", "website": "https://summersaesthetics.com/", "rating": 5.0, "reviews": 278, "place_id": "ChIJ9Wvfa4x1aYgREvPXkqQzpsc", "latitude": 38.2413878, "longitude": -85.6233132, "care_type": "Plastic Surgeon"}, {"name": "Kavka Stephen J MD", "address": "4001 Kresge Way STE 315, St Matthews, KY 40207", "city": "St Matthews", "phone": "+1 502-216-3700", "website": "", "rating": null, "reviews": 0, "place_id": "ChIJJb6qiyt1aYgRefEaaMoQIBc", "latitude": 38.2391665, "longitude": -85.64062129999999, "care_type": "Plastic Surgeon"}, {"name": "UofL Physicians \u2013 Plastic & Reconstructive Surgery", "address": "4402 Churchman Ave Suite 300, Louisville, KY 40215", "city": "Louisville", "phone": "+1 502-583-8303", "website": "https://uoflhealth.org/locations/uofl-physicians-plastic-reconstructive-surgery-2/%3Futm_source%3DGMBSocialClimb%26utm_medium%3DUofLPhysicians%25E2%2580%2593Plastic%2526ReconstructiveSurgery", "rating": null, "reviews": 0, "place_id": "ChIJJ7xu9uQTaYgR7MgVeMcq-l0", "latitude": 38.1781272, "longitude": -85.7930772, "care_type": "Plastic Surgeon"}, {"name": "Ryan Shapiro, MD", "address": "2401 Terra Crossing Blvd Suite 401, Louisville, KY 40245", "city": "Louisville", "phone": "+1 502-583-8303", "website": "https://uoflhealth.org/provider/ryan-shapiro/", "rating": 4.6, "reviews": 20, "place_id": "ChIJQZ1VoWJzaYgRzGhi-fVRJhw", "latitude": 38.2739161, "longitude": -85.49555029999999, "care_type": "Plastic Surgeon"}, {"name": "Dr. Brandon J. Wilhelmi, MD", "address": "225 Abraham Flexner Way, Louisville, KY 40202", "city": "Louisville", "phone": "+1 502-583-8303", "website": "http://www.uoflphysicians.com/", "rating": 5.0, "reviews": 4, "place_id": "ChIJ4aR90rdyaYgRltJEygBTVJA", "latitude": 38.2495435, "longitude": -85.7507547, "care_type": "Plastic Surgeon"}, {"name": "Dexter Weeks, MD", "address": "1900 Bluegrass Ave Suite 204, Louisville, KY 40215", "city": "Louisville", "phone": "+1 502-583-8303", "website": "https://uoflhealth.org/locations/uofl-physicians-plastic-reconstructive-surgery-2/", "rating": null, "reviews": 0, "place_id": "ChIJtVmEYQMTaYgRfE7FRxCCEyU", "latitude": 38.1786451, "longitude": -85.7944954, "care_type": "Plastic Surgeon"}, {"name": "Louisville Plastics", "address": "9702 Stonestreet Rd # 304, Louisville, KY 40272", "city": "Louisville", "phone": "+1 502-933-1100", "website": "", "rating": null, "reviews": 0, "place_id": "ChIJN3jZG9cQaYgRmuRwE4ejTgE", "latitude": 38.112955, "longitude": -85.8405449, "care_type": "Plastic Surgeon"}, {"name": "LipoXo", "address": "99 Jeannie Dr, Shelbyville, KY 40065", "city": "Shelbyville", "phone": "+1 502-888-3673", "website": "https://lipoxo.ueniweb.com/%3Futm_campaign%3Dgmb", "rating": 4.0, "reviews": 4, "place_id": "ChIJL2H6lO3BaYgR12yYWMFq2dU", "latitude": 38.2113522, "longitude": -85.26380549999999, "care_type": "Plastic Surgeon"}, {"name": "Shelbyville Dermatology", "address": "1530 Midland Trail Suite 2, Shelbyville, KY 40065", "city": "Shelbyville", "phone": "+1 502-513-5185", "website": "https://wfsmd.com/", "rating": 4.9, "reviews": 27, "place_id": "ChIJB6S6JkTBaYgR03lB6m67XqU", "latitude": 38.2121472, "longitude": -85.2377624, "care_type": "Plastic Surgeon"}, {"name": "Associates In Dermatology - Shelbyville", "address": "130 Stonecrest Rd # 104, Shelbyville, KY 40065", "city": "Shelbyville", "phone": "+1 502-583-1749", "website": "http://associatesindermatology.com/", "rating": 4.7, "reviews": 81, "place_id": "ChIJ8ZOQmSLAaYgRa_2oP7kNifc", "latitude": 38.2111091, "longitude": -85.2515792, "care_type": "Plastic Surgeon"}, {"name": "Dermatology Associates of Kentucky: Frankfort", "address": "108 Diagnostic Dr, Frankfort, KY 40601", "city": "Frankfort", "phone": "+1 859-263-4444", "website": "http://www.daklex.com/", "rating": 4.0, "reviews": 39, "place_id": "ChIJ_wFRE6F1QogRqwD5PRG-QEI", "latitude": 38.1592069, "longitude": -84.9120525, "care_type": "Plastic Surgeon"}, {"name": "Amazing Face Med Spa & Cryo Frost", "address": "5 Physicians Park #5, Frankfort, KY 40601", "city": "Frankfort", "phone": "+1 502-352-9426", "website": "http://amazingfaceky.com/", "rating": 5.0, "reviews": 40, "place_id": "ChIJoxCGvAl1QogRkL_lo-rLby4", "latitude": 38.1604717, "longitude": -84.9099719, "care_type": "Plastic Surgeon"}, {"name": "Black Label Artistry", "address": "859 E Main St #7C, Frankfort, KY 40601", "city": "Frankfort", "phone": "+1 502-330-2966", "website": "http://styleseat.com/blacklabelartistry", "rating": 4.9, "reviews": 124, "place_id": "ChIJMYPxpqF1QogRGyiuhx0rLFg", "latitude": 38.2046239, "longitude": -84.8399958, "care_type": "Plastic Surgeon"}, {"name": "XO Aesthetic Refinery | A Boutique Med Spa", "address": "3744 Frankfort Avenue (St. Matthews, Louisville, KY 40207", "city": "Louisville", "phone": "+1 323-929-5874", "website": "https://www.xoaestheticrefinery.com/", "rating": 5.0, "reviews": 392, "place_id": "ChIJ4flOxrOfaYgRSTe_c3kUwWo", "latitude": 38.2527279, "longitude": -85.6588196, "care_type": "Plastic Surgeon"}, {"name": "Iryna Chesnokova MD", "address": "511 Robinbrooke Blvd Suite 100, Elizabethtown, KY 42701", "city": "Elizabethtown", "phone": "+1 270-706-1945", "website": "https://www.baptisthealth.com/providers/iryna-v-chesnokova-md-plastic-surgery%3Futm_source%3Dgoogle%26utm_medium%3Dorganic%26utm_content%3Dgbp-website%26utm_campaign%3D034-pro-gbp-listing", "rating": 5.0, "reviews": 3, "place_id": "ChIJx2NTw6LpaIgR5yHDqMjSmDk", "latitude": 37.7240784, "longitude": -85.90895359999999, "care_type": "Plastic Surgeon"}, {"name": "Ashley Kerekes, MD", "address": "511 Robinbrooke Blvd Suite 100, Elizabethtown, KY 42701", "city": "Elizabethtown", "phone": "+1 270-706-1945", "website": "", "rating": 5.0, "reviews": 1, "place_id": "ChIJNxGJhCnpaIgRHKxKzDrb9pE", "latitude": 37.7240784, "longitude": -85.90895359999999, "care_type": "Plastic Surgeon"}, {"name": "Herbert Maguire, MD", "address": "511 Robinbrooke Blvd Suite 100, Elizabethtown, KY 42701", "city": "Elizabethtown", "phone": "", "website": "", "rating": null, "reviews": 0, "place_id": "ChIJEVbi5IzpaIgRt5JXyA8W65w", "latitude": 37.7240784, "longitude": -85.90895359999999, "care_type": "Plastic Surgeon"}, {"name": "MK Aesthetics", "address": "243 E Brannon Rd Suites 110-111, Nicholasville, KY 40356", "city": "Nicholasville", "phone": "+1 859-460-8118", "website": "http://mkaesthetics.glossgenius.com/", "rating": 5.0, "reviews": 39, "place_id": "ChIJmUGidQBdQogR8e2A-uUvdxc", "latitude": 37.9556418, "longitude": -84.53468459999999, "care_type": "Plastic Surgeon"}, {"name": "Dr. Henry G. Wells Jr, MD", "address": "1707 Nicholasville Rd, Lexington, KY 40503", "city": "Lexington", "phone": "+1 859-255-6649", "website": "http://www.wellsplasticsurgery.com/", "rating": 3.4, "reviews": 5, "place_id": "ChIJMfSF4epEQogR2QvBF9Eaq9A", "latitude": 38.01992, "longitude": -84.51404699999999, "care_type": "Plastic Surgeon"}, {"name": "Bluegrass Plastic Surgery - Dr. Therese-Anne LeVan, M.D.", "address": "3213 Summit Square Pl STE 175, Lexington, KY 40509", "city": "Lexington", "phone": "+1 859-276-5577", "website": "https://bluegrassplasticsurgery.com/", "rating": 4.5, "reviews": 8, "place_id": "ChIJuSCU1FJbQogRJ9Okibi1Ra4", "latitude": 38.0015927, "longitude": -84.44143509999999, "care_type": "Plastic Surgeon"}, {"name": "Body Spectrum Plastic Surgery Center", "address": "2414 Greatstone Point, Lexington, KY 40504", "city": "Lexington", "phone": "+1 859-224-1235", "website": "https://www.bodyspectrum.net/", "rating": 4.6, "reviews": 5, "place_id": "ChIJiwrhisxcQogRA-jkkm21afo", "latitude": 38.0191897, "longitude": -84.5496514, "care_type": "Plastic Surgeon"}, {"name": "Bluegrass Plastic Surgery", "address": "3213 Summit Square Pl, Lexington, KY 40509", "city": "Lexington", "phone": "+1 859-276-5577", "website": "http://bluegrassplasticsurgery.com/contact-us/", "rating": 5.0, "reviews": 1, "place_id": "ChIJGej82qZaQogR1Q5VH3nLk0c", "latitude": 38.0015667, "longitude": -84.4414305, "care_type": "Plastic Surgeon"}, {"name": "The Lift Bar Medspa", "address": "122 Langley Dr, Nicholasville, KY 40356", "city": "Nicholasville", "phone": "+1 859-724-6042", "website": "https://liftbotoxbar.com/", "rating": 4.9, "reviews": 250, "place_id": "ChIJuXYhoIVdQogR09jiPDEH3Xg", "latitude": 37.9535656, "longitude": -84.5295332, "care_type": "Plastic Surgeon"}, {"name": "Michael Lynch", "address": "Harrodsburg Rd, Lexington, KY 40503", "city": "Lexington", "phone": "+1 859-276-3883", "website": "https://plasticsurgeonsoflexington.com/about/michael-p-lynch-m-d/", "rating": 5.0, "reviews": 1, "place_id": "ChIJq6pqpVlDQogRvhBj5w8pYEc", "latitude": 38.0181191, "longitude": -84.5466708, "care_type": "Plastic Surgeon"}, {"name": "CoolBlue Lex", "address": "2860 Richmond Rd Suite 170, Lexington, KY 40509", "city": "Lexington", "phone": "+1 859-215-7995", "website": "https://lexington-bodysculpting.com/%3Futm_source%3Dgoogle%26utm_medium%3Dorganic%26utm_campaign%3Dgbp", "rating": 5.0, "reviews": 36, "place_id": "ChIJVVUFX6FaQogRiSKmxzB-nYw", "latitude": 38.0065958, "longitude": -84.4540852, "care_type": "Plastic Surgeon"}, {"name": "Dr. Dorothy H. Clark, MD", "address": "3213 Summit Square Pl STE 175, Lexington, KY 40509", "city": "Lexington", "phone": "+1 859-276-5577", "website": "http://bluegrassplasticsurgery.com/", "rating": 5.0, "reviews": 1, "place_id": "ChIJuSCU1FJbQogRW-RbXX9S75s", "latitude": 38.0015927, "longitude": -84.44143509999999, "care_type": "Plastic Surgeon"}, {"name": "Margaret Napolitano, MD, FACS", "address": "211 Fountain Ct Suite 320, Lexington, KY 40509", "city": "Lexington", "phone": "+1 859-264-9606", "website": "https://uoflhealth.org/provider/margaret-napolitano-hand-surgeon/", "rating": 4.6, "reviews": 20, "place_id": "ChIJw8U8OQhQQogRENtcM4rJ5NA", "latitude": 38.0038698, "longitude": -84.4386823, "care_type": "Plastic Surgeon"}, {"name": "SkinMD: Samuel Pruden, MD, FACS, FAAD", "address": "989 Governors Ln UNIT 220, Lexington, KY 40513", "city": "Lexington", "phone": "+1 859-296-7546", "website": "https://www.skinmdlex.com/", "rating": 4.9, "reviews": 241, "place_id": "ChIJO5oVCNNcQogRyjPhdpFOT2E", "latitude": 38.0195628, "longitude": -84.55711579999999, "care_type": "Plastic Surgeon"}, {"name": "Theodore Gerstle", "address": "166 Pasadena Dr # 100, Lexington, KY 40503", "city": "Lexington", "phone": "+1 859-279-2111", "website": "https://lexingtonps.com/about/", "rating": 4.3, "reviews": 6, "place_id": "ChIJ6_8_MhRbQogRHziNYKU-oQc", "latitude": 38.0038506, "longitude": -84.5220542, "care_type": "Plastic Surgeon"}, {"name": "James Y. Liau, MD, FACS", "address": "2195 Harrodsburg Rd, Lexington, KY 40504", "city": "Lexington", "phone": "+1 859-323-8082", "website": "https://ukhealthcare.uky.edu/doctors/james-liau%3Futm_source%3Dlocal-listing%26utm_medium%3Dorganic%26utm_campaign%3Dwebsite-link", "rating": 5.0, "reviews": 1, "place_id": "ChIJi40bm89FQogRIA2QHoB6hHQ", "latitude": 38.0256956, "longitude": -84.5406501, "care_type": "Plastic Surgeon"}, {"name": "William Kelsey Snapp MD", "address": "1760 Nicholasville Rd #101, Lexington, KY 40503", "city": "Lexington", "phone": "+1 859-899-7950", "website": "https://www.baptisthealth.com/providers/william-kelsey-snapp-md-plastic-surgery-hand-surgery%3Futm_source%3Dgoogle%26utm_medium%3Dorganic%26utm_content%3Dgbp-website%26utm_campaign%3D036-pro-gbp-listing", "rating": null, "reviews": 0, "place_id": "ChIJx7DCXU9bQogRVwXS8Ur7KLg", "latitude": 38.0182113, "longitude": -84.513684, "care_type": "Plastic Surgeon"}, {"name": "Peter D. Ray, M.D.", "address": "617 23rd St #105, Ashland, KY 41101", "city": "Ashland", "phone": "+1 606-408-7500", "website": "https://kingsdaughtershealth.com/", "rating": 4.3, "reviews": 6, "place_id": "ChIJG7G91pB1RogRK-Bj6LE_0KM", "latitude": 38.4708945, "longitude": -82.6334383, "care_type": "Plastic Surgeon"}, {"name": "Ageless Aesthetics MediSpa, LLC", "address": "2815 Lexington Ave, Ashland, KY 41101", "city": "Ashland", "phone": "+1 606-326-0166", "website": "https://www.aamedispa.com/%3Futm_source%3DGBP%26utm_medium%3Dorganic%26utm_campaign%3DGoogleBusinessProfile", "rating": 4.9, "reviews": 378, "place_id": "ChIJMXSMJzF0RogRyTcxoq9cePc", "latitude": 38.4669518, "longitude": -82.6288385, "care_type": "Plastic Surgeon"}, {"name": "Rogers III William B MD", "address": "613 23rd St, Ashland, KY 41101", "city": "Ashland", "phone": "+1 606-408-7500", "website": "", "rating": 3.4, "reviews": 7, "place_id": "ChIJMXSMJzF0RogRhHCjjkAgzSY", "latitude": 38.4711895, "longitude": -82.6330425, "care_type": "Plastic Surgeon"}, {"name": "Ariel Toomey, D.O.", "address": "617 23rd St #105, Ashland, KY 41101", "city": "Ashland", "phone": "+1 606-408-7500", "website": "https://kingsdaughtershealth.com/", "rating": 5.0, "reviews": 1, "place_id": "ChIJg5i8NT91RogR0i5jzwRWeJg", "latitude": 38.4708945, "longitude": -82.6334383, "care_type": "Plastic Surgeon"}, {"name": "UK King's Daughters Medical Specialties", "address": "2201 Lexington Ave, Ashland, KY 41101", "city": "Ashland", "phone": "+1 606-408-4000", "website": "", "rating": 3.8, "reviews": 8, "place_id": "ChIJLa3EjDp0RogRdaL73-hlMos", "latitude": 38.470349, "longitude": -82.6345013, "care_type": "Plastic Surgeon"}, {"name": "Ashland Aesthetics", "address": "617 23rd St #415, Ashland, KY 41101", "city": "Ashland", "phone": "+1 606-329-1325", "website": "https://www.aamedispa.com/", "rating": 4.4, "reviews": 5, "place_id": "ChIJ47hxTzd0RogRI2OQsaicPnc", "latitude": 38.4708767, "longitude": -82.6340773, "care_type": "Plastic Surgeon"}, {"name": "Kassan Aesthesic And Anti Aging", "address": "617 23rd St, Ashland, KY 41101", "city": "Ashland", "phone": "+1 606-326-9888", "website": "", "rating": null, "reviews": 0, "place_id": "ChIJMXSMJzF0RogRKPuAn3Wl0X4", "latitude": 38.4712453, "longitude": -82.63298619999999, "care_type": "Plastic Surgeon"}, {"name": "Bardstown Dermatology", "address": "114 Manor Dr, Bardstown, KY 40004", "city": "Bardstown", "phone": "+1 502-349-9999", "website": "https://www.vitalskinderm.com/locations/bardstown/%3Futm_source%3Dgmb%26utm_medium%3Dorganic%26y_source%3D1_MjY0ODQ2NTAtNzE1LWxvY2F0aW9uLndlYnNpdGU%253D", "rating": 4.9, "reviews": 266, "place_id": "ChIJEQZxGRhSaIgRufAJuX-iWc8", "latitude": 37.7959517, "longitude": -85.42945309999999, "care_type": "Plastic Surgeon"}, {"name": "Skin Deep Rejuvenation Center", "address": "105 Old Bloomfield Pike, Bardstown, KY 40004", "city": "Bardstown", "phone": "+1 502-275-9391", "website": "https://skindeepinbardstown.com/", "rating": 5.0, "reviews": 157, "place_id": "ChIJd4KVAAFTaIgRXwu65O_MKxk", "latitude": 37.8086579, "longitude": -85.46106619999999, "care_type": "Plastic Surgeon"}, {"name": "Infinity Laser Med Spa", "address": "128 Keystone Ave, Bardstown, KY 40004", "city": "Bardstown", "phone": "+1 502-350-4556", "website": "https://www.infinitylasermedspa.com/", "rating": 5.0, "reviews": 154, "place_id": "ChIJ12OctCdSaIgRFEtH5YlC8p8", "latitude": 37.8129222, "longitude": -85.42906119999999, "care_type": "Plastic Surgeon"}, {"name": "Beauty WoRX Bardstown", "address": "625 N 3rd St, Bardstown, KY 40004", "city": "Bardstown", "phone": "+1 502-373-0110", "website": "https://www.beautyworxbardstown.com/", "rating": 5.0, "reviews": 43, "place_id": "ChIJuZEQFe5TaIgRJjTQakdbckg", "latitude": 37.8185024, "longitude": -85.46340239999999, "care_type": "Plastic Surgeon"}, {"name": "Dr.Alberto Rene Maldonado, M.D.", "address": "3 Audubon Plaza Dr #640, Louisville, KY 40217", "city": "Louisville", "phone": "+1 502-636-9949", "website": "", "rating": 5.0, "reviews": 2, "place_id": "ChIJUxyTCeEMaYgRn-90pFbSCC0", "latitude": 38.2152305, "longitude": -85.72281319999999, "care_type": "Plastic Surgeon"}, {"name": "Richmond Roland MD", "address": "2355 Poplar Level Rd APT 40, Louisville, KY 40217", "city": "Louisville", "phone": "+1 502-636-8121", "website": "http://nortonhealthcare.com/", "rating": 5.0, "reviews": 1, "place_id": "ChIJdaL6XOAMaYgR_PNGLGnbDoY", "latitude": 38.2162608, "longitude": -85.7236331, "care_type": "Plastic Surgeon"}, {"name": "BODi Louisville (formerly BodyRX Louisville)", "address": "8594 Dixie Hwy, Louisville, KY 40258", "city": "Louisville", "phone": "+1 502-882-8680", "website": "https://www.bodilouisville.com/", "rating": 4.8, "reviews": 259, "place_id": "ChIJxSGtQc0WaYgR6XAAYJXgHJY", "latitude": 38.1286007, "longitude": -85.8499303, "care_type": "Plastic Surgeon"}, {"name": "Kentuckiana Oral Maxillofacial & Dental Implant Surgery", "address": "138 East Brooke Court Ste 100, Mt Washington, KY 40047", "city": "Mt Washington", "phone": "+1 502-957-1250", "website": "https://www.kyoms.com/locations/oral-surgery-mt-washington-ky/%3Futm_source%3Dgmb-mount-washington%26utm_medium%3Dlocationsoral-surgery-mt-washington-ky-websitelink%26utm_campaign%3Doffice-mount-washington", "rating": 4.8, "reviews": 358, "place_id": "ChIJsa4YWqOoaYgRo6EPKDHDDx0", "latitude": 38.0535572, "longitude": -85.5355446, "care_type": "Plastic Surgeon"}, {"name": "Cameron Sherwood Schaeffer", "address": "Medical Arts Building, 1169 Eastern Pkwy, Louisville, KY 40217", "city": "Louisville", "phone": "+1 855-591-0092", "website": "", "rating": 5.0, "reviews": 1, "place_id": "ChIJP4LIf9gMaYgRqsSVczy9pjk", "latitude": 38.2258653, "longitude": -85.72551659999999, "care_type": "Plastic Surgeon"}, {"name": "Dermatology Associates, PSC", "address": "2811 Klempner Wy, Louisville, KY 40205", "city": "Louisville", "phone": "+1 502-896-6355", "website": "http://www.dermatology-associates.cc/", "rating": 4.9, "reviews": 2493, "place_id": "ChIJPUtomy8LaYgRD5rdihHbLu4", "latitude": 38.2263931, "longitude": -85.6515414, "care_type": "Plastic Surgeon"}, {"name": "Mt. Washington Dermatology", "address": "211 High Point Ct Suite 600, Mt Washington, KY 40047", "city": "Mt Washington", "phone": "+1 502-904-9119", "website": "https://wfsmd.com/", "rating": 3.3, "reviews": 13, "place_id": "ChIJFYtOs6CpaYgRWqBCVjzrbJs", "latitude": 38.0547312, "longitude": -85.5377731, "care_type": "Plastic Surgeon"}, {"name": "Commonwealth Plastic Surgery: Jared Nimtz, MD", "address": "128 Edwards Ave Suite C, Georgetown, KY 40324", "city": "Georgetown", "phone": "+1 859-277-8739", "website": "https://www.commonwealthplastics.com/sol-retreat/%3Futm_source%3Dgoogle%26utm_medium%3Dlocal%26utm_campaign%3Dnicholasville-practice-website", "rating": 5.0, "reviews": 4, "place_id": "ChIJH9uj9pw_QogRzzw0qU4e7wk", "latitude": 38.2167769, "longitude": -84.53903389999999, "care_type": "Plastic Surgeon"}, {"name": "Bluegrass Medical Aesthetics", "address": "106 Magnolia Dr Suite 200, Georgetown, KY 40324", "city": "Georgetown", "phone": "+1 502-868-0806", "website": "https://bmamedspa.myaestheticrecord.com/online-booking/book-appointment", "rating": 4.9, "reviews": 314, "place_id": "ChIJvbMJ1SU_QogRj4OF3kFORWs", "latitude": 38.2264649, "longitude": -84.5352114, "care_type": "Plastic Surgeon"}, {"name": "Lolia Aesthetics | Georgetown, KY", "address": "98 Finley Dr Suite 300, Georgetown, KY 40324", "city": "Georgetown", "phone": "+1 502-591-7330", "website": "https://loliaaesthetics.com/", "rating": 5.0, "reviews": 480, "place_id": "ChIJYSPkHRU_QogR5ux8W4D4SnI", "latitude": 38.2119941, "longitude": -84.53864159999999, "care_type": "Plastic Surgeon"}, {"name": "Advanced Skin & Vein Care Centers", "address": "208 Bevins Ln B, Georgetown, KY 40324", "city": "Georgetown", "phone": "+1 859-554-0519", "website": "https://www.kentuckymedspa.com/", "rating": 4.3, "reviews": 12, "place_id": "ChIJ-acakXxAQogRxW6N4_1CCSE", "latitude": 38.1821498, "longitude": -84.5686198, "care_type": "Plastic Surgeon"}, {"name": "Aaron Mull", "address": "340 Starlite Dr, Henderson, KY 424206102", "city": "Henderson", "phone": "+1 812-424-9291", "website": "https://www.oaevansville.com/provider/aaron-mull-md", "rating": 4.9, "reviews": 34, "place_id": "ChIJz0GZr_QpcIgRdkDrDsAkzLs", "latitude": 37.8636754, "longitude": -87.55880549999999, "care_type": "Plastic Surgeon"}, {"name": "Kathy Jones Aesthetics", "address": "120 W 5th St, Covington, KY 41011", "city": "Covington", "phone": "+1 513-279-2220", "website": "https://kathyjonesaesthetics.com/", "rating": 4.5, "reviews": 33, "place_id": "ChIJrZSHenCtQYgRV4_JoKdu6Ao", "latitude": 39.0855618, "longitude": -84.5135756, "care_type": "Plastic Surgeon"}, {"name": "Applegate Dentistry & Medspa", "address": "322 Greenup St, Covington, KY 41011", "city": "Covington", "phone": "+1 859-651-7887", "website": "https://www.drbarryapplegate.com/%3Futm_campaign%3Dgmb%26utm_medium%3Dlocal%26utm_source%3Dgoogle", "rating": 4.9, "reviews": 800, "place_id": "ChIJsZAuXEexQYgRrhDRt3Ocxx0", "latitude": 39.0881925, "longitude": -84.5078408, "care_type": "Plastic Surgeon"}, {"name": "Marvel Cosmetic Surgery", "address": "1011 S Main St, Hopkinsville, KY 42240", "city": "Hopkinsville", "phone": "+1 270-881-1525", "website": "https://marvelcosmeticsurgery.com/", "rating": 5.0, "reviews": 2, "place_id": "ChIJt19BJU81ZYgRVmBmI691DHs", "latitude": 36.864851, "longitude": -87.4898185, "care_type": "Plastic Surgeon"}, {"name": "SeiBella Medical Spa", "address": "100 Daniel Dr, Danville, KY 40422", "city": "Danville", "phone": "+1 859-236-1670", "website": "https://seibellamedicalspa.com/", "rating": 4.9, "reviews": 57, "place_id": "ChIJx6jzol6RQogR0Zf7jy9EYBY", "latitude": 37.6207173, "longitude": -84.7625242, "care_type": "Plastic Surgeon"}, {"name": "Dr Mareck", "address": "230 W Main St, Danville, KY 40422", "city": "Danville", "phone": "+1 859-236-1670", "website": "", "rating": 4.0, "reviews": 4, "place_id": "ChIJSQX2p1GRQogRxfNQD-t8pjY", "latitude": 37.6455552, "longitude": -84.7719372, "care_type": "Plastic Surgeon"}, {"name": "Face It Skin & Wellness Company", "address": "2010 N Bend Rd Suite 250, Hebron, KY 41048", "city": "Hebron", "phone": "+1 859-667-5477", "website": "https://www.faceitskinaesthetics.com/%3Futm_source%3Dgoogle%26utm_medium%3Dwix_google_business_profile%26utm_campaign%3D2233233517665087983", "rating": 5.0, "reviews": 0, "place_id": "ChIJQ2VGHA6FpI8RovlCRJ2tTEc", "latitude": 39.0882796, "longitude": -84.7109024, "care_type": "Plastic Surgeon"}, {"name": "Dr. Dale M. Roberts - Cosmetic Surgery", "address": "201 Abraham Flexner Way UNIT 1105, Louisville, KY 40202", "city": "Louisville", "phone": "+1 502-581-9223", "website": "", "rating": 5.0, "reviews": 1, "place_id": "ChIJC_xnT7dyaYgRhDiHEAn42rw", "latitude": 38.24950219999999, "longitude": -85.75068089999999, "care_type": "Plastic Surgeon"}, {"name": "USA Plastic Surgery > Home", "address": "401 E Chestnut St, Louisville, KY 40202", "city": "Louisville", "phone": "+1 502-588-8550", "website": "", "rating": null, "reviews": 0, "place_id": "ChIJT6Tf0bdyaYgRzt9OT_Y8N6g", "latitude": 38.2480521, "longitude": -85.7467891, "care_type": "Plastic Surgeon"}, {"name": "Bradon J. Wilhelmi, MD", "address": "401 E Chestnut St Suite 790, Louisville, KY 40202", "city": "Louisville", "phone": "+1 502-583-8303", "website": "https://uoflhealth.org/provider/bradon-wilhelmi-aesthetic-plastic-surgery/", "rating": 4.5, "reviews": 43, "place_id": "ChIJ4aR90rdyaYgRYxCIc5nqWUE", "latitude": 38.2480521, "longitude": -85.7467891, "care_type": "Plastic Surgeon"}, {"name": "Dexter Weeks, MD", "address": "401 E Chestnut St Suite 790, Louisville, KY 40202", "city": "Louisville", "phone": "+1 502-583-8303", "website": "https://uoflhealth.org/locations/ulp-plastic-surgery/", "rating": 4.9, "reviews": 18, "place_id": "ChIJGUsYERtzaYgRaw8QgLJRJEg", "latitude": 38.2480521, "longitude": -85.7467891, "care_type": "Plastic Surgeon"}, {"name": "Michelle D. Palazzo, MD", "address": "225 Abraham Flexner Way, Louisville, KY 40202", "city": "Louisville", "phone": "+1 502-561-4263", "website": "http://www.kleinertkutz.com/", "rating": 4.6, "reviews": 10, "place_id": "ChIJU4KmS7dyaYgR4Rc85GjFRtw", "latitude": 38.2495435, "longitude": -85.7507547, "care_type": "Plastic Surgeon"}, {"name": "Scott J. Rapp, M.D.", "address": "222 S 1st St #100, Louisville, KY 40202", "city": "Louisville", "phone": "+1 502-568-4800", "website": "http://www.kyplastics.com/", "rating": 5.0, "reviews": 7, "place_id": "ChIJE1dwxbtyaYgRFnovNSdLQMU", "latitude": 38.25385869999999, "longitude": -85.7522796, "care_type": "Plastic Surgeon"}, {"name": "Terry McCurry Jr., MD", "address": "401 E Chestnut St Suite 790, Louisville, KY 40202", "city": "Louisville", "phone": "+1 502-583-8303", "website": "https://uoflhealth.org/provider/terry-mccurry-plastic-reconstructive-surgery/", "rating": 4.0, "reviews": 4, "place_id": "ChIJZQWrhS1zaYgR_tedd8g9ygk", "latitude": 38.2480521, "longitude": -85.7467891, "care_type": "Plastic Surgeon"}, {"name": "DermCARE Practitioners, LLC", "address": "1169 Eastern Pkwy #431, Louisville, KY 40217", "city": "Louisville", "phone": "+1 502-361-3909", "website": "http://www.dermcarepractitioners.com/", "rating": 4.9, "reviews": 417, "place_id": "ChIJ34ilQEcSaYgRS6xcpuBPI28", "latitude": 38.2258653, "longitude": -85.72551659999999, "care_type": "Plastic Surgeon"}, {"name": "Dr. Luis R. Scheker, MD", "address": "225 Abraham Flexner Way, Louisville, KY 40202", "city": "Louisville", "phone": "+1 502-561-4263", "website": "", "rating": 4.2, "reviews": 5, "place_id": "ChIJU4KmS7dyaYgRQ0LGa4HgFNs", "latitude": 38.249408, "longitude": -85.7507342, "care_type": "Plastic Surgeon"}, {"name": "Plastic & Aesthetic Surgery", "address": "222 S 1st St, Louisville, KY 40202", "city": "Louisville", "phone": "+1 502-587-4017", "website": "", "rating": null, "reviews": 0, "place_id": "ChIJyfqLA7dyaYgRTBwTknwOIcg", "latitude": 38.2538793, "longitude": -85.75231459999999, "care_type": "Plastic Surgeon"}, {"name": "Claudiu Muresan", "address": "225 Abraham Flexner Way, Louisville, KY 40202", "city": "Louisville", "phone": "+1 502-561-4263", "website": "", "rating": 5.0, "reviews": 1, "place_id": "ChIJq6pqWrdyaYgRxvoMU62s_RI", "latitude": 38.24999, "longitude": -85.7505619, "care_type": "Plastic Surgeon"}, {"name": "Andrea Hiller, M.D.", "address": "401 E Chestnut St Suite 790, Louisville, KY 40202", "city": "Louisville", "phone": "+1 502-583-8303", "website": "https://uoflhealth.org/provider/andrea-hiller-plastic-and-reconstructive-surgeon/%3Futm_source%3DGMBSocialClimb%26utm_medium%3DAndreaHiller%252CM.D.", "rating": null, "reviews": 0, "place_id": "ChIJjxP2EhNzaYgRa-1OigJgz-o", "latitude": 38.2480521, "longitude": -85.7467891, "care_type": "Plastic Surgeon"}, {"name": "Louisville Dermatology - Downtown", "address": "310 E Broadway # 200, Louisville, KY 40202", "city": "Louisville", "phone": "+1 502-585-5249", "website": "https://www.vitalskinderm.com/locations/louisville-dermatology-downtown/%3Futm_source%3Dgmb%26utm_medium%3Dorganic%26utm_campaign%3Ddowntown", "rating": 4.6, "reviews": 107, "place_id": "ChIJhzIxKrRyaYgRJkWVRHF_fgQ", "latitude": 38.2449297, "longitude": -85.7491225, "care_type": "Plastic Surgeon"}, {"name": "Jeffrey Fornadley, M.D.", "address": "401 E Chestnut St Suite 790, Louisville, KY 40202", "city": "Louisville", "phone": "+1 502-583-8303", "website": "https://uoflhealth.org/provider/jeffrey-fornadley-plastic-and-reconstructive-surgeon/%3Futm_source%3DGMBSocialClimb%26utm_medium%3DJeffreyFornadley%252CM.D.", "rating": null, "reviews": 0, "place_id": "ChIJvT2m3MZzaYgRrz6P3ove5G8", "latitude": 38.2480521, "longitude": -85.7467891, "care_type": "Plastic Surgeon"}, {"name": "Sono Bello Lexington", "address": "2720 Old Rosebud Rd UNIT 320, Lexington, KY 40509", "city": "Lexington", "phone": "+1 859-551-0192", "website": "https://www.sonobello.com/", "rating": 4.9, "reviews": 112, "place_id": "ChIJT6PsvV5dQogReKRydKa4eEI", "latitude": 38.0269723, "longitude": -84.4191683, "care_type": "Plastic Surgeon"}, {"name": "Center for Plastic Surgery PSC", "address": "501 Darby Creek Rd UNIT 59, Lexington, KY 40509", "city": "Lexington", "phone": "+1 859-263-8083", "website": "http://www.center4plasticsurgery.com/", "rating": 3.7, "reviews": 3, "place_id": "ChIJBxWszQVQQogRwvuxz07fglA", "latitude": 38.00790629999999, "longitude": -84.433244, "care_type": "Plastic Surgeon"}, {"name": "CaloSpa\u00ae Rejuvenation Center", "address": "824 Euclid Ave #100, Lexington, KY 40502", "city": "Lexington", "phone": "+1 859-269-2256", "website": "https://www.calospa.com/%3Futm_source%3Dgoogle%26utm_medium%3Dlocal%26utm_campaign%3Dlexington-medspa-website", "rating": 5.0, "reviews": 128, "place_id": "ChIJk8KUVcVEQogRPSiBx6k-zPQ", "latitude": 38.029569, "longitude": -84.490994, "care_type": "Plastic Surgeon"}, {"name": "UK HealthCare Aesthetics Center", "address": "2195 Harrodsburg Road Second Floor, Lexington, KY 40504", "city": "Lexington", "phone": "+1 859-257-7171", "website": "https://ukhealthcare.uky.edu/aesthetics-center%3Futm_source%3Dlocal-listing%26utm_medium%3Dorganic%26utm_campaign%3Dwebsite-link", "rating": 4.2, "reviews": 5, "place_id": "ChIJ5XnaC6RaQogRsXxegw7eGCk", "latitude": 38.0255777, "longitude": -84.5408592, "care_type": "Plastic Surgeon"}, {"name": "Michael J. Bass Plastic Surgery, PLLC", "address": "216 Fountain Ct Suite 160, Lexington, KY 40509", "city": "Lexington", "phone": "+1 859-543-1024", "website": "", "rating": 5.0, "reviews": 5, "place_id": "ChIJl4aVLqdaQogR6_d3C2Jvb18", "latitude": 38.0034912, "longitude": -84.4375556, "care_type": "Plastic Surgeon"}, {"name": "Ageless Center - Lexington", "address": "149 Moore Dr, Lexington, KY 40503", "city": "Lexington", "phone": "+1 859-335-1330", "website": "http://www.agelesscenter.net/%3Futm_source%3Dgoogle%26utm_medium%3Dorganic%26utm_campaign%3Dgmb-listing-lexington", "rating": 4.9, "reviews": 0, "place_id": "ChIJ5XnaC6RaQogRCIi1UTFQPd4", "latitude": 38.000561, "longitude": -84.522292, "care_type": "Plastic Surgeon"}, {"name": "David B. Drake, MD", "address": "2195 Harrodsburg Rd 2nd Floor, Lexington, KY 40504", "city": "Lexington", "phone": "+1 859-257-7171", "website": "https://ukhealthcare.uky.edu/doctors/david-drake%3Futm_campaign%3Dwebsite-link%26utm_medium%3Dorganic%26utm_source%3Dlocal-listing", "rating": 3.3, "reviews": 23, "place_id": "ChIJi7gt7UaGs4kR9W9akutZWV8", "latitude": 38.0256956, "longitude": -84.5406501, "care_type": "Plastic Surgeon"}, {"name": "Modern Dermatology of Kentucky and Cosmetic Specialists - Lexington", "address": "161 Lexington Green Cir #100, Lexington, KY 40503", "city": "Lexington", "phone": "+1 859-276-1511", "website": "https://www.moderndermky.com/%3Futm_source%3Dgmb%26utm_medium%3Dorganic%26utm_campaign%3Dlisting", "rating": 4.0, "reviews": 0, "place_id": "ChIJDSaJblhbQogRMHyah7q3CQs", "latitude": 37.9947485, "longitude": -84.52580809999999, "care_type": "Plastic Surgeon"}, {"name": "Lesley Wong, MD, FACS", "address": "2195 Harrodsburg Rd 2nd Floor, Lexington, KY 40504", "city": "Lexington", "phone": "+1 859-257-7171", "website": "https://ukhealthcare.uky.edu/doctors/lesley-wong%3Futm_campaign%3Dwebsite-link%26utm_medium%3Dorganic%26utm_source%3Dlocal-listing", "rating": 4.3, "reviews": 12, "place_id": "ChIJVeaao7tEQogRMIerRVlNBHA", "latitude": 38.0256956, "longitude": -84.5406501, "care_type": "Plastic Surgeon"}, {"name": "Nikita Gupta, MD", "address": "Wing C, 740 S Limestone 3rd Floor, Lexington, KY 40536", "city": "Lexington", "phone": "+1 859-257-5405", "website": "https://ukhealthcare.uky.edu/doctors/nikita-gupta%3Futm_campaign%3Dwebsite-link%26utm_medium%3Dorganic%26utm_source%3Dlocal-listing", "rating": 5.0, "reviews": 0, "place_id": "ChIJS_DXMblFQogR-t8VLt6K3GI", "latitude": 38.0336375, "longitude": -84.5080859, "care_type": "Plastic Surgeon"}, {"name": "Henry C. Vasconez, MD, FACS", "address": "2195 Harrodsburg Rd 2nd Floor, Lexington, KY 40504", "city": "Lexington", "phone": "+1 859-257-7171", "website": "", "rating": 5.0, "reviews": 2, "place_id": "ChIJFT8BToVDQogRo0yMSfZBNPc", "latitude": 38.0256956, "longitude": -84.5406501, "care_type": "Plastic Surgeon"}, {"name": "UK Pediatric Plastic Surgery", "address": "Shriner's Hospitals for Children Medical Center - Lexington, 110 Conn Terrace, Lexington, KY 40508", "city": "Lexington", "phone": "+1 859-266-2101", "website": "https://ukhealthcare.uky.edu/plastic-surgery/plastic-surgery-pediatric%3Futm_source%3Dlocal-listing%26utm_medium%3Dorganic%26utm_campaign%3Dwebsite-link", "rating": null, "reviews": 0, "place_id": "ChIJVeaao7tEQogRWYL50RM7yV4", "latitude": 38.0304861, "longitude": -84.51033919999999, "care_type": "Plastic Surgeon"}, {"name": "Bluegrass Beauty Aesthetics", "address": "2039 Regency Rd Suite 6, Lexington, KY 40503", "city": "Lexington", "phone": "+1 859-347-5605", "website": "https://bluegrassbeautyaesthetics.com/", "rating": 5.0, "reviews": 0, "place_id": "ChIJ36i1sE9dQogRMyw_KhVy1jU", "latitude": 38.0123362, "longitude": -84.5234067, "care_type": "Plastic Surgeon"}]