[{"name": "Dr Jennifer Harrington", "address": "2805 Campus Dr Suite 485, Plymouth, MN 55441", "city": "Plymouth", "phone": "+1 651-290-7600", "website": "https://www.harringtonplasticsurgery.com/", "rating": 4.8, "reviews": 132, "place_id": "ChIJ6WcnzKlLs1IRZN-yjUkJkaI", "latitude": 45.01080349999999, "longitude": -93.4541244, "care_type": "Plastic Surgeon"}, {"name": "Harrington + Associates Plastic Surgery", "address": "East Building, 2805 Campus Dr Suite 485, Plymouth, MN 55441", "city": "Plymouth", "phone": "+1 651-290-7600", "website": "https://www.harringtonplasticsurgery.com/", "rating": 4.8, "reviews": 152, "place_id": "ChIJvWdHwBok9ocRxx1HRAzluII", "latitude": 45.011255, "longitude": -93.454427, "care_type": "Plastic Surgeon"}, {"name": "Plastic Surgery Center of Duluth", "address": "324 W Superior St #330, Duluth, MN 55802", "city": "Duluth", "phone": "+1 218-215-8990", "website": "http://duluthplasticsurgerycenter.com/", "rating": 5.0, "reviews": 37, "place_id": "ChIJncr7K39TrlIRHxvDawopc4A", "latitude": 46.7832587, "longitude": -92.10245189999999, "care_type": "Plastic Surgeon"}, {"name": "Northland Plastic Surgery", "address": "4316 Rice Lake Rd Ste 109, Duluth, MN 55811", "city": "Duluth", "phone": "+1 218-724-7363", "website": "https://northlandplasticsurgery.com/", "rating": 4.2, "reviews": 45, "place_id": "ChIJVWp9VNZSrlIRbOQY5X6Fm8k", "latitude": 46.825941, "longitude": -92.1323539, "care_type": "Plastic Surgeon"}, {"name": "Dean Weber, MD", "address": "400 E 3rd St, Duluth, MN 55805", "city": "Duluth", "phone": "+1 218-786-8364", "website": "https://www.essentiahealth.org/find-doctor-provider/profile/dean-weber/", "rating": 5.0, "reviews": 2, "place_id": "ChIJfSpiFcdSrlIRgeurTfWBPzM", "latitude": 46.7928454, "longitude": -92.09568999999999, "care_type": "Plastic Surgeon"}, {"name": "Dr. Edgar Saldana", "address": "324 W Superior St Suite 100, Duluth, MN 55802", "city": "Duluth", "phone": "+1 218-215-8990", "website": "https://duluthplasticsurgerycenter.com/", "rating": 4.0, "reviews": 4, "place_id": "ChIJpZrdlpZSrlIRnZmt5OV8T6U", "latitude": 46.7832587, "longitude": -92.10245189999999, "care_type": "Plastic Surgeon"}, {"name": "Crow Judson MD", "address": "1428 Central Ave NW, East Grand Forks, MN 56721", "city": "East Grand Forks", "phone": "+1 218-773-1390", "website": "", "rating": null, "reviews": 0, "place_id": "ChIJLe5OCJuGxlIRyNbKfTYe1ec", "latitude": 47.938737, "longitude": -97.02014, "care_type": "Plastic Surgeon"}, {"name": "Plastic Surgery Consultants", "address": "7760 France Ave S Suite 1000, Bloomington, MN 55435", "city": "Bloomington", "phone": "+1 952-746-6767", "website": "https://mnoncology.com/locations/plastic-surgery-consultants%3Futm_source%3Dlocal-listings%26utm_medium%3Dgoogle%26utm_campaign%3Drio-listings", "rating": 4.4, "reviews": 35, "place_id": "ChIJT2enxRUk9ocRIHiD_hfk8t0", "latitude": 44.8607361, "longitude": -93.3303202, "care_type": "Plastic Surgeon"}, {"name": "Aesthetic & Plastic Surgery PA: Hatfield Angela S MD", "address": "500 Osborne Rd NE #115, Fridley, MN 55432", "city": "Fridley", "phone": "+1 763-236-1900", "website": "https://account.allinahealth.org/providers/1566", "rating": 5.0, "reviews": 3, "place_id": "ChIJ49qEKVwls1IRwA7F7uZgzrA", "latitude": 45.1063644, "longitude": -93.2574202, "care_type": "Plastic Surgeon"}, {"name": "Minneapolis Plastic Surgery", "address": "4825 Olson Mem Hwy Suite #200, Minneapolis, MN 55422", "city": "Minneapolis", "phone": "+1 763-545-0443", "website": "https://mpsmn.com/", "rating": 4.4, "reviews": 138, "place_id": "ChIJ75850X0zs1IRZEPpclSSWfo", "latitude": 44.98371909999999, "longitude": -93.3405305, "care_type": "Plastic Surgeon"}, {"name": "Aesthetic and Plastic Surgery, P.A.", "address": "11800 Blackfoot St NW Suite 130, Coon Rapids, MN 55433", "city": "Coon Rapids", "phone": "+1 763-236-1900", "website": "https://account.allinahealth.org/providers/1566", "rating": 5.0, "reviews": 1, "place_id": "ChIJ49qEKVwls1IRZQhizVrAMMU", "latitude": 45.18519939999999, "longitude": -93.3686336, "care_type": "Plastic Surgeon"}, {"name": "Mesna Plastic Surgery & Aesthetic Center", "address": "7407 Wayzata Blvd, Minneapolis, MN 55426", "city": "Minneapolis", "phone": "+1 952-295-7018", "website": "https://www.plasticsurgeryminneapolis.com/", "rating": 4.3, "reviews": 41, "place_id": "ChIJBw28puc0s1IRCgZFJrk4t3I", "latitude": 44.9707357, "longitude": -93.37381049999999, "care_type": "Plastic Surgeon"}, {"name": "Enrichment Skin Solutions", "address": "6001 96th Ln N Suite 150, Brooklyn Park, MN 55445", "city": "Brooklyn Park", "phone": "+1 763-208-1732", "website": "https://enrichmentskinsolutions.com/", "rating": 5.0, "reviews": 106, "place_id": "ChIJX0CN7Hk7s1IRyorW2A2AkdI", "latitude": 45.1298064, "longitude": -93.3582517, "care_type": "Plastic Surgeon"}, {"name": "Prischmann Facial Plastic Surgery", "address": "701 Xenia Ave S Suite 450, Golden Valley, MN 55416", "city": "Golden Valley", "phone": "+1 952-567-7151", "website": "https://www.mnfacialplastics.com/%3Futm_source%3Dgooglemybusiness%26utm_medium%3Dorganic%26utm_campaign%3Djess%2Bprischmann%2Bmd", "rating": 4.8, "reviews": 63, "place_id": "ChIJV_fl7SMh9ocRM3atkiY-Qic", "latitude": 44.9733467, "longitude": -93.35102599999999, "care_type": "Plastic Surgeon"}, {"name": "Edina Plastic Surgery", "address": "6525 France Ave S #300, Edina, MN 55435", "city": "Edina", "phone": "+1 952-260-0055", "website": "https://www.edinaplasticsurgery.com/", "rating": 4.8, "reviews": 339, "place_id": "ChIJzyO9FqUm9ocR4McO7PyS4Rg", "latitude": 44.8849857, "longitude": -93.3273115, "care_type": "Plastic Surgeon"}, {"name": "Beautox Bar Medspa", "address": "7372 Kirkwood Ct N, Maple Grove, MN 55369", "city": "Maple Grove", "phone": "+1 763-205-6952", "website": "https://www.beautoxbar.com/", "rating": 5.0, "reviews": 439, "place_id": "ChIJIw67sPw3s1IRSPhevIESlCA", "latitude": 45.08919849999999, "longitude": -93.43221419999999, "care_type": "Plastic Surgeon"}, {"name": "Afzal Clinics", "address": "Northeast Minneapolis, 7362 University Ave NE #201, Fridley, MN 55432", "city": "Fridley", "phone": "+1 612-662-2772", "website": "https://afzalclinics.com/%3Futm_source%3Dgoogle%26utm_medium%3Dorganic%26utm_campaign%3Dgbp", "rating": 4.8, "reviews": 97, "place_id": "ChIJ5bMj9_cvs1IRVYX2E5hPCq0", "latitude": 45.10243699999999, "longitude": -93.26474499999999, "care_type": "Plastic Surgeon"}, {"name": "Fereydoon Mahjouri, MD", "address": "500 Osborne Rd NE #130, Fridley, MN 55432", "city": "Fridley", "phone": "+1 763-780-2770", "website": "http://www.mahjouricosmeticsurgery.com/dr-mahjouri/", "rating": 5.0, "reviews": 1, "place_id": "ChIJq6pqwF4ls1IRB9048SPUTeY", "latitude": 45.1064685, "longitude": -93.2592596, "care_type": "Plastic Surgeon"}, {"name": "Angela S. Hatfield, MD", "address": "Allina Health Surgery Center, 6001 96th Ln N Suite 200, Brooklyn Park, MN 55445", "city": "Brooklyn Park", "phone": "+1 763-373-0400", "website": "https://account.allinahealth.org/providers/1566%3Futm_source%3Dgmb%26utm_medium%3Dorganic%26utm_content%3Dweb-url%26utm_campaign%3Dgmb_website%26utm_term%3Dangela-hatfield", "rating": null, "reviews": 0, "place_id": "ChIJu02v2uejtFIR7XMz-0Ws6As", "latitude": 45.1296796, "longitude": -93.35825709999999, "care_type": "Plastic Surgeon"}, {"name": "Clarus Dermatology - Maple Grove", "address": "7365 Kirkwood Ct Suite 350, Maple Grove, MN 55369", "city": "Maple Grove", "phone": "+1 612-213-2370", "website": "http://www.clarusdermatology.com/", "rating": 4.7, "reviews": 488, "place_id": "ChIJWdpFN943s1IRmxF36dC3rUM", "latitude": 45.0884201, "longitude": -93.4332282, "care_type": "Plastic Surgeon"}, {"name": "Dr. Umar H. Choudry, MD", "address": "14500 99th Ave N, Maple Grove, MN 55369", "city": "Maple Grove", "phone": "+1 763-898-1000", "website": "http://www.fairview.org/", "rating": 1.0, "reviews": 3, "place_id": "ChIJrehW9gpHs1IRm4QGki3KYhw", "latitude": 45.1360871, "longitude": -93.46477279999999, "care_type": "Plastic Surgeon"}, {"name": "Dr. Bruce L. Cunningham, MD", "address": "14500 99th Ave N, Maple Grove, MN 55369", "city": "Maple Grove", "phone": "+1 763-898-1000", "website": "http://www.fairview.org/", "rating": null, "reviews": 0, "place_id": "ChIJrehW9gpHs1IRV_Ekii1Pp00", "latitude": 45.1360871, "longitude": -93.46477279999999, "care_type": "Plastic Surgeon"}, {"name": "Norland Ann MD", "address": "9600 Upland Ln N Suite 250, Maple Grove, MN 55369", "city": "Maple Grove", "phone": "+1 763-571-4000", "website": "http://www.associatedskincare.com/", "rating": null, "reviews": 0, "place_id": "ChIJC_F4gKtHs1IR3cI9h2ntPLg", "latitude": 45.1295562, "longitude": -93.47909779999999, "care_type": "Plastic Surgeon"}, {"name": "Children's Minnesota Audiology, ENT & Facial Plastic Surgery - Maple Grove", "address": "12720 Bass Lake Rd Suite B, Maple Grove, MN 55369", "city": "Maple Grove", "phone": "+1 612-874-1292", "website": "https://www.childrensmn.org/", "rating": null, "reviews": 0, "place_id": "ChIJeXEc_oZJs1IRm3GKli0e6sM", "latitude": 45.0659444, "longitude": -93.44190549999999, "care_type": "Plastic Surgeon"}, {"name": "Rocheford Plastic Surgery", "address": "7650 Currell Blvd #200, Woodbury, MN 55125", "city": "Woodbury", "phone": "+1 651-739-1100", "website": "http://www.drrocheford.com/", "rating": 4.7, "reviews": 198, "place_id": "ChIJR5Oasv3W94cRhCbR6qCynRA", "latitude": 44.9230176, "longitude": -92.9499866, "care_type": "Plastic Surgeon"}, {"name": "Fresh Face Skin Clinic", "address": "11671 Fountains Dr Suite 205, Maple Grove, MN 55369", "city": "Maple Grove", "phone": "+1 763-220-1074", "website": "http://freshfaceskinclinic.com/", "rating": 5.0, "reviews": 78, "place_id": "ChIJA8aOcHFHs1IR6yZSSnE3n0o", "latitude": 45.0940383, "longitude": -93.4272756, "care_type": "Plastic Surgeon"}, {"name": "Landis Plastic Surgery", "address": "2805 Campus Dr #335, Plymouth, MN 55441", "city": "Plymouth", "phone": "+1 952-562-5940", "website": "", "rating": 4.0, "reviews": 8, "place_id": "ChIJVfuVa2dLs1IRjg8H25_W0Mg", "latitude": 45.01089899999999, "longitude": -93.45420299999999, "care_type": "Plastic Surgeon"}, {"name": "Belladerm MedSpa", "address": "7940 Main St, Maple Grove, MN 55369", "city": "Maple Grove", "phone": "+1 763-494-9905", "website": "http://www.belladermmedspa.com/", "rating": 4.8, "reviews": 284, "place_id": "ChIJKTvY5f5Hs1IRNXiQL1nTtus", "latitude": 45.0994758, "longitude": -93.4411621, "care_type": "Plastic Surgeon"}, {"name": "McCue Plastic Surgery", "address": "2805 Campus Dr #335, Minneapolis, MN 55441", "city": "Minneapolis", "phone": "+1 952-830-0089", "website": "https://mccueplasticsurgery.com/", "rating": 4.8, "reviews": 22, "place_id": "ChIJwwY6wBok9ocRGKKyBLhwnck", "latitude": 45.0108513, "longitude": -93.4541637, "care_type": "Plastic Surgeon"}, {"name": "Ruth Barta, MD", "address": "9550 Upland Ln N, Maple Grove, MN 55369", "city": "Maple Grove", "phone": "+1 763-496-6000", "website": "https://www.gillettechildrens.org/care-team/jo-barta-md-craniofacial-and-plastic-surgeon", "rating": null, "reviews": 0, "place_id": "ChIJDWM5qX1Hs1IRbPf0Tpkntc0", "latitude": 45.1284119, "longitude": -93.47906069999999, "care_type": "Plastic Surgeon"}, {"name": "Dr. James Kong", "address": "9555 Upland Ln N, Maple Grove, MN 55369", "city": "Maple Grove", "phone": "+1 952-993-1440", "website": "", "rating": null, "reviews": 0, "place_id": "ChIJVVUVxKxHs1IRq7AVZQz3JEc", "latitude": 45.127771, "longitude": -93.48089519999999, "care_type": "Plastic Surgeon"}, {"name": "Dr. Daniel K. Cantwell, DO", "address": "Mercy Hospital General Surgery Clinic, 11850 Blackfoot St NW Suite 130, Coon Rapids, MN 55433", "city": "Coon Rapids", "phone": "+1 763-236-9000", "website": "https://account.allinahealth.org/providers/356%3Futm_source%3Dgmb%26utm_medium%3Dorganic%26utm_content%3Dweb-url%26utm_campaign%3Dgmb_website%26utm_term%3Ddaniel-cantwell", "rating": 4.4, "reviews": 21, "place_id": "ChIJ5QgVtS4ls1IRswpdX8ity_k", "latitude": 45.1852814, "longitude": -93.369056, "care_type": "Plastic Surgeon"}, {"name": "Angela S. Hatfield, MD", "address": "Allina Health Mercy General Surgery Clinic, 11850 Blackfoot St NW Suite 130, Coon Rapids, MN 55433", "city": "Coon Rapids", "phone": "+1 763-236-1900", "website": "https://account.allinahealth.org/providers/1566%3Futm_source%3Dgmb%26utm_medium%3Dorganic%26utm_content%3Dweb-url%26utm_campaign%3Dgmb_website%26utm_term%3Dangela-hatfield", "rating": 4.2, "reviews": 5, "place_id": "ChIJfYMhlsI_s1IRA7PLDm_0kJQ", "latitude": 45.1852814, "longitude": -93.369056, "care_type": "Plastic Surgeon"}, {"name": "Allina Health Mercy General Surgery Clinic", "address": "11850 Blackfoot St NW Suite 130, Coon Rapids, MN 55433", "city": "Coon Rapids", "phone": "+1 763-236-9000", "website": "https://account.allinahealth.org/locations/73%3Futm_source%3Dgmb%26utm_medium%3Dorganic%26utm_content%3Dweb-url%26utm_campaign%3Dgmb_website%26utm_term%3DAllina-Health-Mercy-General-Surgery-Clinic", "rating": 4.0, "reviews": 8, "place_id": "ChIJUwNVR6g-s1IRKeAif4C52_w", "latitude": 45.18519389999999, "longitude": -93.36931729999999, "care_type": "Plastic Surgeon"}, {"name": "Agnieszka Hatfield, MD", "address": "11850 Blackfoot St NW #300, Coon Rapids, MN 55433", "city": "Coon Rapids", "phone": "+1 763-236-1900", "website": "https://account.allinahealth.org/providers/1566", "rating": null, "reviews": 0, "place_id": "ChIJjwLBNqY-s1IRg2qjK9jgqLQ", "latitude": 45.185112, "longitude": -93.3692382, "care_type": "Plastic Surgeon"}, {"name": "Dr. Albert Harris, MD", "address": "1025 Marsh St, Mankato, MN 56001", "city": "Mankato", "phone": "+1 507-625-4031", "website": "https://www.mayoclinichealthsystem.org/providers/albert-harris-md", "rating": 4.0, "reviews": 8, "place_id": "ChIJ2U09JRw69IcR0E4Pr89tMYo", "latitude": 44.1634374, "longitude": -93.9836316, "care_type": "Plastic Surgeon"}, {"name": "Bo-Tox and Beauty", "address": "1713 Commerce Dr, North Mankato, MN 56003", "city": "North Mankato", "phone": "+1 712-541-8597", "website": "https://bo-toxbeauty.com/", "rating": 5.0, "reviews": 21, "place_id": "ChIJEc6HSnU39IcRZdiOh387eCQ", "latitude": 44.178607, "longitude": -94.03534379999999, "care_type": "Plastic Surgeon"}, {"name": "Dr. William Lee", "address": "223 Belgrade Ave, North Mankato, MN 56003", "city": "North Mankato", "phone": "+1 507-625-3460", "website": "", "rating": 5.0, "reviews": 1, "place_id": "ChIJh7mnvOc59IcR64MEJBibFr0", "latitude": 44.169912, "longitude": -94.0068299, "care_type": "Plastic Surgeon"}, {"name": "Woodbury Plastic Surgery, David Thao, MD", "address": "604 Bielenberg Dr #250, Woodbury, MN 55125", "city": "Woodbury", "phone": "+1 651-730-4100", "website": "http://www.woodburyplasticsurgery.com/", "rating": 4.8, "reviews": 516, "place_id": "ChIJK-7_DbTSslIR5fk9-Z8S4Zo", "latitude": 44.9410894, "longitude": -92.9573655, "care_type": "Plastic Surgeon"}, {"name": "Midwest Facial Plastic Surgery & FACE Cosmetic Skincare", "address": "3590 Arcade St, Vadnais Heights, MN 55127", "city": "Vadnais Heights", "phone": "+1 651-632-9700", "website": "https://www.mw-fp.com/%3Futm_source%3Dgoogle%26utm_medium%3Dorganic%26utm_campaign%3Dgbp%26utm_term%3DMidwest-Facial-Plastic-Surgery-%26-FACE-Cosmetic-Skincare-Vadnais-Heights%26utm_content%3Dwebsite", "rating": 4.9, "reviews": 46, "place_id": "ChIJvxBGJ-rXslIR3dMOOvn4bdo", "latitude": 45.047793, "longitude": -93.0628835, "care_type": "Plastic Surgeon"}, {"name": "Midwest Facial Plastic Surgery & FACE Cosmetic Skincare", "address": "217 Radio Dr, Woodbury, MN 55125", "city": "Woodbury", "phone": "+1 651-632-9700", "website": "https://www.mw-fp.com/%3Futm_source%3Dgoogle%26utm_medium%3Dorganic%26utm_campaign%3Dgbp%26utm_term%3DMidwest-Facial-Plastic-Surgery-%26-FACE-Cosmetic-Skincare-Woodbury%26utm_content%3Dwebsite", "rating": 4.7, "reviews": 134, "place_id": "ChIJLaygD7st9ocR7RBJdtyAMxc", "latitude": 44.9456087, "longitude": -92.92963669999999, "care_type": "Plastic Surgeon"}, {"name": "James A Hoffman MD Cosmetic and Plastic Surgery", "address": "1937 Woodlane Dr #201, St Paul, MN 55125", "city": "St Paul", "phone": "+1 651-686-4548", "website": "", "rating": 3.8, "reviews": 0, "place_id": "ChIJ3wDkygHX94cRwhpyUQ3Ryqk", "latitude": 44.920773, "longitude": -92.9657488, "care_type": "Plastic Surgeon"}, {"name": "Eye Plastic Surgery of Minnesota - Dr. Mohit Dewan", "address": "635 Bielenberg Dr #220, St Paul, MN 55125", "city": "St Paul", "phone": "+1 651-504-0321", "website": "https://www.eyeplasticsmn.com/%3Futm_source%3Dgmb", "rating": 5.0, "reviews": 23, "place_id": "ChIJu96-iYrX94cR9k8n11Er3N8", "latitude": 44.939618, "longitude": -92.9536564, "care_type": "Plastic Surgeon"}, {"name": "HealthPartners Plastic & Hand Surgery St. Paul", "address": "401 Phalen Blvd Floor 1, St Paul, MN 55130", "city": "St Paul", "phone": "+1 952-967-7977", "website": "https://www.healthpartners.com/care/find/location/centers/healthpartners/st-paul/plastic-and-hand-surgery/%3Futm_campaign%3Dplastics_locallistings_20m1_care_hp%26utm_source%3Dgooglemybusiness_%26utm_medium%3Dorganic%26utm_content%3Dhealthpartners-plastic-hand-surgery_localpack_conversion%26utm_term%3D_v1__/", "rating": 1.0, "reviews": 3, "place_id": "ChIJ____P0cts1IRG6dfaCnlT9g", "latitude": 44.9649544, "longitude": -93.0843819, "care_type": "Plastic Surgeon"}, {"name": "Uplift Aesthetics", "address": "7561 9th St N, Oakdale, MN 55128", "city": "Oakdale", "phone": "+1 651-432-4477", "website": "https://upliftaestheticsmn.com/", "rating": 4.9, "reviews": 0, "place_id": "ChIJ-9eB5PnZ94cRHwNTaCy6Vs0", "latitude": 44.9593022, "longitude": -92.9547126, "care_type": "Plastic Surgeon"}, {"name": "William J. Lipham, MD, FACS", "address": "7125 Tamarack Rd, Woodbury, MN 55125", "city": "Woodbury", "phone": "+1 651-748-4444", "website": "https://www.mneye.com/our-team-minneapolis/william-j-lipham-m-d-f-c-s/", "rating": 5.0, "reviews": 19, "place_id": "ChIJx2_1rIzTslIR3pCO8-dewKQ", "latitude": 44.9355428, "longitude": -92.9618558, "care_type": "Plastic Surgeon"}, {"name": "United Plastic Surgery Clinic", "address": "280 Smith Ave N #700, St Paul, MN 55102", "city": "St Paul", "phone": "+1 651-241-6800", "website": "https://account.allinahealth.org/locations/1793%3Futm_source%3Dgmb%26utm_medium%3Dorganic%26utm_content%3Dweb-url%26utm_campaign%3Dgmb_website%26utm_term%3DUnited-Plastic-Surgery-Clinic", "rating": 3.7, "reviews": 3, "place_id": "ChIJXWqrRvcr9ocRbg4PkPFiZHY", "latitude": 44.94259599999999, "longitude": -93.1069691, "care_type": "Plastic Surgeon"}, {"name": "Gryskiewicz Twin Cities Cosmetic Surgery", "address": "7373 France Ave S Suite #408, Edina, MN 55435", "city": "Edina", "phone": "+1 952-842-1000", "website": "https://www.tcplasticsurgery.com/", "rating": 4.7, "reviews": 62, "place_id": "ChIJvWdHwBok9ocRy1xrJhte5Vw", "latitude": 44.8690069, "longitude": -93.32754059999999, "care_type": "Plastic Surgeon"}, {"name": "Martin Lacey,", "address": "640 Jackson St, St Paul, MN 55101", "city": "St Paul", "phone": "+1 651-291-2848", "website": "", "rating": 5.0, "reviews": 2, "place_id": "ChIJWUg0-VTV94cRXS_9YcbhfXg", "latitude": 44.9571423, "longitude": -93.0930815, "care_type": "Plastic Surgeon"}, {"name": "Facial Plastic Surgery: Edward Szachowicz, MD", "address": "4999 France Ave S #210, Minneapolis, MN 55410", "city": "Minneapolis", "phone": "+1 952-835-5665", "website": "https://www.facialplasticsurgery.com/%3Futm_source%3Dgoogle%26utm_medium%3Dlocal%26utm_campaign%3Dedina-practice-website", "rating": 4.7, "reviews": 28, "place_id": "ChIJvWdHwBok9ocRQg-Kjwa7LPM", "latitude": 44.91277669999999, "longitude": -93.32873959999999, "care_type": "Plastic Surgeon"}, {"name": "Martin Lacey, MD", "address": "401 Phalen Blvd, St Paul, MN 55130", "city": "St Paul", "phone": "+1 651-254-8290", "website": "https://www.mhealth.org/providers/laceymartin-1939497110", "rating": 5.0, "reviews": 1, "place_id": "ChIJX5acOwDX94cRg_LkTU4PcGE", "latitude": 44.9648422, "longitude": -93.0845428, "care_type": "Plastic Surgeon"}, {"name": "Cosmetic And Plastic Surgeons", "address": "401 Phalen Blvd, St Paul, MN 55130", "city": "St Paul", "phone": "+1 651-254-8290", "website": "https://www.cosmetic-plasticsurgeons.com/", "rating": 1.0, "reviews": 1, "place_id": "ChIJeQ83507VslIRrFhCXaKtdFE", "latitude": 44.9650737, "longitude": -93.08428219999999, "care_type": "Plastic Surgeon"}, {"name": "Dr. Cherrie A. Heinrich, MD", "address": "401 Phalen Blvd, St Paul, MN 55130", "city": "St Paul", "phone": "+1 651-254-8290", "website": "http://www.healthpartners.com/", "rating": 4.0, "reviews": 8, "place_id": "ChIJeQ83507VslIR56vhy9IrPxc", "latitude": 44.9649544, "longitude": -93.0843819, "care_type": "Plastic Surgeon"}, {"name": "Gryskiewicz Twin Cities Cosmetic Surgery", "address": "303 E Nicollet Blvd #330, Burnsville, MN 55337", "city": "Burnsville", "phone": "+1 952-435-0177", "website": "http://www.tcplasticsurgery.com/", "rating": 4.7, "reviews": 128, "place_id": "ChIJ_dvQ_Gw69ocRqb0mTtMCUb8", "latitude": 44.749222, "longitude": -93.271374, "care_type": "Plastic Surgeon"}, {"name": "Sam Economou, MD", "address": "7760 France Ave S Suite 1000, Bloomington, MN 55435", "city": "Bloomington", "phone": "+1 952-746-6767", "website": "https://mnoncology.com/physicians/sam-economou-md%3Futm_source%3Dlocal-listings%26utm_medium%3Dgoogle%26utm_campaign%3Drio-listings", "rating": 5.0, "reviews": 134, "place_id": "ChIJT2enxRUk9ocRagY3WOGtIuY", "latitude": 44.8607361, "longitude": -93.3303202, "care_type": "Plastic Surgeon"}, {"name": "Cosmetic & Plastic Surgeons: Ellers Joann", "address": "1875 Woodwinds Dr. # 120, Woodbury, MN 55125", "city": "Woodbury", "phone": "+1 651-255-7777", "website": "", "rating": null, "reviews": 0, "place_id": "ChIJ3wDkygHX94cR4clAxQKeiRc", "latitude": 44.9215846, "longitude": -92.97644199999999, "care_type": "Plastic Surgeon"}, {"name": "Dr. Cherrie A. Heinrich, MD", "address": "1875 Woodwinds Dr., St Paul, MN 55125", "city": "St Paul", "phone": "+1 651-255-7777", "website": "http://www.cosmetic-plasticsurgeons.com/", "rating": null, "reviews": 0, "place_id": "ChIJ3wDkygHX94cRBV4zj_o26Eg", "latitude": 44.921584, "longitude": -92.97644199999999, "care_type": "Plastic Surgeon"}, {"name": "Dr. Dean E. Mann, MD", "address": "1875 Woodwinds Dr. # 120, St Paul, MN 55125", "city": "St Paul", "phone": "+1 651-255-7777", "website": "", "rating": null, "reviews": 0, "place_id": "ChIJ3wDkygHX94cRSiTsAr2rPLU", "latitude": 44.9217523, "longitude": -92.97642069999999, "care_type": "Plastic Surgeon"}, {"name": "Scott Loewenstein", "address": "401 Phalen Blvd, St Paul, MN 551305302", "city": "St Paul", "phone": "+1 651-254-7400", "website": "https://www.healthpartners.com/care/find/doctor/240354/", "rating": 4.0, "reviews": 2, "place_id": "ChIJAQDA3E7VslIR6tJGNyWh-M8", "latitude": 44.9649544, "longitude": -93.0843819, "care_type": "Plastic Surgeon"}, {"name": "John Luck, MD", "address": "7373 France Ave S Suite #408, Minneapolis, MN 55435", "city": "Minneapolis", "phone": "+1 952-842-1000", "website": "", "rating": 5.0, "reviews": 13, "place_id": "ChIJXwE_j1El9ocR8F0fbmpo_Vs", "latitude": 44.8690069, "longitude": -93.32754059999999, "care_type": "Plastic Surgeon"}, {"name": "Joe Gryskiewicz, MD, FACS", "address": "7373 France Ave S Suite #408, Minneapolis, MN 55435", "city": "Minneapolis", "phone": "+1 952-842-1000", "website": "http://www.tcplasticsurgery.com/", "rating": 4.6, "reviews": 91, "place_id": "ChIJvWdHwBok9ocRu4tOwrAntaM", "latitude": 44.8690509, "longitude": -93.3274584, "care_type": "Plastic Surgeon"}, {"name": "Jonathan D. McCue, MD", "address": "2805 Campus Dr, Plymouth, MN 55441", "city": "Plymouth", "phone": "+1 952-830-0089", "website": "http://www.mccueplasticsurgery.com/", "rating": 5.0, "reviews": 6, "place_id": "ChIJW_kdvsMzs1IR4Y4_YYgdeew", "latitude": 45.0112089, "longitude": -93.45442829999999, "care_type": "Plastic Surgeon"}, {"name": "Mann Dean E MD", "address": "640 Jackson St # 2118, St Paul, MN 55101", "city": "St Paul", "phone": "+1 651-254-3456", "website": "http://www.regionshospital.com/", "rating": null, "reviews": 0, "place_id": "ChIJWUg0-VTV94cR4n8tUAIE52k", "latitude": 44.955959, "longitude": -93.09423799999999, "care_type": "Plastic Surgeon"}, {"name": "Skin By Liv Aesthetics", "address": "7774 Hargis Pkwy 110 Studio 6 + 15, Woodbury, MN 55129", "city": "Woodbury", "phone": "+1 651-353-4181", "website": "http://www.skinbylivaesthetics.com/", "rating": 4.8, "reviews": 0, "place_id": "ChIJcU11f-rX94cRS2pf3vrFGrk", "latitude": 44.8877511, "longitude": -92.9470588, "care_type": "Plastic Surgeon"}, {"name": "Dr. Dean E. Mann, MD", "address": "401 Phalen Blvd, St Paul, MN 55130", "city": "St Paul", "phone": "+1 651-254-8290", "website": "", "rating": null, "reviews": 0, "place_id": "ChIJeQ83507VslIRbuZpW0btYxI", "latitude": 44.9649544, "longitude": -93.0843819, "care_type": "Plastic Surgeon"}, {"name": "Dr. Jonathan Witzke", "address": "1875 Woodwinds Dr. # 120, Woodbury, MN 55125", "city": "Woodbury", "phone": "+1 651-255-7777", "website": "", "rating": null, "reviews": 0, "place_id": "ChIJv6U-ywHX94cRrO8SLyh31ME", "latitude": 44.9216173, "longitude": -92.9765223, "care_type": "Plastic Surgeon"}, {"name": "Ashish Mahajan", "address": "435 Phalen Blvd, St Paul, MN 55130", "city": "St Paul", "phone": "", "website": "", "rating": null, "reviews": 0, "place_id": "ChIJAQBA30jVslIRaLVD9IH4VzE", "latitude": 44.9655905, "longitude": -93.08240839999999, "care_type": "Plastic Surgeon"}, {"name": "Dr. James W. Fletcher, MD", "address": "401 Phalen Blvd, St Paul, MN 55130", "city": "St Paul", "phone": "+1 651-254-8290", "website": "", "rating": null, "reviews": 0, "place_id": "ChIJeQ83507VslIRMx1D7_NHvaw", "latitude": 44.9650757, "longitude": -93.0842871, "care_type": "Plastic Surgeon"}, {"name": "Dr. Douglas L. Gervais, MD", "address": "4825 Olson Mem Hwy Suite #200, Minneapolis, MN 55422", "city": "Minneapolis", "phone": "+1 763-545-0443", "website": "http://www.mpsmn.com/", "rating": 4.4, "reviews": 54, "place_id": "ChIJW_kdvsMzs1IRyzWRLRX9n4w", "latitude": 44.9836892, "longitude": -93.3404626, "care_type": "Plastic Surgeon"}, {"name": "Ruth Barta, MD", "address": "200 University Ave E, St Paul, MN 55101", "city": "St Paul", "phone": "+1 651-291-2848", "website": "https://www.gillettechildrens.org/care-team/jo-barta-md-craniofacial-and-plastic-surgeon", "rating": 3.0, "reviews": 2, "place_id": "ChIJIcWM5T7V94cRlLjDvXewBG0", "latitude": 44.9570807, "longitude": -93.0954062, "care_type": "Plastic Surgeon"}, {"name": "Bruce Ned C", "address": "640 Jackson St # 2118, St Paul, MN 55101", "city": "St Paul", "phone": "+1 651-254-3456", "website": "http://www.regionshospital.com/", "rating": 5.0, "reviews": 2, "place_id": "ChIJWUg0-VTV94cR-VcWA37MNhg", "latitude": 44.955959, "longitude": -93.09423799999999, "care_type": "Plastic Surgeon"}, {"name": "Ruth Barta", "address": "435 Phalen Blvd, St Paul, MN 55130", "city": "St Paul", "phone": "+1 651-291-2848", "website": "https://www.healthpartners.com/care/find/doctor/98407/", "rating": null, "reviews": 0, "place_id": "ChIJAQBA30jVslIRSwHTsV6honI", "latitude": 44.9655905, "longitude": -93.08240839999999, "care_type": "Plastic Surgeon"}, {"name": "Christopher Tolan, MD", "address": "2080 Woodwinds Dr., Woodbury, MN 55125", "city": "Woodbury", "phone": "+1 855-324-7843", "website": "https://www.fairview.org/providers/t/o/l/a/n/tolanchristopher-1646560988", "rating": null, "reviews": 0, "place_id": "ChIJw7u91KvX94cR9P_Bw7KZoMk", "latitude": 44.9193833, "longitude": -92.9812312, "care_type": "Plastic Surgeon"}, {"name": "Dr. George H. Landis, MD", "address": "2805 Campus Dr #335, Plymouth, MN 55441", "city": "Plymouth", "phone": "+1 952-562-5940", "website": "http://www.drlandis.com/", "rating": 4.5, "reviews": 15, "place_id": "ChIJP-iSBDtKs1IROpCjJCORSnE", "latitude": 45.01080349999999, "longitude": -93.4541244, "care_type": "Plastic Surgeon"}, {"name": "Dr. Cherrie A. Heinrich, MD", "address": "640 Jackson St, St Paul, MN 55101", "city": "St Paul", "phone": "+1 651-254-8290", "website": "", "rating": null, "reviews": 0, "place_id": "ChIJWUg0-VTV94cRcj8ktKHDys8", "latitude": 44.95603149999999, "longitude": -93.09442089999999, "care_type": "Plastic Surgeon"}, {"name": "Dr. Barbara S. Schmidt-Steinbrunn, MD", "address": "514 St Peter St # 250, St Paul, MN 55102", "city": "St Paul", "phone": "+1 651-287-8783", "website": "", "rating": null, "reviews": 0, "place_id": "ChIJD9p4Ya0q9ocRdIHT7REnJAk", "latitude": 44.9491017, "longitude": -93.09906889999999, "care_type": "Plastic Surgeon"}, {"name": "Lim Paul K MD", "address": "200 University Ave E, St Paul, MN 55101", "city": "St Paul", "phone": "+1 651-254-3456", "website": "", "rating": null, "reviews": 0, "place_id": "ChIJWUg0-VTV94cRkOdZOg20o30", "latitude": 44.9564314, "longitude": -93.0955614, "care_type": "Plastic Surgeon"}, {"name": "RENEW Plastic Surgery", "address": "7300 France Ave S #410, Edina, MN 55435", "city": "Edina", "phone": "+1 952-208-6545", "website": "https://www.renewplasticsurgery.com/%3Futm_source%3Dgoogle%26utm_medium%3Dorganic%26utm_campaign%3Dgbp", "rating": 4.9, "reviews": 114, "place_id": "ChIJJZxB2wQk9ocRFN08BvOrx8c", "latitude": 44.870441, "longitude": -93.32969779999999, "care_type": "Plastic Surgeon"}, {"name": "Midwest Plastic Surgery", "address": "6545 France Ave S #350, Edina, MN 55435", "city": "Edina", "phone": "+1 952-920-2600", "website": "http://www.midwestplasticsurgery.net/", "rating": 4.8, "reviews": 12, "place_id": "ChIJR5rEnWAn9ocRxz8ueMiSfNc", "latitude": 44.8847388, "longitude": -93.327426, "care_type": "Plastic Surgeon"}, {"name": "Dr. Robert Wilke", "address": "6525 France Ave S #300, Edina, MN 55435", "city": "Edina", "phone": "+1 952-529-9041", "website": "https://www.edinaplasticsurgery.com/surgeon/dr-robert-wilke/", "rating": 5.0, "reviews": 154, "place_id": "ChIJzyO9FqUm9ocRsYFNH-bBC3A", "latitude": 44.8847961, "longitude": -93.3272473, "care_type": "Plastic Surgeon"}, {"name": "Dr. Nathan Leigh", "address": "6525 France Ave S #300, Edina, MN 55435", "city": "Edina", "phone": "+1 952-243-4801", "website": "https://www.edinaplasticsurgery.com/surgeon/dr-nathan-leigh/", "rating": 4.9, "reviews": 188, "place_id": "ChIJzyO9FqUm9ocRe2rGfnUc4Gs", "latitude": 44.8847961, "longitude": -93.3272473, "care_type": "Plastic Surgeon"}, {"name": "Dr. Christine Stewart", "address": "6525 France Ave S #300, Edina, MN 55435", "city": "Edina", "phone": "+1 952-243-4798", "website": "https://www.edinaplasticsurgery.com/doctor/dr-christine-stewart/", "rating": 5.0, "reviews": 84, "place_id": "ChIJXanrV8wn9ocR_MtHgF_U6qw", "latitude": 44.8849857, "longitude": -93.3273115, "care_type": "Plastic Surgeon"}, {"name": "Skin Artisans at Edina Plastic Surgery", "address": "6525 France Ave S Suite 305, Edina, MN 55435", "city": "Edina", "phone": "+1 952-592-6022", "website": "https://skinartisans.com/", "rating": 5.0, "reviews": 452, "place_id": "ChIJzyO9FqUm9ocRyUDS9dkhD6M", "latitude": 44.884951, "longitude": -93.327201, "care_type": "Plastic Surgeon"}, {"name": "Dr. Michael Philbin", "address": "6525 France Ave S #300, Edina, MN 55435", "city": "Edina", "phone": "+1 952-522-9247", "website": "https://www.edinaplasticsurgery.com/surgeon/dr-michael-philbin/", "rating": 5.0, "reviews": 193, "place_id": "ChIJzyO9FqUm9ocRYDQv_kH-i1A", "latitude": 44.8849857, "longitude": -93.3273115, "care_type": "Plastic Surgeon"}, {"name": "Dr. Jacqueline A. Luong", "address": "7550 France Ave S Suite 210, Edina, MN 55435", "city": "Edina", "phone": "+1 952-838-0602", "website": "http://www.luongplasticsurgery.com/", "rating": 4.6, "reviews": 68, "place_id": "ChIJB5kUDqUm9ocRJKJyBpUpo4A", "latitude": 44.866271, "longitude": -93.32992, "care_type": "Plastic Surgeon"}, {"name": "MMK Plastic Surgery", "address": "7450 France Ave S Ste 220, Edina, MN 55435", "city": "Edina", "phone": "+1 952-925-1111", "website": "http://mmkplasticsurgery.com/", "rating": 4.9, "reviews": 8, "place_id": "ChIJmdbQ_w8k9ocR9iwld1YLUlU", "latitude": 44.8678024, "longitude": -93.32965689999999, "care_type": "Plastic Surgeon"}, {"name": "Mark R. Migliori, MD, FACS", "address": "7450 France Ave S Ste 220, Edina, MN 55435", "city": "Edina", "phone": "+1 952-925-1111", "website": "http://mmkplasticsurgery.com/", "rating": 5.0, "reviews": 15, "place_id": "ChIJmdbQ_w8k9ocRVwwxka5kuow", "latitude": 44.8677316, "longitude": -93.3296785, "care_type": "Plastic Surgeon"}, {"name": "Sono Bello Edina", "address": "6545 France Ave S Ste 302 6545, Edina, MN 55435", "city": "Edina", "phone": "+1 612-294-9230", "website": "https://www.sonobello.com/locations/minneapolis/", "rating": 4.6, "reviews": 446, "place_id": "ChIJtapqcqUm9ocRJwoukZCSoZI", "latitude": 44.8846399, "longitude": -93.3275012, "care_type": "Plastic Surgeon"}, {"name": "Shu Cosmetic Surgery", "address": "6545 France Ave S suite 290 suite 290, Edina, MN 55435", "city": "Edina", "phone": "+1 952-922-9999", "website": "", "rating": 4.4, "reviews": 26, "place_id": "ChIJB5kUDqUm9ocR_2TKV_YWOlY", "latitude": 44.8848774, "longitude": -93.327845, "care_type": "Plastic Surgeon"}, {"name": "Tuttle Plastic Surgery", "address": "7450 France Ave S Ste 220, Edina, MN 55435", "city": "Edina", "phone": "+1 952-925-1111", "website": "https://tuttleplasticsurgery.com/", "rating": 5.0, "reviews": 6, "place_id": "ChIJGXaaRr0l9ocRTsDJJBkQjGQ", "latitude": 44.8677335, "longitude": -93.3296574, "care_type": "Plastic Surgeon"}, {"name": "Arif Chaudhry, MD", "address": "200 1st St SW, Edina, MN 55424", "city": "Edina", "phone": "", "website": "", "rating": 4.9, "reviews": 70, "place_id": "ChIJmerG7x9Ns1IR5oR3Okqkmas", "latitude": 44.8896866, "longitude": -93.3499489, "care_type": "Plastic Surgeon"}, {"name": "Luong Plastic Surgery", "address": "7550 France Ave S Suite 210, Edina, MN 55435", "city": "Edina", "phone": "+1 952-838-0602", "website": "https://luongplasticsurgery.com/", "rating": 4.0, "reviews": 25, "place_id": "ChIJ_WiM-Hkl9ocRhlhtKe9Pj8w", "latitude": 44.866271, "longitude": -93.32992, "care_type": "Plastic Surgeon"}, {"name": "Timothy G. Schaefer, MD, FACS", "address": "6545 France Ave S #350, Edina, MN 55435", "city": "Edina", "phone": "+1 952-920-2600", "website": "https://timschaefermd.com/", "rating": 4.7, "reviews": 28, "place_id": "ChIJB5kUDqUm9ocR9NOTffGItyI", "latitude": 44.8847388, "longitude": -93.327426, "care_type": "Plastic Surgeon"}, {"name": "Echelon Surgical Specialists", "address": "3300 Edinborough Way, Edina, MN 55435", "city": "Edina", "phone": "+1 612-424-2767", "website": "https://echelonspecialists.com/", "rating": 4.7, "reviews": 25, "place_id": "ChIJIe4f8Kgl9ocRBBlEpEo9Ob4", "latitude": 44.8627568, "longitude": -93.3212155, "care_type": "Plastic Surgeon"}, {"name": "Hilger Face Center", "address": "5050 France Ave S #150, Edina, MN 55410", "city": "Edina", "phone": "+1 952-844-0404", "website": "https://mphysicians.org/hilger/%3Futm_source%3DGMB%26utm_medium%3Dorganic%26utm_campaign%3DGMB", "rating": 4.6, "reviews": 42, "place_id": "ChIJwwY6wBok9ocR5Mf_89RWDh4", "latitude": 44.9109351, "longitude": -93.3293585, "care_type": "Plastic Surgeon"}, {"name": "AirSculpt - Edina", "address": "7701 France Ave S #425, Edina, MN 55435", "city": "Edina", "phone": "+1 612-400-8877", "website": "https://airsculpt.com/our-locations/minneapolis/%3Futm_source%3Dgoogle%26utm_medium%3Dyext%26utm_campaign%3DMinneapolis%26utm_term%3Dorganictraffic", "rating": 4.9, "reviews": 190, "place_id": "ChIJO94O0SEl9ocRX_XnWEPzTA0", "latitude": 44.8636412, "longitude": -93.3274806, "care_type": "Plastic Surgeon"}, {"name": "Richard S. Werner, MD Plastic Surgery", "address": "6545 France Ave S #276, Edina, MN 55435", "city": "Edina", "phone": "+1 952-929-1812", "website": "http://www.richardswernermd.com/", "rating": 5.0, "reviews": 1, "place_id": "ChIJB5kUDqUm9ocRTpc0Sp2epRk", "latitude": 44.8844788, "longitude": -93.3278603, "care_type": "Plastic Surgeon"}, {"name": "MN Ophthalmic Plastic Surgery Specialists", "address": "5201 Eden Ave #170, Edina, MN 55436", "city": "Edina", "phone": "+1 952-925-4161", "website": "https://mopss.com/", "rating": 3.4, "reviews": 0, "place_id": "ChIJB2UhVqUm9ocREAYeFyYSuL0", "latitude": 44.907973, "longitude": -93.354692, "care_type": "Plastic Surgeon"}, {"name": "Dr. Van Beek Plastic + Reconstructive Surgery Clinic + Advanced Skincare Clinic", "address": "7373 France Ave S #510, Minneapolis, MN 55435", "city": "Minneapolis", "phone": "+1 952-830-1028", "website": "http://www.drvanbeekplastics.com/", "rating": 5.0, "reviews": 4, "place_id": "ChIJvWdHwBok9ocRXYTLdAOA334", "latitude": 44.8690425, "longitude": -93.3274806, "care_type": "Plastic Surgeon"}, {"name": "David F. Ruebeck, MD, FACS", "address": "6545 France Ave S #350, Edina, MN 55435", "city": "Edina", "phone": "+1 952-920-2600", "website": "http://www.midwestplasticsurgery.net/", "rating": 4.0, "reviews": 13, "place_id": "ChIJgy3yD1Yn9ocRYbdW4tNfllo", "latitude": 44.8847388, "longitude": -93.327426, "care_type": "Plastic Surgeon"}, {"name": "Skin Rejuvenation Clinic PA", "address": "3601 Minnesota Dr Suite 100, Edina, MN 55435", "city": "Edina", "phone": "+1 952-920-6545", "website": "https://www.skinrejuvenationclinic.net/%3Futm_source%3Dgbp%26utm_medium%3Dorganic", "rating": 4.8, "reviews": 0, "place_id": "ChIJB5kUDqUm9ocRY9m9wFBT-q8", "latitude": 44.8610911, "longitude": -93.32685389999999, "care_type": "Plastic Surgeon"}, {"name": "Lagos Aesthetics", "address": "7450 France Ave S STE 100, Edina, MN 55435", "city": "Edina", "phone": "+1 952-832-8130", "website": "https://lagosaesthetics.com/%3Futm_source%3DGMB%26utm_medium%3DLagosAesthetics", "rating": 4.7, "reviews": 0, "place_id": "ChIJH1sZ_d8l9ocRSYUvhqrTuFk", "latitude": 44.8676646, "longitude": -93.32968389999999, "care_type": "Plastic Surgeon"}, {"name": "Rachel Dahlen Aesthetics | Edina | Botox & Juvederm", "address": "7701 York Ave S Suite 100, Edina, MN 55435", "city": "Edina", "phone": "+1 701-306-3870", "website": "http://racheldahlen.com/", "rating": 5.0, "reviews": 0, "place_id": "ChIJDWGRfoQZ9ocRUCQPwnT1cKs", "latitude": 44.86415059999999, "longitude": -93.3201392, "care_type": "Plastic Surgeon"}, {"name": "Jenna Van Beck, MD", "address": "5050 France Ave S #150, Minneapolis, MN 55410", "city": "Minneapolis", "phone": "+1 952-844-0404", "website": "https://mphysicians.org/hilger/about/jenna-van-beck", "rating": 4.9, "reviews": 46, "place_id": "ChIJIz9nFh0n9ocRI8S_kDSOz3s", "latitude": 44.9110084, "longitude": -93.3293691, "care_type": "Plastic Surgeon"}, {"name": "The Skin Scene Aesthetics", "address": "5500 Lincoln Dr Ste 130, Edina, MN 55436", "city": "Edina", "phone": "+1 651-888-1958", "website": "https://www.theskinsceneaesthetics.com/", "rating": 5.0, "reviews": 0, "place_id": "ChIJvV-G3pgl9ocRQZsyn2TWpBw", "latitude": 44.902998, "longitude": -93.40045789999999, "care_type": "Plastic Surgeon"}, {"name": "Kayan Plastic Surgery - Dr. Tracy Kayan", "address": "15450 MN-7 #225, Minnetonka, MN 55345", "city": "Minnetonka", "phone": "+1 612-756-8008", "website": "https://www.kayanplasticsurgery.com/", "rating": 4.9, "reviews": 520, "place_id": "ChIJp6tLdTtKs1IRjZn29qhkads", "latitude": 44.9212775, "longitude": -93.4762265, "care_type": "Plastic Surgeon"}, {"name": "Muldowney, J Bart, MD, PA", "address": "7450 France Ave S Ste 220, Minneapolis, MN 55435", "city": "Minneapolis", "phone": "+1 952-925-1111", "website": "http://www.mmkplasticsurgery.com/", "rating": 5.0, "reviews": 12, "place_id": "ChIJmdbQ_w8k9ocRZzDTcizEKAY", "latitude": 44.8676646, "longitude": -93.32968389999999, "care_type": "Plastic Surgeon"}, {"name": "Dr. Phillip Radke, Lagos Aesthetics", "address": "7450 France Ave S STE 100, Edina, MN 55435", "city": "Edina", "phone": "+1 952-832-8130", "website": "https://lagosaesthetics.com/team", "rating": 3.0, "reviews": 4, "place_id": "ChIJmRDoWAUk9ocRJ5xx3PYycuQ", "latitude": 44.8676981, "longitude": -93.32968129999999, "care_type": "Plastic Surgeon"}, {"name": "Sofia Lyford-Pike, MD", "address": "5050 France Ave S #150, Edina, MN 55410", "city": "Edina", "phone": "+1 612-273-8383", "website": "https://mphysicians.org/hilger/about/sofia-lyford-pike", "rating": 5.0, "reviews": 30, "place_id": "ChIJUUQl-uwts1IRzP1Hva0iEiM", "latitude": 44.9109718, "longitude": -93.3293638, "care_type": "Plastic Surgeon"}, {"name": "Advanced Dermatology & Cosmetic Institute P.A.", "address": "6525 Barrie Rd, Edina, MN 55435", "city": "Edina", "phone": "+1 952-915-6000", "website": "http://www.skintherapy.com/", "rating": 3.1, "reviews": 50, "place_id": "ChIJkxnobaMm9ocRg2D7w1kqA3s", "latitude": 44.88476199999999, "longitude": -93.32288899999999, "care_type": "Plastic Surgeon"}, {"name": "Justin Wudel, MD - RENEW Plastic Surgery", "address": "RENEW Plastic Surgery, 7300 France Ave S #410, Edina, MN 55435", "city": "Edina", "phone": "+1 612-200-0568", "website": "https://www.renewplasticsurgery.com/team-members/meet-justin-m-wudel-md/%3Futm_source%3Dgoogle%26utm_medium%3Dorganic%26utm_campaign%3Dgbp", "rating": null, "reviews": 0, "place_id": "ChIJ-7W8-wwl9ocRJPga_PfB_Ss", "latitude": 44.8704, "longitude": -93.3295627, "care_type": "Plastic Surgeon"}, {"name": "Dermatology Specialists", "address": "3316 W 66th St #200, Edina, MN 55435", "city": "Edina", "phone": "+1 952-920-3808", "website": "https://www.dermspecpa.com/", "rating": 4.3, "reviews": 524, "place_id": "ChIJS4LcCaMm9ocRTmz5cLEki3k", "latitude": 44.8840622, "longitude": -93.3222074, "care_type": "Plastic Surgeon"}, {"name": "Afzal Clinics", "address": "3400 W 66th St #265, Edina, MN 55435", "city": "Edina", "phone": "+1 612-662-2772", "website": "https://afzalclinics.com/%3Futm_source%3Dgoogle%26utm_medium%3Dorganic%26utm_campaign%3Dgbp", "rating": 4.8, "reviews": 251, "place_id": "ChIJu72iNGNJs1IR99HU-euaRvI", "latitude": 44.8840161, "longitude": -93.3244905, "care_type": "Plastic Surgeon"}, {"name": "Matthew C Camp, MD", "address": "3300 Edinborough Way Suite 470, Edina, MN 55435", "city": "Edina", "phone": "+1 612-424-2767", "website": "http://echelonspecialists.com/", "rating": 3.0, "reviews": 2, "place_id": "ChIJeXww3zMl9ocRGPsNFbpvqck", "latitude": 44.8629119, "longitude": -93.3209748, "care_type": "Plastic Surgeon"}, {"name": "SP Plastic Surgery, LLC", "address": "15450 MN-7 #225, Minnetonka, MN 55345", "city": "Minnetonka", "phone": "+1 763-296-3067", "website": "https://www.sp-plasticsurgery.com/locations/minnetonka-office/", "rating": 4.5, "reviews": 11, "place_id": "ChIJ22YdCDtKs1IR4PtCKfjNp5E", "latitude": 44.9211976, "longitude": -93.47609539999999, "care_type": "Plastic Surgeon"}, {"name": "Park Nicollet Plastic Surgery St. Louis Park", "address": "5400 Excelsior Blvd Ste 150, St Louis Park, MN 55426", "city": "St Louis Park", "phone": "+1 952-993-3504", "website": "https://www.healthpartners.com/care/find/location/clinics/park-nicollet/st-louis-park/plastic-surgery/%3Futm_campaign%3Dplastics_locallistings_20m1_care_pn%26utm_source%3Dgooglemybusiness_%26utm_medium%3Dorganic%26utm_content%3Dpark-plastics-slp_localpack_conversion%26utm_term%3D_v1__/", "rating": 3.5, "reviews": 8, "place_id": "ChIJEZEp7l8h9ocRv5easdud8jw", "latitude": 44.9317427, "longitude": -93.34846, "care_type": "Plastic Surgeon"}, {"name": "Lokeh Plastic Surgery", "address": "Ridgedale Office Center, Ridgedale Dr #395, Minnetonka, MN 55305", "city": "Minnetonka", "phone": "+1 612-360-7700", "website": "http://www.drlokeh.com/", "rating": 4.3, "reviews": 17, "place_id": "ChIJP-iSBDtKs1IRMa_Z5PQBE0c", "latitude": 44.9700967, "longitude": -93.45542669999999, "care_type": "Plastic Surgeon"}, {"name": "Omni Cosmetic - Wayzata", "address": "935 Wayzata Blvd Suite 200, Wayzata, MN 55391", "city": "Wayzata", "phone": "+1 763-559-4500", "website": "https://omnicosmetic.com/%3Fy_source%3D1_MTAwMDcwMjE3NS03MTUtbG9jYXRpb24ud2Vic2l0ZQ%253D%253D", "rating": 4.8, "reviews": 106, "place_id": "ChIJhXlZj-ZKs1IRbHCYci-tSIk", "latitude": 44.9718084, "longitude": -93.5058229, "care_type": "Plastic Surgeon"}, {"name": "Echelon Surgical Specialists", "address": "15450 MN-7 #225, Minnetonka, MN 55345", "city": "Minnetonka", "phone": "+1 612-424-2767", "website": "https://echelonspecialists.com/", "rating": 4.8, "reviews": 18, "place_id": "ChIJqWbvkcYf9ocRG8_UgVmpAHg", "latitude": 44.9211872, "longitude": -93.47624309999999, "care_type": "Plastic Surgeon"}, {"name": "William J. Lipham, M.D., F.A.C.S.", "address": "10709 Wayzata Blvd #200l, Minnetonka, MN 55305", "city": "Minnetonka", "phone": "+1 952-888-5800", "website": "https://www.mneye.com/our-team-minneapolis/william-j-lipham-m-d-f-a-c-s/", "rating": 4.8, "reviews": 61, "place_id": "ChIJgcviXGY1s1IRTf1ygMxKPXE", "latitude": 44.971432, "longitude": -93.414932, "care_type": "Plastic Surgeon"}, {"name": "Children's Minnesota ENT & Facial Plastic Surgery - Minnetonka", "address": "6060 Clearwater Dr # 100, Minnetonka, MN 55343", "city": "Minnetonka", "phone": "+1 612-874-1292", "website": "https://www.childrensmn.org/locations/minnetonka/%3Futm_source%3Dgoogle%26utm_medium%3Dorganic%26utm_campaign%3Dgmb%26utm_id%3Dminnetonka-ent-facial-plastic-surgery%26utm_content%3Dwebsite-link", "rating": 5.0, "reviews": 1, "place_id": "ChIJrSt7z_of9ocRCDBrnmtxlmM", "latitude": 44.8919416, "longitude": -93.4413948, "care_type": "Plastic Surgeon"}, {"name": "Dr Stephanie Peng", "address": "15450 MN-7, Minnetonka, MN 55345", "city": "Minnetonka", "phone": "+1 763-999-4170", "website": "http://www.sp-plasticsurgery.com/", "rating": 5.0, "reviews": 7, "place_id": "ChIJA0_UBztKs1IR2tTJ8vxA1kI", "latitude": 44.9211973, "longitude": -93.4759418, "care_type": "Plastic Surgeon"}, {"name": "Dr. Gregory T. Mesna, MD", "address": "7407 Wayzata Blvd, Minneapolis, MN 55426", "city": "Minneapolis", "phone": "+1 952-927-4556", "website": "http://www.plasticsurgeryminneapolis.com/", "rating": 5.0, "reviews": 20, "place_id": "ChIJW_kdvsMzs1IR6iey9f-HmF4", "latitude": 44.9706943, "longitude": -93.3737859, "care_type": "Plastic Surgeon"}, {"name": "Kobienia Plastic Surgery: Brian J. Kobienia, MD", "address": "2 Carlson Pkwy Ste 365, Plymouth, MN 55447", "city": "Plymouth", "phone": "+1 612-930-1111", "website": "https://www.edinaplasticsurgery.com/surgeon/dr-brian-kobienia/", "rating": 4.6, "reviews": 37, "place_id": "ChIJmdbQ_w8k9ocRI0D6BcgSGXw", "latitude": 44.9804863, "longitude": -93.46349289999999, "care_type": "Plastic Surgeon"}, {"name": "Mitchell Hagen, MD", "address": "935 Wayzata Blvd Suite 200, Wayzata, MN 55391", "city": "Wayzata", "phone": "+1 763-559-4500", "website": "https://www.hagenfacialplasticsurgery.com/%3Futm_source%3DGMBlisting%26utm_medium%3Dorganic%26utm_campaign%3Dgmb", "rating": 5.0, "reviews": 17, "place_id": "ChIJObbVoUhNs1IRc51GYwjovMw", "latitude": 44.97182919999999, "longitude": -93.50590629999999, "care_type": "Plastic Surgeon"}, {"name": "Sapphire Advanced Aesthetics: Leslie Smith, D.O.", "address": "2 Carlson Pkwy N #120, Plymouth, MN 55447", "city": "Plymouth", "phone": "+1 952-460-1970", "website": "https://www.sapphireadvancedaesthetics.com/", "rating": 4.7, "reviews": 82, "place_id": "ChIJbzkcw_1Ks1IR5sw4w7Hi4y4", "latitude": 44.9800282, "longitude": -93.4628183, "care_type": "Plastic Surgeon"}, {"name": "Jacobson Plastic Surgery - Plymouth", "address": "2855 Campus Dr # 520, Minneapolis, MN 55441", "city": "Minneapolis", "phone": "+1 952-303-2100", "website": "http://www.jacobsonplasticsurgery.com/", "rating": 5.0, "reviews": 4, "place_id": "ChIJ3ZnRRTYl9ocRj05u5IORtIk", "latitude": 45.011278, "longitude": -93.4545291, "care_type": "Plastic Surgeon"}, {"name": "Bryan N. Rolfes, MD", "address": "935 Wayzata Blvd Suite 200, Wayzata, MN 55391", "city": "Wayzata", "phone": "+1 763-559-4500", "website": "https://omnicosmetic.com/dr-bryan-n-rolfes/%3Fy_source%3D1_MTA0MDI1MDkwNy03MTUtbG9jYXRpb24ud2Vic2l0ZQ%253D%253D", "rating": 4.8, "reviews": 18, "place_id": "ChIJbTMRq51Ms1IRcxMcgyQKlYI", "latitude": 44.97179389999999, "longitude": -93.5058146, "care_type": "Plastic Surgeon"}, {"name": "Dr. Peter A. Vogt, MD", "address": "319 Barry Ave S, Wayzata, MN 55391", "city": "Wayzata", "phone": "+1 952-473-1111", "website": "", "rating": 5.0, "reviews": 6, "place_id": "ChIJ7dFpdJFMs1IRQxv_I7BsYoU", "latitude": 44.9710781, "longitude": -93.5176049, "care_type": "Plastic Surgeon"}, {"name": "LAK MedSpa", "address": "1120 Wayzata Blvd Ste 100, Wayzata, MN 55391", "city": "Wayzata", "phone": "+1 952-800-9335", "website": "https://lakmedspa.com/", "rating": 4.5, "reviews": 110, "place_id": "ChIJn7WE05xMs1IRIyJBI_7TzA4", "latitude": 44.97070919999999, "longitude": -93.5006717, "care_type": "Plastic Surgeon"}, {"name": "Jane H. Lisko, MD", "address": "18315 Cascade Dr #150, Eden Prairie, MN 55347", "city": "Eden Prairie", "phone": "+1 952-934-7336", "website": "http://www.janeliskomd.com/", "rating": 4.7, "reviews": 15, "place_id": "ChIJ3WQYi-8b9ocRZf6fgOJ2neg", "latitude": 44.8609854, "longitude": -93.5103791, "care_type": "Plastic Surgeon"}, {"name": "Miles Bichanich, MD", "address": "935 Wayzata Blvd Suite 200, Wayzata, MN 55391", "city": "Wayzata", "phone": "+1 763-559-4500", "website": "https://pinnacleskin.com/our-providers/miles-bichanich-md/%3Fy_source%3D1_MTAxMzkxOTk0OS03MTUtbG9jYXRpb24ud2Vic2l0ZQ%253D%253D", "rating": 5.0, "reviews": 6, "place_id": "ChIJXSoF8kRLs1IRxBNzuUf_ZFU", "latitude": 44.9718167, "longitude": -93.50581729999999, "care_type": "Plastic Surgeon"}, {"name": "Infinite Youth Medical Spa", "address": "10900 Wayzata Blvd #215, Minnetonka, MN 55305", "city": "Minnetonka", "phone": "+1 952-500-0350", "website": "http://www.infiniteyouthmedical.com/", "rating": 4.9, "reviews": 70, "place_id": "ChIJ4d8Rm700s1IRLt84EfXy84w", "latitude": 44.97369399999999, "longitude": -93.41739179999999, "care_type": "Plastic Surgeon"}, {"name": "B.LEV Surgery Center", "address": "2805 Campus Dr BUILDING, SUITE 405, Plymouth, MN 55441", "city": "Plymouth", "phone": "+1 763-205-1052", "website": "https://blevsurgerycenter.com/", "rating": 5.0, "reviews": 1, "place_id": "ChIJ4R6GWr1Ls1IRpUAO1qLLytA", "latitude": 45.0108147, "longitude": -93.4540937, "care_type": "Plastic Surgeon"}, {"name": "Twin Cities Plastic Surgery", "address": "15535 34th Ave N #100, Plymouth, MN 55447", "city": "Plymouth", "phone": "+1 612-360-7700", "website": "http://www.drlokeh.com/", "rating": null, "reviews": 0, "place_id": "ChIJo3DjfFxLs1IRjKy3f7duFOU", "latitude": 45.018892, "longitude": -93.47869899999999, "care_type": "Plastic Surgeon"}, {"name": "MATTHEW CAMP, M.D.", "address": "15450 MN-7 #225, Minnetonka, MN 55345", "city": "Minnetonka", "phone": "+1 612-424-2767", "website": "http://www.echelonspecialists.com/", "rating": null, "reviews": 0, "place_id": "ChIJMbuDlv8f9ocRFqMsvxc2_Jc", "latitude": 44.9212828, "longitude": -93.4762429, "care_type": "Plastic Surgeon"}, {"name": "Daly Aesthetics & Health", "address": "17633 Minnetonka Blvd, Wayzata, MN 55391", "city": "Wayzata", "phone": "+1 952-322-7129", "website": "http://dalyaestheticsandhealth.com/", "rating": 4.9, "reviews": 48, "place_id": "ChIJ4WNeBpYd9ocRolKhyWF-iKc", "latitude": 44.9417605, "longitude": -93.50336659999999, "care_type": "Plastic Surgeon"}, {"name": "Stachowicz Pawel P MD", "address": "2000 Plymouth Rd, Hopkins, MN 55305", "city": "Hopkins", "phone": "+1 952-476-9200", "website": "", "rating": 1.0, "reviews": 1, "place_id": "ChIJCyhA9sBKs1IRqlkGAAmNVYU", "latitude": 44.9642997, "longitude": -93.4432966, "care_type": "Plastic Surgeon"}, {"name": "Chopra Plastic Surgery", "address": "2855 Campus Dr, Minneapolis, MN 55441", "city": "Minneapolis", "phone": "+1 305-209-8811", "website": "https://chopraplasticsurgery.com/virtualconsultation/%23start-con", "rating": null, "reviews": 0, "place_id": "ChIJE5dkpxtLs1IRatSgoI8KKN0", "latitude": 45.0112526, "longitude": -93.45452879999999, "care_type": "Plastic Surgeon"}, {"name": "Tracy Kayan", "address": "2805 Campus Dr, Plymouth, MN 55441", "city": "Plymouth", "phone": "+1 612-756-8008", "website": "https://www.tkplasticsurgery.com/contact-us", "rating": null, "reviews": 0, "place_id": "ChIJJ2cdCDtKs1IRi4Dn6h83zvk", "latitude": 45.01089899999999, "longitude": -93.4542029, "care_type": "Plastic Surgeon"}, {"name": "Dr. Robert J. Wood, MD", "address": "6060 Clearwater Dr # 100, Minnetonka, MN 55343", "city": "Minnetonka", "phone": "+1 952-936-0977", "website": "", "rating": null, "reviews": 0, "place_id": "ChIJ8_GYUxUf9ocRyxW4t3Kgwio", "latitude": 44.8919416, "longitude": -93.4413948, "care_type": "Plastic Surgeon"}, {"name": "The Skin Standard", "address": "8108 Minnetonka Blvd, St Louis Park, MN 55426", "city": "St Louis Park", "phone": "+1 952-952-7546", "website": "https://www.theskinstandard.com/%3Futm_source%3Dgoogle%26utm_medium%3Dorganic%26utm_campaign%3Drohr", "rating": 4.7, "reviews": 42, "place_id": "ChIJDzexQbYh9ocRrMkYa3CH4ZY", "latitude": 44.9498933, "longitude": -93.382667, "care_type": "Plastic Surgeon"}, {"name": "Arijai Aesthetics and Wellness", "address": "200 E Travelers Trail UNIT 210, Burnsville, MN 55337", "city": "Burnsville", "phone": "+1 952-243-2100", "website": "https://arijai.com/", "rating": 4.6, "reviews": 114, "place_id": "ChIJvzJA4Vc49ocRo1Kvdcxmst8", "latitude": 44.7758542, "longitude": -93.2742696, "care_type": "Plastic Surgeon"}, {"name": "Midwest Facial Plastic Surgery & FACE Cosmetic Skincare", "address": "11020 161st St W, Lakeville, MN 55044", "city": "Lakeville", "phone": "+1 651-632-9700", "website": "https://www.mw-fp.com/", "rating": 4.7, "reviews": 14, "place_id": "ChIJjcJJ0AU59ocRASp3D3iZ0fE", "latitude": 44.7156676, "longitude": -93.28894079999999, "care_type": "Plastic Surgeon"}, {"name": "Valley Skin & Medspa", "address": "7493 147th St W # 105, Apple Valley, MN 55124", "city": "Apple Valley", "phone": "+1 612-419-5060", "website": "http://www.valleyskinandmedspa.com/", "rating": 5.0, "reviews": 0, "place_id": "ChIJ76PZEhMx9ocRnWKArn14SQs", "latitude": 44.735313, "longitude": -93.2162565, "care_type": "Plastic Surgeon"}, {"name": "Park Nicollet Plastic Surgery Burnsville", "address": "14050 Fairview Dr Floor 2, Burnsville, MN 55337", "city": "Burnsville", "phone": "+1 952-993-6500", "website": "https://www.healthpartners.com/care/find/location/clinics/park-nicollet/burnsville/plastic-surgery/%3Futm_campaign%3Dplastics_locallistings_20m1_care_pn%26utm_source%3Dgooglemybusiness_%26utm_medium%3Dorganic%26utm_content%3Dpark-nicollet-plastic-surgery-burnsville_localpack_conversion%26utm_term%3D_v1__", "rating": null, "reviews": 0, "place_id": "ChIJr6tfMc479ocRuprti5T3DSU", "latitude": 44.7482864, "longitude": -93.2759143, "care_type": "Plastic Surgeon"}, {"name": "Dr. Peter A. Hilger, MD", "address": "5050 France Ave S #150, Edina, MN 55410", "city": "Edina", "phone": "+1 952-844-0404", "website": "https://mphysicians.org/hilger", "rating": 4.7, "reviews": 30, "place_id": "ChIJvWdHwBok9ocR1FXWzC5PyLc", "latitude": 44.9110084, "longitude": -93.3293691, "care_type": "Plastic Surgeon"}, {"name": "Richard H. Tholen, MD, FACS", "address": "Professional Building, 4825 Olson Mem Hwy Suite #200, Minneapolis, MN 55422", "city": "Minneapolis", "phone": "+1 763-545-0443", "website": "https://mpsmn.com/dr-richard-tholen/", "rating": 4.4, "reviews": 34, "place_id": "ChIJ75850X0zs1IRwx5u-3vMZcc", "latitude": 44.98371909999999, "longitude": -93.3405305, "care_type": "Plastic Surgeon"}, {"name": "Authentic Plastic Surgery", "address": "1563 Como Ave Suite 101, St Paul, MN 55108", "city": "St Paul", "phone": "+1 612-770-1995", "website": "http://www.authenticplasticsurgery.com/", "rating": 4.8, "reviews": 17, "place_id": "ChIJaUKp9sBKs1IRgzH7i3T0NZg", "latitude": 44.9775398, "longitude": -93.1660639, "care_type": "Plastic Surgeon"}, {"name": "Reveal Body Sculpting", "address": "3101 Old Hwy 8 UNIT 305, Roseville, MN 55113", "city": "Roseville", "phone": "+1 763-516-6001", "website": "http://revealbodysculpting.com/", "rating": 4.2, "reviews": 20, "place_id": "ChIJRTCKugkrs1IRFg5ohbyHAE0", "latitude": 45.034943, "longitude": -93.200948, "care_type": "Plastic Surgeon"}, {"name": "Dr. Warren Schubert, MD", "address": "401 Phalen Blvd, St Paul, MN 55130", "city": "St Paul", "phone": "+1 651-254-8290", "website": "http://www.healthpartners.com/", "rating": 4.3, "reviews": 6, "place_id": "ChIJeQ83507VslIR0EQaN5xfXGc", "latitude": 44.9648422, "longitude": -93.0845428, "care_type": "Plastic Surgeon"}, {"name": "Midwest Facial Plastic Surgery & FACE Cosmetic Skincare", "address": "3460 Promenade Ave, Eagan, MN 55123", "city": "Eagan", "phone": "+1 651-632-9700", "website": "https://www.mw-fp.com/%3Futm_source%3Dgoogle%26utm_medium%3Dorganic%26utm_campaign%3Dgbp%26utm_term%3DMidwest-Facial-Plastic-Surgery-%26-FACE-Cosmetic-Skincare-Eagan%26utm_content%3Dwebsite", "rating": 4.7, "reviews": 117, "place_id": "ChIJLaygD7st9ocRki2h6rjNZxY", "latitude": 44.8323097, "longitude": -93.1527527, "care_type": "Plastic Surgeon"}, {"name": "Christina Clinic", "address": "2338 Lexington Ave N, St Paul, MN 55113", "city": "St Paul", "phone": "+1 651-482-8912", "website": "https://www.christinaclinic.com/", "rating": 4.7, "reviews": 97, "place_id": "ChIJ-YRknrUrs1IRwREd2LlCiU4", "latitude": 45.0116119, "longitude": -93.1458663, "care_type": "Plastic Surgeon"}, {"name": "Clarus Dermatology - New Brighton", "address": "900 Long Lake Rd Suite 150, New Brighton, MN 55112", "city": "New Brighton", "phone": "+1 612-213-2370", "website": "https://clarusdermatology.com/areas-served/new-brighton-office/", "rating": 4.7, "reviews": 1240, "place_id": "ChIJLwQKYI8us1IROq6AkG9YSHs", "latitude": 45.0652501, "longitude": -93.1993933, "care_type": "Plastic Surgeon"}, {"name": "Dr. Hector Marcano", "address": "720 Washington Ave SE Ste 300, Minneapolis, MN 55414", "city": "Minneapolis", "phone": "+1 612-672-7422", "website": "", "rating": 5.0, "reviews": 1, "place_id": "ChIJA2yzhhgts1IR76yBLwbX5wc", "latitude": 44.9734748, "longitude": -93.22755649999999, "care_type": "Plastic Surgeon"}, {"name": "M Umar Hasan Choudry", "address": "420 Delaware St SE, Minneapolis, MN 55455", "city": "Minneapolis", "phone": "+1 612-625-0697", "website": "", "rating": 5.0, "reviews": 1, "place_id": "ChIJLSCIjj0ts1IRuSA6cJaeueI", "latitude": 44.9725684, "longitude": -93.2336608, "care_type": "Plastic Surgeon"}, {"name": "Buckley Marie C MD", "address": "516 Delaware St SE # 1E, Minneapolis, MN 55455", "city": "Minneapolis", "phone": "+1 612-624-5915", "website": "https://www.surgery.umn.edu/divisions/plastic-reconstructive-surgery", "rating": 5.0, "reviews": 4, "place_id": "ChIJT4OQZz0ts1IRtySqK3RmwvE", "latitude": 44.9722697, "longitude": -93.2315756, "care_type": "Plastic Surgeon"}, {"name": "Dr. Paul K. Lim, MD", "address": "2220 Riverside Ave, Minneapolis, MN 55454", "city": "Minneapolis", "phone": "+1 952-967-7175", "website": "http://www.healthpartners.com/", "rating": null, "reviews": 0, "place_id": "ChIJrYRYREcts1IRF646MVF5zDA", "latitude": 44.9680541, "longitude": -93.2400899, "care_type": "Plastic Surgeon"}, {"name": "Thomas Suszynski", "address": "720 Washington Ave SE Ste 300, Minneapolis, MN 55414", "city": "Minneapolis", "phone": "+1 612-672-7422", "website": "https://providers.mhealthfairview.org/provider/thomas-suszynski/2241027", "rating": 4.0, "reviews": 4, "place_id": "ChIJA2yzhhgts1IRldfB3c1uHgo", "latitude": 44.9734748, "longitude": -93.22755649999999, "care_type": "Plastic Surgeon"}, {"name": "Nicholas Kim", "address": "909 Fulton St SE, Minneapolis, MN 55455", "city": "Minneapolis", "phone": "+1 612-273-8383", "website": "", "rating": null, "reviews": 0, "place_id": "ChIJBwAAfyEts1IRywHRYrWkGDI", "latitude": 44.9707763, "longitude": -93.2248323, "care_type": "Plastic Surgeon"}, {"name": "Marie-Claire Buckley, MD", "address": "909 Fulton St SE, Minneapolis, MN 55455", "city": "Minneapolis", "phone": "+1 612-624-9707", "website": "https://www.mhealth.org/providers/buckleymarieclaire-521720886", "rating": 5.0, "reviews": 0, "place_id": "ChIJHV4n6wwts1IRGboLd8DE-60", "latitude": 44.9708385, "longitude": -93.22497949999999, "care_type": "Plastic Surgeon"}, {"name": "North Metro Dermatology", "address": "400 Village Center Dr Suite 200, North Oaks, MN 55127", "city": "North Oaks", "phone": "+1 651-789-9800", "website": "https://northmetroderm.com/", "rating": 5.0, "reviews": 0, "place_id": "ChIJ5cNigCYos1IRKBnkC3MdIqY", "latitude": 45.0814274, "longitude": -93.11573969999999, "care_type": "Plastic Surgeon"}, {"name": "John Houle, MD", "address": "3701 12th St N, St Cloud, MN 56303", "city": "St Cloud", "phone": "+1 320-253-7257", "website": "https://www.centracare.com/doctors/profile/john-houle/", "rating": 3.7, "reviews": 6, "place_id": "ChIJSwooYFhetFIRZCiDpDnoAXs", "latitude": 45.57386839999999, "longitude": -94.20379969999999, "care_type": "Plastic Surgeon"}, {"name": "Dr. Jonathan Witzke", "address": "401 Phalen Blvd, St Paul, MN 55130", "city": "St Paul", "phone": "+1 651-254-7400", "website": "", "rating": null, "reviews": 0, "place_id": "ChIJAQDA3E7VslIRg4rnhB2T5W8", "latitude": 44.9649544, "longitude": -93.0843819, "care_type": "Plastic Surgeon"}, {"name": "Zachary Farhood", "address": "3460 Promenade Ave, Eagan, MN 55123", "city": "Eagan", "phone": "+1 651-641-6134", "website": "https://www.mw-fp.com/facial-plastic-surgery-team-st-paul/dr-zachary-farhood/", "rating": 5.0, "reviews": 21, "place_id": "ChIJq6qa17st9ocRQPUc_KdWWw8", "latitude": 44.8323309, "longitude": -93.1527515, "care_type": "Plastic Surgeon"}, {"name": "Riverview Facial Plastic Surgery", "address": "991 Sibley Memorial Hwy #202, St Paul, MN 55118", "city": "St Paul", "phone": "+1 651-493-8501", "website": "http://www.riverviewfacialplastic.com/", "rating": 4.8, "reviews": 55, "place_id": "ChIJtfsemJ8r9ocR7lIIf11TLSM", "latitude": 44.8998852, "longitude": -93.1397229, "care_type": "Plastic Surgeon"}, {"name": "Enhance MD Body Hair & Skin Clinic", "address": "5565 Blaine Ave E Suite 250, Inver Grove Heights, MN 55076", "city": "Inver Grove Heights", "phone": "+1 651-222-3127", "website": "https://enhancemdbodyhairandskin.com/", "rating": 4.8, "reviews": 84, "place_id": "ChIJezvanmEr9ocRKZ3tPCPGTS8", "latitude": 44.8680903, "longitude": -93.05459239999999, "care_type": "Plastic Surgeon"}, {"name": "Plastic Surgery Consultants, Ltd", "address": "1110 Yankee Doodle Rd, Eagan, MN 55123", "city": "Eagan", "phone": "+1 651-454-3970", "website": "", "rating": null, "reviews": 0, "place_id": "ChIJFw0dL7st9ocRLqsSKLZDUYQ", "latitude": 44.8327687, "longitude": -93.1481712, "care_type": "Plastic Surgeon"}, {"name": "Garrett R. Griffin, M.D.", "address": "3460 Promenade Ave, Eagan, MN 55123", "city": "Eagan", "phone": "+1 651-452-6676", "website": "http://www.mw-fp.com/", "rating": 5.0, "reviews": 1, "place_id": "ChIJPacEDrst9ocRQDxaEDIKIaU", "latitude": 44.832118, "longitude": -93.14975299999999, "care_type": "Plastic Surgeon"}, {"name": "Kurtis Waters, MD", "address": "720 Main St UNIT 209, Mendota Heights, MN 55118", "city": "Mendota Heights", "phone": "+1 612-464-5239", "website": "https://www.advancedspecialtyassociates.com/", "rating": null, "reviews": 0, "place_id": "ChIJPcYMCDwr9ocROg8dfUS5vXo", "latitude": 44.8849446, "longitude": -93.1206989, "care_type": "Plastic Surgeon"}, {"name": "Advanced Specialty Associates", "address": "720 Main St UNIT 209, Mendota Heights, MN 55118", "city": "Mendota Heights", "phone": "+1 612-464-5239", "website": "https://www.advancedspecialtyassociates.com/locations/the-village-mendota-heights/%3Fy_source%3D1_MTA4MjA0NTI5OS03MTUtbG9jYXRpb24ud2Vic2l0ZQ%253D%253D", "rating": 5.0, "reviews": 2, "place_id": "ChIJ302NTAYr9ocRy1o337BFIsQ", "latitude": 44.884707, "longitude": -93.120567, "care_type": "Plastic Surgeon"}, {"name": "Ethan Kraft, MD - Otolaryngologist", "address": "720 Main St UNIT 209, Mendota Heights, MN 55118", "city": "Mendota Heights", "phone": "+1 612-464-5239", "website": "https://www.advancedspecialtyassociates.com/", "rating": null, "reviews": 0, "place_id": "ChIJfR5jUWkr9ocR7k52PETgd0s", "latitude": 44.8849446, "longitude": -93.1206989, "care_type": "Plastic Surgeon"}, {"name": "Philip Manger, MD - Otolaryngologist", "address": "720 Main St UNIT 209, Mendota Heights, MN 55118", "city": "Mendota Heights", "phone": "+1 612-464-5239", "website": "https://www.advancedspecialtyassociates.com/", "rating": null, "reviews": 0, "place_id": "ChIJ04lkuFkr9ocR0z_3QxmFfvM", "latitude": 44.8849446, "longitude": -93.1206989, "care_type": "Plastic Surgeon"}, {"name": "Hush Aesthetics", "address": "3460 Washington Dr # 100, Eagan, MN 55122", "city": "Eagan", "phone": "+1 612-463-0863", "website": "https://hushaestheticsandmedspa.com/", "rating": 4.9, "reviews": 55, "place_id": "ChIJOax3Vy0t9ocR6EoYnvwLpjg", "latitude": 44.8304201, "longitude": -93.17035709999999, "care_type": "Plastic Surgeon"}, {"name": "Sundara Medical Spa", "address": "8063 Hadley Ave S, Cottage Grove, MN 55016", "city": "Cottage Grove", "phone": "+1 651-295-9291", "website": "", "rating": 5.0, "reviews": 0, "place_id": "ChIJH8GzIxrR94cRZYCmC7oKF0I", "latitude": 44.8327182, "longitude": -92.967811, "care_type": "Plastic Surgeon"}, {"name": "HealthPartners Plastic Surgery and Dermatology Woodbury", "address": "1000 Radio Dr #120, Woodbury, MN 55125", "city": "Woodbury", "phone": "+1 651-495-6865", "website": "https://www.healthpartners.com/lp/care/woodbury-specialty-clinic/%3Futm_campaign%3Dprimarycare_locallistings_20m2_care_hp%26utm_source%3Dgooglemybusiness_%26utm_medium%3Dorganic%26utm_content%3Dhealthpartners-plastic-surgery-woodbury_localpack_conversion%26utm_term%3D_v1__", "rating": 3.0, "reviews": 18, "place_id": "ChIJ3wDkygHX94cR-HAgMPoV9jc", "latitude": 44.9346187, "longitude": -92.9354664, "care_type": "Plastic Surgeon"}, {"name": "ReNew You Medical Spa", "address": "19021 Freeport St Suite 100, Elk River, MN 55330", "city": "Elk River", "phone": "+1 763-515-6492", "website": "http://www.renewyoumedical.com/", "rating": 4.9, "reviews": 261, "place_id": "ChIJfyMZW0tps1IRrEyxAFzLbOY", "latitude": 45.3139593, "longitude": -93.5605023, "care_type": "Plastic Surgeon"}, {"name": "Scenic Dermatology", "address": "1200 Chaska Creek Way Suite 220, Chaska, MN 55318", "city": "Chaska", "phone": "+1 952-520-5000", "website": "https://www.scenicdermatology.com/", "rating": 5.0, "reviews": 121, "place_id": "ChIJu3y3W5EF9ocRApNOmcajHXE", "latitude": 44.8052303, "longitude": -93.63149729999999, "care_type": "Plastic Surgeon"}, {"name": "Jim", "address": "1107 Hazeltine Blvd #500, Chaska, MN 55318", "city": "Chaska", "phone": "+1 612-252-3699", "website": "https://jimmyzdzd.com/", "rating": 4.8, "reviews": 66, "place_id": "ChIJu4PPD94E9ocRgYJYXNOvBFI", "latitude": 44.8359696, "longitude": -93.5991909, "care_type": "Plastic Surgeon"}, {"name": "Authentic Plastic Surgery LLC", "address": "1415 W 35th St Suite A, Minneapolis, MN 55408", "city": "Minneapolis", "phone": "+1 612-770-1995", "website": "http://authenticplasticsurgery.com/", "rating": null, "reviews": 0, "place_id": "ChIJqw6KlnAn9ocRiEmemJjf8Fo", "latitude": 44.9393237, "longitude": -93.2980312, "care_type": "Plastic Surgeon"}, {"name": "Children's Minnesota ENT and Facial Plastic Surgery", "address": "2530 Chicago Ave STE 450, Minneapolis, MN 55404", "city": "Minneapolis", "phone": "+1 612-874-1292", "website": "https://www.childrensmn.org/services/care-specialties-departments/ear-nose-throat-ent-facial-plastic-surgery/", "rating": 3.1, "reviews": 20, "place_id": "ChIJ-UBpm6sys1IRgYd6boG1XeA", "latitude": 44.956672, "longitude": -93.263046, "care_type": "Plastic Surgeon"}, {"name": "Dr. Allen L. Van Beek, MD", "address": "3300 Oakdale Ave N, Minneapolis, MN 55422", "city": "Minneapolis", "phone": "+1 763-520-5200", "website": "http://www.drvanbeekplastics.com/", "rating": 5.0, "reviews": 8, "place_id": "ChIJW_kdvsMzs1IRjmjiqNpERdg", "latitude": 45.0139518, "longitude": -93.3221198, "care_type": "Plastic Surgeon"}, {"name": "Daniel Schneider, MD", "address": "991 Sibley Memorial Hwy #202, St Paul, MN 55118", "city": "St Paul", "phone": "+1 612-464-5239", "website": "", "rating": 4.3, "reviews": 3, "place_id": "ChIJ1yp_M5Urs1IRQ3bbZuhPQYc", "latitude": 44.8998852, "longitude": -93.1397229, "care_type": "Plastic Surgeon"}, {"name": "Craig Johnson, MD", "address": "310 Smith Ave N #330, St Paul, MN 55102", "city": "St Paul", "phone": "+1 651-241-6800", "website": "https://account.allinahealth.org/providers/18129%3Futm_source%3Dgmb%26utm_medium%3Dorganic%26utm_content%3Dweb-url%26utm_campaign%3Dgmb_website%26utm_term%3Dcraig-johnson", "rating": 3.2, "reviews": 5, "place_id": "ChIJU1tKd9Ar9ocR6zzO8mCRgmw", "latitude": 44.942008, "longitude": -93.1076697, "care_type": "Plastic Surgeon"}, {"name": "Dr. Hector Marcano", "address": "1575 Beam Ave, St Paul, MN 55109", "city": "St Paul", "phone": "+1 651-232-7000", "website": "", "rating": 5.0, "reviews": 1, "place_id": "ChIJg-U5nQTUslIRpdICQ2ZQHAU", "latitude": 45.0297443, "longitude": -93.0332131, "care_type": "Plastic Surgeon"}, {"name": "Hoffman James A MD", "address": "2173 Selby Ave, St Paul, MN 55104", "city": "St Paul", "phone": "+1 651-647-1624", "website": "", "rating": 1.0, "reviews": 1, "place_id": "ChIJI-WK8-Up9ocR6DP_wmiyN9A", "latitude": 44.9464411, "longitude": -93.1920446, "care_type": "Plastic Surgeon"}, {"name": "Dr. Joseph I. Skow, MD", "address": "393 N Dunlap St # 832, St Paul, MN 55104", "city": "St Paul", "phone": "+1 651-646-2717", "website": "", "rating": null, "reviews": 0, "place_id": "ChIJaWMzO3cq9ocRcXh_oRl2aPQ", "latitude": 44.9527815, "longitude": -93.14989349999999, "care_type": "Plastic Surgeon"}, {"name": "Kalliainen Loree MD", "address": "640 Jackson St ms11503b, St Paul, MN 55101", "city": "St Paul", "phone": "+1 651-254-4870", "website": "http://healthpartners.com/", "rating": null, "reviews": 0, "place_id": "ChIJWUg0-VTV94cRh70Cgg5Q834", "latitude": 44.9555551, "longitude": -93.0950009, "care_type": "Plastic Surgeon"}, {"name": "Ashish Mahajan", "address": "640 Jackson St West Parking, St Paul, MN 55101", "city": "St Paul", "phone": "+1 651-254-2300", "website": "https://www.healthpartners.com/care/find/doctor/104341/", "rating": null, "reviews": 0, "place_id": "ChIJuXoBVlTV94cRk1_H50mEcmU", "latitude": 44.9555393, "longitude": -93.0951838, "care_type": "Plastic Surgeon"}, {"name": "Luminous You, Elegant Aesthetic, IV Hydration and Wellness.", "address": "758 Grand Ave, St Paul, MN 55105", "city": "St Paul", "phone": "+1 651-900-1295", "website": "http://luminous-you.com/", "rating": 4.8, "reviews": 77, "place_id": "ChIJ7-XuA2cq9ocRmOWQE5rKT9k", "latitude": 44.9396129, "longitude": -93.1320957, "care_type": "Plastic Surgeon"}, {"name": "Allina Health Bandana Square Clinic", "address": "1021 Bandana Blvd E #100, St Paul, MN 55108", "city": "St Paul", "phone": "+1 651-241-9700", "website": "https://account.allinahealth.org/locations/118%3Futm_source%3Dgmb%26utm_medium%3Dorganic%26utm_content%3Dweb-url%26utm_campaign%3Dgmb_website%26utm_term%3DAllina-Health-Bandana-Square-Clinic", "rating": 4.3, "reviews": 708, "place_id": "ChIJjbw7Qjwrs1IRJtqSamqI4Hw", "latitude": 44.9717265, "longitude": -93.1527845, "care_type": "Plastic Surgeon"}, {"name": "Dr. Joseph L. Campanelli, MD", "address": "225 Smith Ave N #502a, St Paul, MN 55102", "city": "St Paul", "phone": "+1 651-645-0691", "website": "", "rating": null, "reviews": 0, "place_id": "ChIJzZ0ozLAq9ocRl4RhXE5EjPo", "latitude": 44.9441827, "longitude": -93.10608289999999, "care_type": "Plastic Surgeon"}, {"name": "Matthew E. Braza, MD", "address": "6545 France Ave S #350, Edina, MN 55435", "city": "Edina", "phone": "+1 952-920-2600", "website": "https://midwestplasticsurgery.net/pages/dr-mathhew-braza-m-d", "rating": 5.0, "reviews": 7, "place_id": "ChIJg2OwhxQn9ocReY98sAUkFNY", "latitude": 44.8847388, "longitude": -93.327426, "care_type": "Plastic Surgeon"}, {"name": "Athens Hair Transplants", "address": "6545 France Ave S #480, Edina, MN 55435", "city": "Edina", "phone": "+1 612-405-4883", "website": "https://athenshair.com/", "rating": 4.3, "reviews": 22, "place_id": "ChIJB_n7zLMn9ocRZ2V0JN451KM", "latitude": 44.8849506, "longitude": -93.3276681, "care_type": "Plastic Surgeon"}, {"name": "Pretty Woman", "address": "7104 Chicago Ave, Richfield, MN 55423", "city": "Richfield", "phone": "+1 727-858-5033", "website": "https://prettywomanmakeup.com/", "rating": 5.0, "reviews": 1, "place_id": "ChIJAQDE__sl9ocRiKu-E2YyFVE", "latitude": 44.8740558, "longitude": -93.2634597, "care_type": "Plastic Surgeon"}, {"name": "Jeffrey Mella, MD", "address": "5050 France Ave S #150, Minneapolis, MN 55410", "city": "Minneapolis", "phone": "+1 952-844-0404", "website": "https://mphysicians.org/hilger", "rating": 3.7, "reviews": 6, "place_id": "ChIJNTHdv3En9ocR41X7AnvtImc", "latitude": 44.9109718, "longitude": -93.3293638, "care_type": "Plastic Surgeon"}, {"name": "Dr. Matthew Camp", "address": "7373 France Ave S STE 304, Edina, MN 55435", "city": "Edina", "phone": "+1 507-383-3134", "website": "", "rating": 1.0, "reviews": 2, "place_id": "ChIJxV0v6hok9ocRwNf1bM7FkNA", "latitude": 44.8690942, "longitude": -93.3274398, "care_type": "Plastic Surgeon"}, {"name": "Themistocles Economou", "address": "7760 France Ave S Suite 1000, Bloomington, MN 55435", "city": "Bloomington", "phone": "+1 952-746-6767", "website": "", "rating": null, "reviews": 0, "place_id": "ChIJ35k7rg0k9ocR8EWuh0qLdUk", "latitude": 44.8610844, "longitude": -93.33091929999999, "care_type": "Plastic Surgeon"}, {"name": "Wood Robert J MD", "address": "6545 France Ave S #276, Edina, MN 55435", "city": "Edina", "phone": "+1 952-929-4462", "website": "", "rating": null, "reviews": 0, "place_id": "ChIJB5kUDqUm9ocRUkOTxv9ALgQ", "latitude": 44.8844852, "longitude": -93.3273248, "care_type": "Plastic Surgeon"}, {"name": "Dr. Marie-Claire Buckley, MD", "address": "6401 France Ave S, Edina, MN 55435", "city": "Edina", "phone": "+1 952-924-5000", "website": "http://www.fairview.org/", "rating": null, "reviews": 0, "place_id": "ChIJqZad0rom9ocRCy60woT-ILw", "latitude": 44.8862125, "longitude": -93.3269189, "care_type": "Plastic Surgeon"}, {"name": "Jonathan Mccue", "address": "7373 France Ave S Suite 510, Edina, MN 55435", "city": "Edina", "phone": "+1 952-830-0089", "website": "https://mccueplasticsurgery.com/", "rating": null, "reviews": 0, "place_id": "ChIJVVUV6hok9ocRLZmPUrJsNoE", "latitude": 44.8690425, "longitude": -93.3274806, "care_type": "Plastic Surgeon"}, {"name": "Omni Cosmetic - St. Cloud", "address": "628 Roosevelt Rd Suite 102, St Cloud, MN 56301", "city": "St Cloud", "phone": "+1 320-200-7610", "website": "https://omnicosmetic.com/%3Fy_source%3D1_MzE0NjAzMzItNzE1LWxvY2F0aW9uLndlYnNpdGU%253D", "rating": 4.7, "reviews": 37, "place_id": "ChIJIar8ZnRftFIR8fcg205cK3Q", "latitude": 45.54631819999999, "longitude": -94.18413989999999, "care_type": "Plastic Surgeon"}, {"name": "Thomas Satterberg, MD", "address": "3701 12th St N, St Cloud, MN 56303", "city": "St Cloud", "phone": "+1 320-253-7257", "website": "https://www.centracare.com/doctors/profile/thomas-satterberg/", "rating": 5.0, "reviews": 2, "place_id": "ChIJSwooYFhetFIRWiCyhLay-4g", "latitude": 45.57386839999999, "longitude": -94.20379969999999, "care_type": "Plastic Surgeon"}, {"name": "CentraCare - Midsota MedSpa", "address": "3701 12th St N STE 100, St Cloud, MN 56303", "city": "St Cloud", "phone": "+1 320-253-7257", "website": "https://midsota.centracare.com/medspa/", "rating": null, "reviews": 0, "place_id": "ChIJtbuQjItftFIRlllfjBFocE4", "latitude": 45.5739815, "longitude": -94.2038795, "care_type": "Plastic Surgeon"}, {"name": "Henry Yang, MD", "address": "3701 12th St N, St Cloud, MN 56303", "city": "St Cloud", "phone": "+1 320-253-7257", "website": "https://www.centracare.com/doctors/profile/henry-yang/", "rating": 3.0, "reviews": 5, "place_id": "ChIJHwsoYFhetFIRgtrw6EG4O0Q", "latitude": 45.57386839999999, "longitude": -94.20379969999999, "care_type": "Plastic Surgeon"}, {"name": "Katie Holst, PA-C", "address": "3701 12th St N, St Cloud, MN 56303", "city": "St Cloud", "phone": "+1 320-253-7257", "website": "https://www.centracare.com/doctors/profile/katie-holst/", "rating": null, "reviews": 0, "place_id": "ChIJsSiMY6JftFIRAE7YqER4R54", "latitude": 45.57386839999999, "longitude": -94.20379969999999, "care_type": "Plastic Surgeon"}, {"name": "Susan Luetmer, PA-C", "address": "3701 12th St N, St Cloud, MN 56303", "city": "St Cloud", "phone": "+1 320-253-7257", "website": "https://www.centracare.com/doctors/profile/susan-luetmer/", "rating": null, "reviews": 0, "place_id": "ChIJoePKdn5ftFIROlasfwZgYO8", "latitude": 45.57386839999999, "longitude": -94.20379969999999, "care_type": "Plastic Surgeon"}, {"name": "Brittany Tomczik, MSPAS, PA-C", "address": "3701 12th St N, St Cloud, MN 56303", "city": "St Cloud", "phone": "+1 320-253-7257", "website": "https://www.centracare.com/doctors/profile/brittany-tomczik/", "rating": null, "reviews": 0, "place_id": "ChIJyyP18LdftFIRpuelO0ciQvk", "latitude": 45.57386839999999, "longitude": -94.20379969999999, "care_type": "Plastic Surgeon"}, {"name": "Chapter Aesthetic Studio", "address": "3578 Main St NW, Coon Rapids, MN 55448", "city": "Coon Rapids", "phone": "+1 763-349-8678", "website": "https://www.mychapter.com/locations/mn/coon-rapids/3578-main-street-nw/%3Futm_source%3DGoogle_Places%26utm_medium%3DBirdeye_Listings%26utm_campaign%3Dcoon-rapids,mn", "rating": 4.4, "reviews": 138, "place_id": "ChIJc4QXkJs9s1IRhMtBxnuT1yY", "latitude": 45.1971002, "longitude": -93.35677559999999, "care_type": "Plastic Surgeon"}, {"name": "Rachel Dahlen, RN Cosmetic Nurse | Botox & Juvederm | Savage & Prior Lake MN", "address": "7533 Egan Dr Suit A, Savage, MN 55378", "city": "Savage", "phone": "+1 952-222-8338", "website": "http://racheldahlen.com/", "rating": 5.0, "reviews": 0, "place_id": "ChIJQ_nxDgE99ocRncq2fUiBkK0", "latitude": 44.7457188, "longitude": -93.3768042, "care_type": "Plastic Surgeon"}, {"name": "Uptown Medispa", "address": "14033 Commerce Ave NE Suite 120, Prior Lake, MN 55372", "city": "Prior Lake", "phone": "+1 612-470-5893", "website": "http://www.uptownmedispa.com/", "rating": 4.9, "reviews": 0, "place_id": "ChIJfWPY-iE99ocRknpNlcr9qtI", "latitude": 44.7459736, "longitude": -93.380701, "care_type": "Plastic Surgeon"}, {"name": "Skin Sanctuary Med Spa", "address": "15045A Mystic Lake Dr, Prior Lake, MN 55372", "city": "Prior Lake", "phone": "+1 612-900-7261", "website": "http://www.skinsanctuarymedspamn.com/", "rating": 4.8, "reviews": 0, "place_id": "ChIJxX3aMEsW9ocRIfBGSq47fLw", "latitude": 44.7313278, "longitude": -93.4688774, "care_type": "Plastic Surgeon"}, {"name": "Simply You, Nurse Aesthetics", "address": "4769 Dakota St SE #4, Prior Lake, MN 55372", "city": "Prior Lake", "phone": "+1 612-214-7613", "website": "https://simplyyounurse.com/", "rating": 5.0, "reviews": 0, "place_id": "ChIJT1MiN-AWXqMRIES1Ebzh1N8", "latitude": 44.7146251, "longitude": -93.42363329999999, "care_type": "Plastic Surgeon"}, {"name": "Neel S. Joshi, MD", "address": "1601 St Francis Ave Suite 200, Shakopee, MN 55379", "city": "Shakopee", "phone": "+1 651-241-6800", "website": "https://www.stfrancis-shakopee.com/provider-directory/providers/neel-joshi-md/", "rating": 5.0, "reviews": 4, "place_id": "ChIJEw_3p9QR9ocRQXhaHC-d4L0", "latitude": 44.7710746, "longitude": -93.50121399999999, "care_type": "Plastic Surgeon"}, {"name": "CV Natural Beauty", "address": "15875 Franklin Trail SE unit 108, Prior Lake, MN 55372", "city": "Prior Lake", "phone": "+1 612-249-0584", "website": "https://www.cvnaturalbeauty.com/", "rating": 4.7, "reviews": 0, "place_id": "ChIJbcey2KE99ocRD6Yo7Y1H6Ss", "latitude": 44.7187863, "longitude": -93.4141528, "care_type": "Plastic Surgeon"}, {"name": "Witzke Plastic Surgery", "address": "1601 St Francis Ave, Shakopee, MN 55379", "city": "Shakopee", "phone": "+1 952-893-3000", "website": "", "rating": null, "reviews": 0, "place_id": "ChIJvfBwQM0Q9ocRGbGhrYn9m8E", "latitude": 44.7710337, "longitude": -93.5011518, "care_type": "Plastic Surgeon"}, {"name": "Subtle Beauty Aesthetics", "address": "300 1st Ave E, Shakopee, MN 55379", "city": "Shakopee", "phone": "+1 952-233-7389", "website": "http://www.eckartdental.com/", "rating": 5.0, "reviews": 0, "place_id": "ChIJ9VOJUnQa9ocRG68kGhCUAcU", "latitude": 44.7994923, "longitude": -93.5221835, "care_type": "Plastic Surgeon"}, {"name": "Neel S. Joshi, MD", "address": "18465 Orchard Trail Suite 350, Lakeville, MN 55044", "city": "Lakeville", "phone": "+1 651-241-6800", "website": "https://account.allinahealth.org/providers/20765", "rating": 5.0, "reviews": 2, "place_id": "ChIJkQzZmKY59ocRSUZr_1q4LLA", "latitude": 44.681644, "longitude": -93.2868247, "care_type": "Plastic Surgeon"}, {"name": "Integra Dermatology", "address": "5725 Loftus Ln, Savage, MN 55378", "city": "Savage", "phone": "+1 612-767-6000", "website": "http://www.integradermatology.com/", "rating": 4.4, "reviews": 0, "place_id": "ChIJdcuSzfI79ocR9COguqsxCyw", "latitude": 44.7472706, "longitude": -93.35313959999999, "care_type": "Plastic Surgeon"}, {"name": "ARIJAI AESTHETIC ACADEMY", "address": "200 E Travelers Trail # 225, Burnsville, MN 55337", "city": "Burnsville", "phone": "+1 952-435-0605", "website": "https://arijai.com/", "rating": null, "reviews": 0, "place_id": "ChIJ2fxsn0Y79ocRaa8hOAqE4qY", "latitude": 44.775896, "longitude": -93.2741209, "care_type": "Plastic Surgeon"}, {"name": "Advanced Dermatology & Cosmetic Institute P.A.", "address": "1515 St Francis Ave # 250, Shakopee, MN 55379", "city": "Shakopee", "phone": "+1 952-915-6000", "website": "https://skintherapy.com/", "rating": 5.0, "reviews": 1, "place_id": "ChIJ19RJHc0Q9ocRfCuXHieam_Q", "latitude": 44.771246, "longitude": -93.5020662, "care_type": "Plastic Surgeon"}, {"name": "William J. Lipham, M.D., F.A.C.S.", "address": "9801 Dupont Ave S #200L, Bloomington, MN 55431", "city": "Bloomington", "phone": "+1 952-888-5800", "website": "http://www.mneye.com/william-j-lipham-md-facs-optometrist-minnetonka.htm", "rating": 4.4, "reviews": 111, "place_id": "ChIJpSI6Rhkl9ocRJbl8benrUF4", "latitude": 44.825902, "longitude": -93.292954, "care_type": "Plastic Surgeon"}, {"name": "MATTHEW CAMP, M.D.", "address": "14000 Nicollet Ave #304, Burnsville, MN 55337", "city": "Burnsville", "phone": "+1 952-898-1600", "website": "http://www.skincaredrs.com/", "rating": null, "reviews": 0, "place_id": "ChIJo7pNJEA69ocRpJ7Iu8WGzuQ", "latitude": 44.7490434, "longitude": -93.2789076, "care_type": "Plastic Surgeon"}, {"name": "Stephanie Astor Aesthetics", "address": "755 Prairie Center Dr, Eden Prairie, MN 55344", "city": "Eden Prairie", "phone": "+1 952-829-8426", "website": "https://www.stephanieastoraesthetics.com/", "rating": 5.0, "reviews": 14, "place_id": "ChIJdTWetrgZ9ocRUrkvpUC17Og", "latitude": 44.8563077, "longitude": -93.4373354, "care_type": "Plastic Surgeon"}, {"name": "Diehl James MD", "address": "10530 W Riverview Dr, Eden Prairie, MN 55347", "city": "Eden Prairie", "phone": "+1 952-944-0384", "website": "", "rating": null, "reviews": 0, "place_id": "ChIJy7E8YQ4Y9ocR3DQN6yUj81c", "latitude": 44.8128178, "longitude": -93.42725949999999, "care_type": "Plastic Surgeon"}, {"name": "Jill S. Melicher, M.D.", "address": "11091 Ulysses St NE #300m, Blaine, MN 55434", "city": "Blaine", "phone": "+1 763-421-9410", "website": "https://www.mneye.com/our-team-minneapolis/jill-s-melicher-m-d/", "rating": 4.9, "reviews": 200, "place_id": "ChIJh1RiCXsks1IRAQlmjt6d_Ng", "latitude": 45.1714243, "longitude": -93.2359268, "care_type": "Plastic Surgeon"}, {"name": "Mahjouri Cosmetic Surgery & Skincare Clinic", "address": "500 Osborne Rd NE #130, Fridley, MN 55432", "city": "Fridley", "phone": "+1 763-780-2770", "website": "https://www.mahjouricosmeticsurgery.com/", "rating": 4.3, "reviews": 61, "place_id": "ChIJ49qEKVwls1IR3xPW1EzclQk", "latitude": 45.1064685, "longitude": -93.2592596, "care_type": "Plastic Surgeon"}, {"name": "Winona Health - Plastic & Cosmetic Surgery", "address": "855 Mankato Ave #2, Winona, MN 55987", "city": "Winona", "phone": "+1 507-474-3152", "website": "https://www.winonahealth.org/health-care-providers-and-services/plastic-cosmetic-surgery/%3Futm_source%3DGMBSocialClimb%26utm_medium%3DPlastic%2526CosmeticSurgery-WinonaHealth", "rating": 4.8, "reviews": 91, "place_id": "ChIJ64PgfURs-YcRM1jt6gsTALM", "latitude": 44.0332355, "longitude": -91.62393209999999, "care_type": "Plastic Surgeon"}, {"name": "Mind Body Skin Medspa and Wellness", "address": "7625 Egan Dr, Savage, MN 55378", "city": "Savage", "phone": "+1 612-590-7762", "website": "https://www.mindbodyskinmed.com/", "rating": 5.0, "reviews": 87, "place_id": "ChIJn1X4kdQ99ocRKWdT6H5TUJ4", "latitude": 44.7452854, "longitude": -93.3780587, "care_type": "Plastic Surgeon"}, {"name": "Jason Buseman", "address": "14000 Fairview Dr, Burnsville, MN 55337", "city": "Burnsville", "phone": "+1 952-993-3504", "website": "https://www.healthpartners.com/care/find/doctor/109828/", "rating": null, "reviews": 0, "place_id": "ChIJVVWVEGs69ocR2z_we2P6AwA", "latitude": 44.7490864, "longitude": -93.2752596, "care_type": "Plastic Surgeon"}, {"name": "AesthetIQ Med Spa", "address": "900 Inwood Ave N, Oakdale, MN 55128", "city": "Oakdale", "phone": "+1 651-340-4318", "website": "https://www.aesthetiqmedspa.com/%3Futm_source%3Dgoogle%26utm_medium%3Dorganic%26utm_campaign%3Dgbp%26utm_id%3D2060digital", "rating": 5.0, "reviews": 0, "place_id": "ChIJ6RGuG-fZ94cRCSPkONJPI6I", "latitude": 44.9616702, "longitude": -92.9348478, "care_type": "Plastic Surgeon"}, {"name": "AESTHETIQ Institute", "address": "902 Inwood Ave N A, Oakdale, MN 55128", "city": "Oakdale", "phone": "+1 651-340-4318", "website": "https://www.aesthetiqinstitute.com/%3Futm_source%3Dgoogle%26utm_medium%3Dorganic%26utm_campaign%3Dgbp%26utm_id%3D2060digital", "rating": 5.0, "reviews": 0, "place_id": "ChIJwbNv97rZ94cRmJlYr8HURSo", "latitude": 44.96169, "longitude": -92.9348337, "care_type": "Plastic Surgeon"}, {"name": "Inner Swan Aesthetics", "address": "11200 Stillwater Blvd STE 101, Lake Elmo, MN 55042", "city": "Lake Elmo", "phone": "+1 651-295-7695", "website": "http://www.myinnerswan.com/", "rating": 5.0, "reviews": 20, "place_id": "ChIJXV6ZpaHNslIRx9qevPkZFSQ", "latitude": 45.0035006, "longitude": -92.8785908, "care_type": "Plastic Surgeon"}, {"name": "Dr. Jonathan Witzke", "address": "155 Radio Dr 1st floor, Woodbury, MN 55125", "city": "Woodbury", "phone": "+1 952-831-8742", "website": "", "rating": null, "reviews": 0, "place_id": "ChIJq6p6dBnY94cROefsuSwcyNg", "latitude": 44.9475417, "longitude": -92.9303542, "care_type": "Plastic Surgeon"}, {"name": "Children's Minnesota ENT and Facial Plastic Surgery, Audiology - Woodbury", "address": "628 Bielenberg Dr Suite 201, Woodbury, MN 55125", "city": "Woodbury", "phone": "+1 612-874-1292", "website": "https://www.childrensmn.org/locations/woodbury/%3Futm_source%3Dgoogle%26utm_medium%3Dorganic%26utm_campaign%3Dgmb%26utm_id%3Dwoodbury-ent-facial-plastic-surgery%26utm_content%3Dwebsite-link", "rating": 4.0, "reviews": 1, "place_id": "ChIJYVTtRdHX94cRVOJVRKAelug", "latitude": 44.9401793, "longitude": -92.9573264, "care_type": "Plastic Surgeon"}, {"name": "Cherrie Heinrich", "address": "155 Radio Dr, Woodbury, MN 55125", "city": "Woodbury", "phone": "+1 952-831-8742", "website": "https://www.healthpartners.com/care/find/doctor/68016/", "rating": null, "reviews": 0, "place_id": "ChIJq6p6dBnY94cRIppP1GDbA50", "latitude": 44.9475417, "longitude": -92.9303542, "care_type": "Plastic Surgeon"}, {"name": "Skin Artisans - Woodbury", "address": "237 Radio Dr Suite 115, Woodbury, MN 55125", "city": "Woodbury", "phone": "+1 651-252-1999", "website": "https://skinartisans.com/", "rating": 5.0, "reviews": 77, "place_id": "ChIJubiQYjzZ94cRFszFL14lW4w", "latitude": 44.9443616, "longitude": -92.9321587, "care_type": "Plastic Surgeon"}, {"name": "Thomas J Rishavy, MD - Northland Plastic Surgery", "address": "4316 Rice Lake Rd Ste 109, Duluth, MN 55811", "city": "Duluth", "phone": "+1 218-724-7363", "website": "http://www.northlandplasticsurgery.com/", "rating": 5.0, "reviews": 3, "place_id": "ChIJVWp9VNZSrlIReFY5gtlDFgo", "latitude": 46.825941, "longitude": -92.1323539, "care_type": "Plastic Surgeon"}, {"name": "Chelsey Johnson, MD", "address": "111 W Vernon Ave, Fergus Falls, MN 56537", "city": "Fergus Falls", "phone": "+1 218-739-2221", "website": "http://www.lrhc.org/", "rating": 5.0, "reviews": 3, "place_id": "ChIJ_wxllgp3yVIRKizcJOnGx8A", "latitude": 46.2768753, "longitude": -96.0736053, "care_type": "Plastic Surgeon"}, {"name": "Baylee Seiferlein,", "address": "111 W Vernon Ave, Fergus Falls, MN 56537", "city": "Fergus Falls", "phone": "+1 218-739-2221", "website": "http://www.lrhc.org/", "rating": null, "reviews": 0, "place_id": "ChIJNbdfYs13yVIRZoQ5LUgAkAk", "latitude": 46.2768753, "longitude": -96.0736053, "care_type": "Plastic Surgeon"}, {"name": "Andrea Delzer, PA", "address": "111 W Vernon Ave, Fergus Falls, MN 56537", "city": "Fergus Falls", "phone": "+1 218-739-2221", "website": "http://www.lrhc.org/", "rating": null, "reviews": 0, "place_id": "ChIJtVd2zoZ3yVIRSEZ-NsaiO_M", "latitude": 46.2768753, "longitude": -96.0736053, "care_type": "Plastic Surgeon"}, {"name": "Jacobson Plastic Surgery", "address": "2518 Superior Dr NW #104, Rochester, MN 55901", "city": "Rochester", "phone": "+1 507-398-1900", "website": "https://www.jacobsonplasticsurgery.com/%3Futm_source%3Dgoogle%26utm_medium%3Dorganic%26utm_campaign%3Dgbp%26utm_term%3DJacobson-Plastic-Surgery-Rochester%26utm_content%3Dwebsite", "rating": 4.8, "reviews": 46, "place_id": "ChIJNWFduRRe94cRSuANfTWp7Ks", "latitude": 44.0500437, "longitude": -92.5237861, "care_type": "Plastic Surgeon"}, {"name": "Sono Bello Rochester MN", "address": "975 34th Ave NW #410, Rochester, MN 55901", "city": "Rochester", "phone": "+1 507-405-5057", "website": "https://www.sonobello.com/", "rating": 5.0, "reviews": 34, "place_id": "ChIJR6TqZ7df94cR1p2dczNGJ-k", "latitude": 44.0354593, "longitude": -92.51636239999999, "care_type": "Plastic Surgeon"}, {"name": "Olmsted Medical Center - Plastic Surgery department", "address": "1650 4th St SE, Rochester, MN 55904", "city": "Rochester", "phone": "+1 507-529-6740", "website": "https://www.olmmed.org/clinical-services/plastic-surgery/%3Futm_source%3DOMC_Plastics%26utm_campaign%3DLocal-Listings%26utm_medium%3DGoogle-My-Business", "rating": 3.6, "reviews": 8, "place_id": "ChIJ392zn8fh-YcRQuhTJF0q19Y", "latitude": 44.0198318, "longitude": -92.43971189999999, "care_type": "Plastic Surgeon"}, {"name": "Srdan Babovic, MD", "address": "1650 4th St SE, Rochester, MN 55904", "city": "Rochester", "phone": "+1 507-529-6740", "website": "https://www.olmmed.org/find-a-provider/profile/%3Fid%3D66%26utm_source%3DOMC_Babovic%26utm_campaign%3DLocal-Listings%26utm_medium%3DGoogle-My-Business", "rating": 3.7, "reviews": 6, "place_id": "ChIJ392zn8fh-YcRfRT7peAP5Mk", "latitude": 44.0199627, "longitude": -92.4406499, "care_type": "Plastic Surgeon"}, {"name": "Christin A. Harless, M.D.", "address": "200 1st St SW, Rochester, MN 55905", "city": "Rochester", "phone": "+1 507-405-2240", "website": "https://www.mayoclinic.org/biographies/harless-christin-a-m-d/bio-20343911%3Fmc_id%3Dus%26utm_source%3Dgbp%26utm_medium%3Dl%26utm_content%3Dplasticsurgeonlistinglink%26utm_campaign%3Dmayoclinic%26geo%3Dmidwest%26placementsite%3Dminnesota%26invsrc%3Ddeptsurgery%26cauid%3D196126", "rating": 5.0, "reviews": 1, "place_id": "ChIJAQAAOXtf94cRq0IguQX9qdc", "latitude": 44.0226729, "longitude": -92.4667508, "care_type": "Plastic Surgeon"}, {"name": "Minnesota Society of Plastic Surgeons", "address": "West circle drive professional building, 2518 Superior Dr NW, Rochester, MN 55901", "city": "Rochester", "phone": "+1 612-867-6552", "website": "", "rating": null, "reviews": 0, "place_id": "ChIJ__8_uRRe94cRKUcq5pQIM_E", "latitude": 44.0500436, "longitude": -92.5237417, "care_type": "Plastic Surgeon"}, {"name": "Uldis Bite, M.D.", "address": "200 1st St SW, Rochester, MN 55905", "city": "Rochester", "phone": "+1 507-405-2240", "website": "https://www.mayoclinic.org/biographies/bite-uldis-m-d/bio-20053122%3Fmc_id%3Dus%26utm_source%3Dgbp%26utm_medium%3Dl%26utm_content%3Dplasticsurgeonlistinglink%26utm_campaign%3Dmayoclinic%26geo%3Dmidwest%26placementsite%3Dminnesota%26invsrc%3Ddeptsurgery%26cauid%3D196126", "rating": 5.0, "reviews": 2, "place_id": "ChIJB9eVNXtf94cRPSIyuAtbkDY", "latitude": 44.02218149999999, "longitude": -92.4666893, "care_type": "Plastic Surgeon"}, {"name": "Nho Van Tran, M.D.", "address": "200 1st St SW, Rochester, MN 55905", "city": "Rochester", "phone": "+1 507-405-2240", "website": "https://www.mayoclinic.org/biographies/tran-bill-v-m-d/bio-20054165%3Fmc_id%3Dus%26utm_source%3Dgbp%26utm_medium%3Dl%26utm_content%3Dplasticsurgeonlistinglink%26utm_campaign%3Dmayoclinic%26geo%3Dmidwest%26placementsite%3Dminnesota%26invsrc%3Ddeptsurgery%26cauid%3D196126", "rating": 4.0, "reviews": 4, "place_id": "ChIJB9eVNXtf94cRji5j-S6y8qo", "latitude": 44.02218149999999, "longitude": -92.4666893, "care_type": "Plastic Surgeon"}, {"name": "Dr. Basel Sharaf", "address": "200 1st St SW, Rochester, MN 55905", "city": "Rochester", "phone": "+1 507-284-2511", "website": "https://www.mayoclinic.org/biographies/sharaf-basel-a-m-d-d-d-s/bio-20128546", "rating": 5.0, "reviews": 3, "place_id": "ChIJAQAAOXtf94cRXxpAYYyVmg0", "latitude": 44.0226729, "longitude": -92.4667508, "care_type": "Plastic Surgeon"}, {"name": "Serena J. Day, M.D.", "address": "200 1st St SW, Rochester, MN 55905", "city": "Rochester", "phone": "+1 507-405-2240", "website": "https://www.mayoclinic.org/biographies/day-serena-j-m-d/bio-20583128%3Fmc_id%3Dus%26utm_source%3Dgbp%26utm_medium%3Dl%26utm_content%3Dplasticsurgeonlistinglink%26utm_campaign%3Dmayoclinic%26geo%3Dmidwest%26placementsite%3Dminnesota%26invsrc%3Ddeptsurgery%26cauid%3D196126", "rating": 5.0, "reviews": 1, "place_id": "ChIJAQAAOXtf94cRrE2K0eW67to", "latitude": 44.0226729, "longitude": -92.4667508, "care_type": "Plastic Surgeon"}, {"name": "Ageless Esthetics", "address": "2150 2nd St SW Suite 120, Rochester, MN 55902", "city": "Rochester", "phone": "+1 507-206-6217", "website": "http://agelessestheticsmedspamn.com/", "rating": 5.0, "reviews": 134, "place_id": "ChIJh3D_7JHh-YcRbe24yBiZ8aA", "latitude": 44.0213508, "longitude": -92.49671169999999, "care_type": "Plastic Surgeon"}, {"name": "Chapter Aesthetic Studio", "address": "815 Apache Ln SW Suite 100, Rochester, MN 55902", "city": "Rochester", "phone": "+1 507-226-9075", "website": "https://www.mychapter.com/locations/mn/rochester/815-apache-lane-sw/%3Futm_source%3DGoogle_Places%26utm_medium%3DBirdeye_Listings%26utm_campaign%3Drochester,mn", "rating": 4.8, "reviews": 102, "place_id": "ChIJQVEkJk1f94cRU7g5sZTwAds", "latitude": 44.0061938, "longitude": -92.4741908, "care_type": "Plastic Surgeon"}, {"name": "Jose A. Castro Garcia, M.D.", "address": "200 1st St SW, Rochester, MN 55905", "city": "Rochester", "phone": "+1 507-405-2240", "website": "https://www.mayoclinic.org/biographies/castro-garcia-jose-a-m-d/bio-20584471%3Fmc_id%3Dus%26utm_source%3Dgbp%26utm_medium%3Dl%26utm_content%3Dplasticsurgeonlistinglink%26utm_campaign%3Dmayoclinic%26geo%3Dmidwest%26placementsite%3Dminnesota%26invsrc%3Ddeptsurgery%26cauid%3D196126", "rating": null, "reviews": 0, "place_id": "ChIJtw2-o8Zf94cRuckAFKvk-Lo", "latitude": 44.0226729, "longitude": -92.4667508, "care_type": "Plastic Surgeon"}, {"name": "Steven L. Moran, M.D.", "address": "200 1st St SW, Rochester, MN 55905", "city": "Rochester", "phone": "+1 507-405-2240", "website": "https://www.mayoclinic.org/biographies/moran-steven-l-m-d/bio-20054479%3Fmc_id%3Dus%26utm_source%3Dgbp%26utm_medium%3Dl%26utm_content%3Dplasticsurgeonlistinglink%26utm_campaign%3Dmayoclinic%26geo%3Dmidwest%26placementsite%3Dminnesota%26invsrc%3Ddeptsurgery%26cauid%3D196126", "rating": 5.0, "reviews": 8, "place_id": "ChIJB9eVNXtf94cRBfz4M5Z-32o", "latitude": 44.0226729, "longitude": -92.4667508, "care_type": "Plastic Surgeon"}, {"name": "Samir Mardini, M.D.", "address": "200 1st St SW, Rochester, MN 55905", "city": "Rochester", "phone": "+1 507-792-9965", "website": "https://www.mayoclinic.org/biographies/mardini-samir-m-d/bio-20054870%3Fmc_id%3Dus%26utm_source%3Dyext%26utm_medium%3Dl%26utm_content%3Dpatmsmardini%26utm_campaign%3Dmayoclinic%26geo%3Dminnesota%26placementsite%3Dminnesota%26invsrc%3Dphysicianmktgpilot%26cauid%3D181315%26y_source%3D1_MTAyMTMyNTIzMS03MTUtbG9jYXRpb24ud2Vic2l0ZQ%253D%253D", "rating": 5.0, "reviews": 3, "place_id": "ChIJB9eVNXtf94cRrPR_lX36aeY", "latitude": 44.0225485, "longitude": -92.46666019999999, "care_type": "Plastic Surgeon"}, {"name": "James A. Butterworth, MD", "address": "200 1st St SW W4, Rochester, MN 55905", "city": "Rochester", "phone": "+1 507-284-2511", "website": "http://www.mayoclinic.org/", "rating": null, "reviews": 0, "place_id": "ChIJB9eVNXtf94cRKGVeLbs1FsQ", "latitude": 44.02218149999999, "longitude": -92.4666893, "care_type": "Plastic Surgeon"}, {"name": "Brian T. Carlsen, M.D.", "address": "200 1st St SW, Rochester, MN 55905", "city": "Rochester", "phone": "+1 507-405-2240", "website": "https://www.mayoclinic.org/biographies/carlsen-brian-t-m-d/bio-20054741%3Fmc_id%3Dus%26utm_source%3Dgbp%26utm_medium%3Dl%26utm_content%3Dplasticsurgeonlistinglink%26utm_campaign%3Dmayoclinic%26geo%3Dmidwest%26placementsite%3Dminnesota%26invsrc%3Ddeptsurgery%26cauid%3D196126", "rating": 4.0, "reviews": 4, "place_id": "ChIJB9eVNXtf94cRTB_jKvPW2vM", "latitude": 44.0226729, "longitude": -92.4667508, "care_type": "Plastic Surgeon"}, {"name": "Essence Skin Clinic & Med Spa", "address": "1640 W Center St, Rochester, MN 55902", "city": "Rochester", "phone": "+1 507-285-5505", "website": "https://www.essenceskinclinic.com/", "rating": 4.9, "reviews": 644, "place_id": "ChIJiQ7OUmJf94cRps6PK-nj7Jk", "latitude": 44.0233268, "longitude": -92.48660269999999, "care_type": "Plastic Surgeon"}, {"name": "Waleed Gibreel, M.B.B.S.", "address": "200 1st St SW, Rochester, MN 55905", "city": "Rochester", "phone": "+1 507-405-2240", "website": "https://www.mayoclinic.org/biographies/gibreel-waleed-m-b-b-s/bio-20505921%3Fmc_id%3Dus%26utm_source%3Dgbp%26utm_medium%3Dl%26utm_content%3Dplasticsurgeonlistinglink%26utm_campaign%3Dmayoclinic%26geo%3Dmidwest%26placementsite%3Dminnesota%26invsrc%3Ddeptsurgery%26cauid%3D196126", "rating": null, "reviews": 0, "place_id": "ChIJzR37_dpf94cRA-3YRztPV_8", "latitude": 44.0223132, "longitude": -92.4667642, "care_type": "Plastic Surgeon"}, {"name": "Jorys Martinez-Jorge, M.D.", "address": "200 1st St SW, Rochester, MN 55905", "city": "Rochester", "phone": "+1 507-405-2240", "website": "https://www.mayoclinic.org/biographies/martinez-jorge-jorys-m-d/bio-20130400%3Fmc_id%3Dus%26utm_source%3Dgbp%26utm_medium%3Dl%26utm_content%3Dplasticsurgeonlistinglink%26utm_campaign%3Dmayoclinic%26geo%3Dmidwest%26placementsite%3Dminnesota%26invsrc%3Ddeptsurgery%26cauid%3D196126", "rating": null, "reviews": 0, "place_id": "ChIJW9_brFxf94cRJmvivi9vAuU", "latitude": 44.0226729, "longitude": -92.4667508, "care_type": "Plastic Surgeon"}, {"name": "Bakri Karim MD", "address": "200 1st St SW, Rochester, MN 55905", "city": "Rochester", "phone": "+1 507-284-2511", "website": "https://www.mayoclinic.org/biographies/bakri-karim-m-b-b-s/bio-20094522", "rating": 3.0, "reviews": 2, "place_id": "ChIJB9eVNXtf94cRwP062zYJIPU", "latitude": 44.02218149999999, "longitude": -92.4666893, "care_type": "Plastic Surgeon"}, {"name": "Grant S. Hamilton, III, MD", "address": "200 1st St SW, Rochester, MN 55902", "city": "Rochester", "phone": "+1 507-284-2511", "website": "https://www.mayoclinic.org/biographies/hamilton-grant-s-iii-m-d/bio-20055492", "rating": 3.4, "reviews": 5, "place_id": "ChIJd8azqXtf94cRTiLjVTiEKvM", "latitude": 44.022597, "longitude": -92.4667633, "care_type": "Plastic Surgeon"},