[{"name": "Monarch Plastic Surgery", "address": "9501 N Oak Trafficway # 202, Kansas City, MO 64155", "city": "Kansas City", "phone": "+1 816-436-3262", "website": "http://www.monarchps.com/", "rating": 4.3, "reviews": 88, "place_id": "ChIJ-9PS-DBYwIcR-5hPo2dkPG4", "latitude": 39.2662074, "longitude": -94.5751378, "care_type": "Plastic Surgeon"}, {"name": "Thuan B Nguyen, MD", "address": "5844 NW Barry Rd Suite 300, Kansas City, MO 64154", "city": "Kansas City", "phone": "+1 816-932-0288", "website": "http://www.saintlukeskc.org/provider/thuan-nguyen-1568773372%3Futm_source%3Dyext%26utm_medium%3Dlocal_listing%26utm_campaign%3Dyext_listing", "rating": 3.0, "reviews": 2, "place_id": "ChIJye6JHklfwIcR9u_WCLeBL20", "latitude": 39.2484014, "longitude": -94.64900829999999, "care_type": "Plastic Surgeon"}, {"name": "Leahy Paul MD", "address": "9501 N Oak Trafficway # 202, Kansas City, MO 64155", "city": "Kansas City", "phone": "+1 816-436-3262", "website": "http://monarchps.com/", "rating": 5.0, "reviews": 1, "place_id": "ChIJr-A9UzBYwIcRT_6yz10qiiI", "latitude": 39.2661797, "longitude": -94.5751377, "care_type": "Plastic Surgeon"}, {"name": "Saint Luke's Plastic Surgery Specialists-North", "address": "5844 NW Barry Rd Suite 300, Kansas City, MO 64154", "city": "Kansas City", "phone": "+1 816-932-0288", "website": "http://www.saintlukeskc.org/locations/saint-lukes-plastic-surgery-specialists-kansas-city-barry%3Futm_source%3Dyext%26utm_medium%3Dlocal_listing%26utm_campaign%3Dyext_listing", "rating": 1.0, "reviews": 2, "place_id": "ChIJ0UbzdkpfwIcRZSX7DNg9htE", "latitude": 39.2484014, "longitude": -94.64900829999999, "care_type": "Plastic Surgeon"}, {"name": "Dr. Joseph R. Barnthouse, MD", "address": "1010 Carondelet Dr Ste 401, Kansas City, MO 64114", "city": "Kansas City", "phone": "+1 816-943-8004", "website": "http://www.jbarnthousemd.com/", "rating": 4.9, "reviews": 95, "place_id": "ChIJLVNyIavpwIcR2GwoNlDNKww", "latitude": 38.9360078, "longitude": -94.60549759999999, "care_type": "Plastic Surgeon"}, {"name": "Singhal Plastic Surgery, P.C.", "address": "9081 NE 81st Terrace, Kansas City, MO 64158", "city": "Kansas City", "phone": "+1 816-429-7576", "website": "http://singhalplasticsurgery.com/", "rating": 4.9, "reviews": 130, "place_id": "ChIJmXKW5_ZVwIcRg2Qfx0iDHqA", "latitude": 39.2388586, "longitude": -94.4665697, "care_type": "Plastic Surgeon"}, {"name": "Garry M Martin II, MD", "address": "5844 NW Barry Rd Suite 300, Kansas City, MO 64154", "city": "Kansas City", "phone": "+1 816-932-0288", "website": "http://www.saintlukeskc.org/provider/garry-martin-1669678595%3Futm_source%3Dyext%26utm_medium%3Dlocal_listing%26utm_campaign%3Dyext_listing", "rating": null, "reviews": 0, "place_id": "ChIJZa9x8xJVwIcRLzyGFMTwnh0", "latitude": 39.2484014, "longitude": -94.64900829999999, "care_type": "Plastic Surgeon"}, {"name": "Dr. Don G. Fortin, MD", "address": "2301 Holmes St, Kansas City, MO 64108", "city": "Kansas City", "phone": "+1 816-404-1000", "website": "http://www.trumed.org/", "rating": 3.0, "reviews": 2, "place_id": "ChIJV-k51hLwwIcRI2DXK48msZc", "latitude": 39.0844879, "longitude": -94.5752976, "care_type": "Plastic Surgeon"}, {"name": "Bene Richard J J MD", "address": "9501 N Oak Trafficway # 202, Kansas City, MO 64155", "city": "Kansas City", "phone": "+1 816-436-3262", "website": "http://monarchps.com/", "rating": 4.2, "reviews": 5, "place_id": "ChIJr-A9UzBYwIcRZBfMVKxDViY", "latitude": 39.2661797, "longitude": -94.5751377, "care_type": "Plastic Surgeon"}, {"name": "Dr. Virender Singhal", "address": "9081 NE 81st Terrace, Kansas City, MO 64158", "city": "Kansas City", "phone": "+1 800-518-9314", "website": "https://singhalplasticsurgery.com/about-plastic-surgeon-kansas-city/meet-dr-virender-singhal/", "rating": 5.0, "reviews": 3, "place_id": "ChIJq6r65vZVwIcRXOFzQCmlAvw", "latitude": 39.2389124, "longitude": -94.46666669999999, "care_type": "Plastic Surgeon"}, {"name": "Rajeunir Medical Spa", "address": "4171 N Mulberry Dr, Kansas City, MO 64116", "city": "Kansas City", "phone": "+1 816-505-5551", "website": "http://www.rmedspa.com/", "rating": 4.3, "reviews": 94, "place_id": "ChIJnY2DtBj3wIcR8z8lE7S8HA4", "latitude": 39.169872, "longitude": -94.597166, "care_type": "Plastic Surgeon"}, {"name": "Lindsay E. Powers, MD", "address": "2101 Charlotte St, Kansas City, MO 64108", "city": "Kansas City", "phone": "+1 816-876-2919", "website": "", "rating": null, "reviews": 0, "place_id": "ChIJj_OYv7bxwIcRY2I9gliecrk", "latitude": 39.0867887, "longitude": -94.57401329999999, "care_type": "Plastic Surgeon"}, {"name": "Saint Luke's Plastic Surgery Specialists-Plaza", "address": "4400 Broadway St Ste 400, Kansas City, MO 64111", "city": "Kansas City", "phone": "+1 816-932-0288", "website": "http://www.saintlukeskc.org/locations/saint-lukes-plastic-surgery-specialists-kansas-city-broadway%3Futm_source%3Dyext%26utm_medium%3Dlocal_listing%26utm_campaign%3Dyext_listing", "rating": 3.8, "reviews": 19, "place_id": "ChIJu6gVosbvwIcR45hWaZydfMo", "latitude": 39.0472249, "longitude": -94.59177489999999, "care_type": "Plastic Surgeon"}, {"name": "Associated Plastic Surgeons & Med Spa", "address": "2861 NE Independence Ave Ste 205, Lee's Summit, MO 64064", "city": "Lee's Summit", "phone": "+1 816-407-8527", "website": "https://www.apskc.com/lees-summit-plastic-surgery/%3Futm_source%3DGBP%26utm_medium%3DGBP%26utm_campaign%3DGBP_Lee%2520Summit%26utm_id%3DGBP_Lee%2520Summit", "rating": 5.0, "reviews": 62, "place_id": "ChIJWd0sN-kfwYcRVnRSx3VswPY", "latitude": 38.9638538, "longitude": -94.360872, "care_type": "Plastic Surgeon"}, {"name": "Thuan B Nguyen, MD", "address": "4400 Broadway St Ste 400, Kansas City, MO 64111", "city": "Kansas City", "phone": "+1 816-932-0288", "website": "http://www.saintlukeskc.org/provider/thuan-nguyen-1568773372%3Futm_source%3Dyext%26utm_medium%3Dlocal_listing%26utm_campaign%3Dyext_listing", "rating": 5.0, "reviews": 5, "place_id": "ChIJu6gVosbvwIcRVLfO49pw4ts", "latitude": 39.0472249, "longitude": -94.59177489999999, "care_type": "Plastic Surgeon"}, {"name": "Garry M Martin II, MD", "address": "4400 Broadway St Ste 400, Kansas City, MO 64111", "city": "Kansas City", "phone": "+1 816-932-0288", "website": "http://www.saintlukeskc.org/provider/garry-martin-1669678595%3Futm_source%3Dyext%26utm_medium%3Dlocal_listing%26utm_campaign%3Dyext_listing", "rating": 4.4, "reviews": 7, "place_id": "ChIJM80bDkpfwIcR6Q8aOmDSE-E", "latitude": 39.0472249, "longitude": -94.59177489999999, "care_type": "Plastic Surgeon"}, {"name": "Dana Rioux-Forker, MD", "address": "4400 Broadway St Ste 400, Kansas City, MO 64111", "city": "Kansas City", "phone": "+1 816-932-0288", "website": "http://www.saintlukeskc.org/provider/dana-rioux-forker-1417397019%3Futm_source%3Dyext%26utm_medium%3Dlocal_listing%26utm_campaign%3Dyext_listing", "rating": 5.0, "reviews": 11, "place_id": "ChIJXbIEOyBgUocRG0IWGbFMa04", "latitude": 39.0472249, "longitude": -94.59177489999999, "care_type": "Plastic Surgeon"}, {"name": "Shao Jiang MD", "address": "2401 Gillham Rd, Kansas City, MO 64108", "city": "Kansas City", "phone": "+1 816-234-3020", "website": "https://www.childrensmercy.org/profiles/shao-jiang/", "rating": 5.0, "reviews": 5, "place_id": "ChIJozrqTbvxwIcRt1RwulJCC8M", "latitude": 39.0840589, "longitude": -94.5773627, "care_type": "Plastic Surgeon"}, {"name": "Brian Jao, MD", "address": "4400 Broadway St Ste 400, Kansas City, MO 64111", "city": "Kansas City", "phone": "+1 816-932-0288", "website": "http://www.saintlukeskc.org/provider/brian-jao-1932561487%3Futm_source%3Dyext%26utm_medium%3Dlocal_listing%26utm_campaign%3Dyext_listing", "rating": 4.2, "reviews": 5, "place_id": "ChIJkz49kMTvwIcRfbfmkrN-TJs", "latitude": 39.0469088, "longitude": -94.5917066, "care_type": "Plastic Surgeon"}, {"name": "Rachael Payne, MD", "address": "4400 Broadway Blvd Ste 400, Kansas City, MO 64111", "city": "Kansas City", "phone": "+1 816-932-0288", "website": "https://www.saintlukeskc.org/provider/rachael-payne-1912492646%3Futm_source%3Dyext%26utm_medium%3Dlocal_listing%26utm_campaign%3Dyext_listing", "rating": null, "reviews": 0, "place_id": "ChIJK92ThR3vwIcROzwZopSvFxU", "latitude": 39.0472249, "longitude": -94.59177489999999, "care_type": "Plastic Surgeon"}, {"name": "Dr. Satish Ponnuru, MD", "address": "4320 Wornall Rd, Kansas City, MO 64111", "city": "Kansas City", "phone": "+1 816-932-2836", "website": "", "rating": 5.0, "reviews": 1, "place_id": "ChIJN0TZlsbvwIcR9tUrDd1WhS8", "latitude": 39.0492082, "longitude": -94.5900535, "care_type": "Plastic Surgeon"}, {"name": "Carol A. Aylward, MD", "address": "UH 1, 2101 Charlotte St Suite 300, Kansas City, MO 64108", "city": "Kansas City", "phone": "+1 816-404-8181", "website": "https://providerdirectory.universityhealthkc.org/provider/carol-a-aylward/2238413", "rating": 4.5, "reviews": 8, "place_id": "ChIJHdcbcNjxwIcRn3ZcKu8jwHM", "latitude": 39.0866891, "longitude": -94.57427009999999, "care_type": "Plastic Surgeon"}, {"name": "Michael A. Lypka MD, DMD", "address": "2401 Gillham Rd, Kansas City, MO 64108", "city": "Kansas City", "phone": "+1 816-234-3020", "website": "https://www.childrensmercy.org/profiles/michael-a-lypka/", "rating": 4.6, "reviews": 9, "place_id": "ChIJnZth76bxwIcRGkDhg2xJyio", "latitude": 39.0840589, "longitude": -94.5773627, "care_type": "Plastic Surgeon"}, {"name": "Georgous Aesthetic Bar", "address": "4505 Madison Ave Ste 10, Kansas City, MO 64111", "city": "Kansas City", "phone": "+1 816-533-3863", "website": "https://www.georgouskc.com/%3Futm_source%3Dgoogle%26utm_medium%3Dorganic%26utm_campaign%3Dgbp%26utm_term%3DGeorgous-Aesthetic-Bar%26utm_content%3Dwebsite", "rating": 5.0, "reviews": 224, "place_id": "ChIJwWDEknPvwIcRGUG64Q18BRg", "latitude": 39.0457747, "longitude": -94.5968982, "care_type": "Plastic Surgeon"}, {"name": "Spencer Eagan", "address": "4320 Wornall Rd ste 530, Kansas City, MO 64111", "city": "Kansas City", "phone": "+1 816-437-8101", "website": "", "rating": 1.0, "reviews": 1, "place_id": "ChIJbTnugcbvwIcRV-fFeK7Szm4", "latitude": 39.0486068, "longitude": -94.59054139999999, "care_type": "Plastic Surgeon"}, {"name": "Jeffrey A. Goldstein MD", "address": "2401 Gillham Rd, Kansas City, MO 64108", "city": "Kansas City", "phone": "+1 816-234-3020", "website": "https://www.childrensmercy.org/profiles/jeffrey-a-goldstein/", "rating": null, "reviews": 0, "place_id": "ChIJK6Km1i7xwIcRfutVOaCZ4zs", "latitude": 39.0840589, "longitude": -94.5773627, "care_type": "Plastic Surgeon"}, {"name": "Colyer Jeffrey W MD", "address": "2790 Clay Edwards Dr #530, North Kansas City, MO 64116", "city": "North Kansas City", "phone": "+1 816-221-6750", "website": "http://www.meritashealth.com/", "rating": 1.0, "reviews": 1, "place_id": "ChIJ0-YM4vf5wIcR7GgVZ6R_vWI", "latitude": 39.1489779, "longitude": -94.55160339999999, "care_type": "Plastic Surgeon"}, {"name": "Jon E. Rast MD", "address": "2401 Gillham Rd, Kansas City, MO 64108", "city": "Kansas City", "phone": "+1 816-234-3020", "website": "https://www.childrensmercy.org/profiles/jon-e-rast/", "rating": null, "reviews": 0, "place_id": "ChIJF1HfJwbxwIcRvcmiZL932rg", "latitude": 39.0840589, "longitude": -94.5773627, "care_type": "Plastic Surgeon"}, {"name": "Dr. Lynn Roh", "address": "2301 Holmes St, Kansas City, MO 64108", "city": "Kansas City", "phone": "+1 816-333-8797", "website": "", "rating": null, "reviews": 0, "place_id": "ChIJ70mb3xLwwIcRbxdPlGV_e9E", "latitude": 39.0844879, "longitude": -94.5752976, "care_type": "Plastic Surgeon"}, {"name": "Jerome Lamb", "address": "4820 S Arrowhead Dr, Independence, MO 640556980", "city": "Independence", "phone": "+1 816-795-5262", "website": "", "rating": 3.7, "reviews": 3, "place_id": "ChIJ__-_bKodwYcRlk_6_V4eTp8", "latitude": 39.0305838, "longitude": -94.3602799, "care_type": "Plastic Surgeon"}, {"name": "Milton Muller Md", "address": "3720 Arrowhead Ave, Independence, MO 64057", "city": "Independence", "phone": "+1 816-461-0155", "website": "", "rating": 1.0, "reviews": 2, "place_id": "ChIJr9nkHB8dwYcRTnLHdkTEHo4", "latitude": 39.0497913, "longitude": -94.35995109999999, "care_type": "Plastic Surgeon"}, {"name": "Aria Cosmetic Surgery", "address": "19049 E Valley View Pkwy Suite I, Independence, MO 64055", "city": "Independence", "phone": "+1 816-791-7087", "website": "https://ariacosmeticsurgery.com/", "rating": null, "reviews": 0, "place_id": "ChIJPTOFz0sdwYcRhPnsd_BVpkc", "latitude": 39.0362762, "longitude": -94.3549913, "care_type": "Plastic Surgeon"}, {"name": "The University of Kansas Hospital Plastic Surgery", "address": "4820 S Arrowhead Dr #101, Independence, MO 64055", "city": "Independence", "phone": "+1 816-795-5262", "website": "", "rating": null, "reviews": 0, "place_id": "ChIJ5YQGZqodwYcRGtAcUjI_OxQ", "latitude": 39.03053999999999, "longitude": -94.3602853, "care_type": "Plastic Surgeon"}, {"name": "Saint Luke's Plastic Surgery Specialists-East", "address": "120 NE Saint Luke's Blvd Suite 300, Lee's Summit, MO 64086", "city": "Lee's Summit", "phone": "+1 816-932-0288", "website": "http://www.saintlukeskc.org/locations/saint-lukes-plastic-surgery-specialists-lees-summit%3Futm_source%3Dyext%26utm_medium%3Dlocal_listing%26utm_campaign%3Dyext_listing", "rating": 4.0, "reviews": 2, "place_id": "ChIJBSp7N2sfwYcRrpbvbjEFRGk", "latitude": 38.9420868, "longitude": -94.38023969999999, "care_type": "Plastic Surgeon"}, {"name": "Rajeunir Medical Spa", "address": "3465 NE Ralph Powell Rd, Lee's Summit, MO 64064", "city": "Lee's Summit", "phone": "+1 816-282-7888", "website": "http://www.rmedspa.com/", "rating": 4.6, "reviews": 80, "place_id": "ChIJ0fxghMIfwYcRbf1mGrWG5v0", "latitude": 38.9742516, "longitude": -94.35798779999999, "care_type": "Plastic Surgeon"}, {"name": "KC Injectables Med Spa", "address": "286 SW Blue Pkwy, Lee's Summit, MO 64063", "city": "Lee's Summit", "phone": "+1 816-301-4226", "website": "https://www.kcinjectablesmedspa.com/kc-injectables-med-spa-lees-summit-missouri", "rating": 5.0, "reviews": 333, "place_id": "ChIJXxuv9t_vwIcRhDf24pHVzQg", "latitude": 38.9055011, "longitude": -94.3789316, "care_type": "Plastic Surgeon"}, {"name": "Stevens Sheridan MD", "address": "3600 NE Ralph Powell Rd # E, Lee's Summit, MO 64064", "city": "Lee's Summit", "phone": "+1 816-554-6500", "website": "", "rating": 1.0, "reviews": 1, "place_id": "ChIJvcIWMGIewYcRYR_TH3NOWbo", "latitude": 38.9772921, "longitude": -94.35896609999999, "care_type": "Plastic Surgeon"}, {"name": "Facial Spectrum", "address": "1208 NE Windsor Dr, Lee's Summit, MO 64086", "city": "Lee's Summit", "phone": "+1 816-524-4334", "website": "http://www.facialspectrum.com/", "rating": 4.8, "reviews": 271, "place_id": "ChIJj96OvaYfwYcRlyLczfPNfR4", "latitude": 38.9338565, "longitude": -94.3615681, "care_type": "Plastic Surgeon"}, {"name": "Thuan B Nguyen, MD", "address": "120 NE Saint Luke's Blvd Suite 300, Lee's Summit, MO 64086", "city": "Lee's Summit", "phone": "+1 816-932-0288", "website": "http://www.saintlukeskc.org/provider/thuan-nguyen-1568773372%3Futm_source%3Dyext%26utm_medium%3Dlocal_listing%26utm_campaign%3Dyext_listing", "rating": null, "reviews": 0, "place_id": "ChIJaT5eQ2gfwYcRfqsT7DehRBQ", "latitude": 38.94222449999999, "longitude": -94.38068229999999, "care_type": "Plastic Surgeon"}, {"name": "Healthylooks Med Spa & Wellness", "address": "930 NW Blue Pkwy E, Lee's Summit, MO 64086", "city": "Lee's Summit", "phone": "+1 816-795-5262", "website": "https://www.healthylooks.com/", "rating": 4.9, "reviews": 311, "place_id": "ChIJs9pAZKodwYcRSnEOgm2kl9U", "latitude": 38.9309996, "longitude": -94.4026658, "care_type": "Plastic Surgeon"}, {"name": "Rachael Payne, MD", "address": "120 NE Saint Lukes Boulevard Suite 300, Lee's Summit, MO 64086", "city": "Lee's Summit", "phone": "+1 816-932-0288", "website": "https://www.saintlukeskc.org/provider/rachael-payne-1912492646%3Futm_source%3Dyext%26utm_medium%3Dlocal_listing%26utm_campaign%3Dyext_listing", "rating": null, "reviews": 0, "place_id": "ChIJS0hsmrsfwYcRgEfo7ugSAnk", "latitude": 38.9422159, "longitude": -94.380575, "care_type": "Plastic Surgeon"}, {"name": "Lindsay E. Powers, MD", "address": "3450 NE Ralph Powell Rd, Lee's Summit, MO 64064", "city": "Lee's Summit", "phone": "+1 816-404-2170", "website": "", "rating": null, "reviews": 0, "place_id": "ChIJicNSEE0fwYcRdEcFK_3srDc", "latitude": 38.9740445, "longitude": -94.359532, "care_type": "Plastic Surgeon"}, {"name": "Monarch Plastic Surgery", "address": "3151 NE Carnegie Dr, Lee's Summit, MO 64064", "city": "Lee's Summit", "phone": "+1 816-347-0026", "website": "https://www.monarchps.com/", "rating": 5.0, "reviews": 3, "place_id": "ChIJ8WPkcAAfwYcReZGDZBMoWK4", "latitude": 38.9691503, "longitude": -94.3596407, "care_type": "Plastic Surgeon"}, {"name": "U.S. Dermatology Partners Lee's Summit", "address": "3265 NE Ralph Powell Rd, Lee's Summit, MO 64064", "city": "Lee's Summit", "phone": "+1 913-754-5092", "website": "https://www.usdermatologypartners.com/lees-summit/", "rating": 4.8, "reviews": 5484, "place_id": "ChIJR9QsJWIewYcRqxZKFkLhsM8", "latitude": 38.9710636, "longitude": -94.35864409999999, "care_type": "Plastic Surgeon"}, {"name": "Ascentist Plastic Surgery", "address": "4880 NE Goodview Cir, Lee's Summit, MO 64064", "city": "Lee's Summit", "phone": "+1 913-914-5975", "website": "https://ascentistplasticsurgery.com/", "rating": null, "reviews": 0, "place_id": "ChIJqbxZZKodwYcR436UY_k9FKA", "latitude": 39.0004141, "longitude": -94.3547066, "care_type": "Plastic Surgeon"}, {"name": "Pink Medspa & Primary Care", "address": "3680 NE Akin Dr #114, Lee's Summit, MO 64064", "city": "Lee's Summit", "phone": "+1 816-974-6576", "website": "http://www.pinkmedspa.com/", "rating": 4.9, "reviews": 439, "place_id": "ChIJu-eKuS0fwYcRm-cRnWy1ucE", "latitude": 38.9804836, "longitude": -94.3614104, "care_type": "Plastic Surgeon"}, {"name": "Lee's Summit Dermatology Associates, PC", "address": "276 NE Tudor Rd, Lee's Summit, MO 64086", "city": "Lee's Summit", "phone": "+1 816-525-8500", "website": "http://www.skinhealthcare.org/", "rating": 4.5, "reviews": 282, "place_id": "ChIJeVTL4b4fwYcR5qySBo2sTAQ", "latitude": 38.9316679, "longitude": -94.3747978, "care_type": "Plastic Surgeon"}, {"name": "Skin Fit Medical Spa", "address": "110 SE 3rd St, Lee's Summit, MO 64063", "city": "Lee's Summit", "phone": "+1 816-272-5006", "website": "https://skinfitmedicalspa.com/%3Futm_source%3Dgoogle%26utm_medium%3Dorganic%26utm_campaign%3Dgbp", "rating": 4.8, "reviews": 87, "place_id": "ChIJQc2Bq7kfwYcRM9IupW2ViXE", "latitude": 38.9130154, "longitude": -94.3757205, "care_type": "Plastic Surgeon"}, {"name": "Spencer Eagan", "address": "4880 NE Goodview Cir, Lee's Summit, MO 64064", "city": "Lee's Summit", "phone": "+1 816-478-4200", "website": "https://ascentist.com/team/spencer-eagan-md/", "rating": null, "reviews": 0, "place_id": "ChIJVVWFYi0cwYcRCVhGseb6F84", "latitude": 39.0004141, "longitude": -94.3547066, "care_type": "Plastic Surgeon"}, {"name": "Summit Plastic Surgery & Med Spa", "address": "3151 NE Carnegie Dr, Lee's Summit, MO 64064", "city": "Lee's Summit", "phone": "", "website": "", "rating": 4.5, "reviews": 135, "place_id": "ChIJI2LJmGAewYcR3pYXJRGsC7o", "latitude": 38.9691524, "longitude": -94.35968439999999, "care_type": "Plastic Surgeon"}, {"name": "The Treatment Room at Ascentist Plastic Surgery", "address": "1160 NE Douglas St Studio No. 113, Lee's Summit, MO 64086", "city": "Lee's Summit", "phone": "+1 913-914-5976", "website": "http://www.ascentistplasticsurgery.com/", "rating": null, "reviews": 0, "place_id": "ChIJa0SXI7gfwYcR4nrG22y0APc", "latitude": 38.9323758, "longitude": -94.3805701, "care_type": "Plastic Surgeon"}, {"name": "Gary Y Shaw", "address": "296 NE Tudor Rd, Lee's Summit, MO 64086", "city": "Lee's Summit", "phone": "+1 816-524-4890", "website": "", "rating": 3.0, "reviews": 6, "place_id": "ChIJcSoC4b4fwYcR53Mitucf2jI", "latitude": 38.9310458, "longitude": -94.3745563, "care_type": "Plastic Surgeon"}, {"name": "Liberty Hospital Breast Surgery", "address": "2529 Glenn Hendren Dr Suite G80, Liberty, MO 64068", "city": "Liberty", "phone": "+1 816-415-7990", "website": "https://www.libertyhospital.org/locations/breast-surgery/", "rating": 5.0, "reviews": 12, "place_id": "ChIJHYUEIz1VwIcRgS4lsKNDRyE", "latitude": 39.2751251, "longitude": -94.4224795, "care_type": "Plastic Surgeon"}, {"name": "Saint Luke's Plastic Surgery Specialists - Liberty", "address": "2529 Glenn Hendren Dr suite g60, Liberty, MO 64068", "city": "Liberty", "phone": "+1 816-932-0288", "website": "https://www.saintlukeskc.org/locations/saint-lukes-plastic-surgery-specialists%3Futm_source%3Dlocal-listing%26utm_medium%3Dorganic%26utm_campaign%3Dwebsite-link", "rating": 1.0, "reviews": 1, "place_id": "ChIJbZ_uEGFVwIcRQUIC3DZyTeE", "latitude": 39.2747498, "longitude": -94.42182609999999, "care_type": "Plastic Surgeon"}, {"name": "CoxHealth - Plastic Surgery", "address": "3555 S National Ave, Springfield, MO 65807", "city": "Springfield", "phone": "+1 417-875-3246", "website": "https://www.coxhealth.com/", "rating": 5.0, "reviews": 1, "place_id": "ChIJX4z2tAplz4cRZdQSzCq0Ez8", "latitude": 37.1488731, "longitude": -93.2791012, "care_type": "Plastic Surgeon"}, {"name": "Shah Plastic Surgery", "address": "1530 E Bradford Pkwy, Springfield, MO 65804", "city": "Springfield", "phone": "+1 417-742-7424", "website": "http://shahplasticsurgery.com/%3Futm_source%3Dlocal%26utm_medium%3Dlocal%26utm_campaign%3Deii", "rating": 4.4, "reviews": 88, "place_id": "ChIJI53b7lxjz4cR7TYjSScACz4", "latitude": 37.1452955, "longitude": -93.2685394, "care_type": "Plastic Surgeon"}, {"name": "Bailey Cosmetic Surgery & Vein Centre", "address": "636 W Republic Rd Suite C108, Springfield, MO 65807", "city": "Springfield", "phone": "+1 573-348-1700", "website": "https://baileyveinandskincare.com/%3FUTM_source%3DGBP_listing%26UTM_medium%3Dorganic%26source%3Dgmb", "rating": 5.0, "reviews": 76, "place_id": "ChIJ7xIGlVhkz4cRE7rC5X6DA5M", "latitude": 37.1375267, "longitude": -93.2997499, "care_type": "Plastic Surgeon"}, {"name": "CoxHealth Med Spa", "address": "3555 S National Ave, Springfield, MO 65807", "city": "Springfield", "phone": "+1 417-875-3246", "website": "https://www.coxhealth.com/services/plastic-surgery/med-spa/", "rating": 4.9, "reviews": 77, "place_id": "ChIJmStHGL5kz4cRIDfjFypyRhA", "latitude": 37.1488731, "longitude": -93.2791012, "care_type": "Plastic Surgeon"}, {"name": "Carl I Price, MD", "address": "3555 S National Ave, Springfield, MO 65807", "city": "Springfield", "phone": "+1 417-875-3246", "website": "", "rating": 4.7, "reviews": 22, "place_id": "ChIJ38o9GL5kz4cRKF1CMqTIrRA", "latitude": 37.1488731, "longitude": -93.2791012, "care_type": "Plastic Surgeon"}, {"name": "Wade Daniel Kubat, DO", "address": "1229 E Seminole St Suite 340, Springfield, MO 65804", "city": "Springfield", "phone": "+1 417-820-9330", "website": "https://www.mercy.net/doctor/wade-daniel-kubat-do%3Futm_source%3Dgoogle%26utm_medium%3Dorganic_search%26utm_campaign%3Dyext%26utm_term%3D%26utm_content%3Dwebsite%26y_source%3D1_MTAxMzM1MDM5My03MTUtbG9jYXRpb24ud2Vic2l0ZQ%253D%253D", "rating": 5.0, "reviews": 23, "place_id": "ChIJ5zeoB-1jz4cRHV83zENxnqg", "latitude": 37.1754431, "longitude": -93.27521, "care_type": "Plastic Surgeon"}, {"name": "Connor William Barnes, MD", "address": "3555 S National Ave, Springfield, MO 65807", "city": "Springfield", "phone": "+1 417-875-3246", "website": "https://doctors.coxhealth.com/provider/Connor%2BWilliam%2BBarnes/1590745", "rating": 4.9, "reviews": 56, "place_id": "ChIJBxoJd2tlz4cRBkKrl5N0Im0", "latitude": 37.1488731, "longitude": -93.2791012, "care_type": "Plastic Surgeon"}, {"name": "Robert Bruce Shaw, MD", "address": "3555 S National Ave, Springfield, MO 65807", "city": "Springfield", "phone": "+1 417-875-3246", "website": "https://doctors.coxhealth.com/provider/Robert%2BBruce%2BShaw/913906", "rating": 4.3, "reviews": 32, "place_id": "ChIJX7U9GL5kz4cRwUOE9h-PZbE", "latitude": 37.1488731, "longitude": -93.2791012, "care_type": "Plastic Surgeon"}, {"name": "Aesthetic Med Studio", "address": "3259 E Ridgeview St, Springfield, MO 65804", "city": "Springfield", "phone": "+1 417-889-5274", "website": "https://aestheticmedstudio.com/%3Futm_source%3Dgoogle%26utm_medium%3Dlocalsearch%26utm_campaign%3Dgmb", "rating": 5.0, "reviews": 563, "place_id": "ChIJTQEW-rp8z4cR30AZXYitlfo", "latitude": 37.1598469, "longitude": -93.2288662, "care_type": "Plastic Surgeon"}, {"name": "Sono Bello Springfield MO", "address": "2756 S Glenstone Ave, Springfield, MO 65804", "city": "Springfield", "phone": "+1 417-397-4122", "website": "", "rating": 4.3, "reviews": 9, "place_id": "ChIJ965UaPZlz4cR2zVS8vedQrE", "latitude": 37.1630804, "longitude": -93.2616728, "care_type": "Plastic Surgeon"}, {"name": "Andrew James Kochevar, MD", "address": "1229 E Seminole St Suite 340, Springfield, MO 65804", "city": "Springfield", "phone": "+1 417-820-9330", "website": "https://www.mercy.net/doctor/andrew-james-kochevar-md%3Futm_source%3Dgoogle%26utm_medium%3Dorganic_search%26utm_campaign%3Dyext%26utm_term%3DCentral%26utm_content%3Dwebsite%26y_source%3D1_MTI5OTg5MzUtNzE1LWxvY2F0aW9uLndlYnNpdGU%253D", "rating": 4.2, "reviews": 14, "place_id": "ChIJPRZvBKBjz4cRx59fc3Ooshs", "latitude": 37.1754079, "longitude": -93.2752058, "care_type": "Plastic Surgeon"}, {"name": "Melissa A. Belk, FNP", "address": "1965 S Fremont Ave # 120, Springfield, MO 65804", "city": "Springfield", "phone": "+1 417-887-3223", "website": "https://www.mercy.net/doctor/melissa-a-belk-fnp%3Futm_source%3Dgoogle%26utm_medium%3Dorganic_search%26utm_campaign%3Dyext%26utm_term%3DCentral%26utm_content%3Dwebsite%26y_source%3D1_MTI5OTk2NzItNzE1LWxvY2F0aW9uLndlYnNpdGU%253D", "rating": 5.0, "reviews": 3, "place_id": "ChIJP7g-6ERjz4cRLtW1IDBQ0tg", "latitude": 37.179104, "longitude": -93.27226069999999, "care_type": "Plastic Surgeon"}, {"name": "Arthur S. Hawes, MD", "address": "3555 S National Ave, Springfield, MO 65807", "city": "Springfield", "phone": "+1 417-875-3246", "website": "", "rating": 5.0, "reviews": 2, "place_id": "ChIJ38o9GL5kz4cRn-nxZNgqWZY", "latitude": 37.1488731, "longitude": -93.2791012, "care_type": "Plastic Surgeon"}, {"name": "Lynn Marie Frydrych, MD", "address": "3555 S National Ave, Springfield, MO 65807", "city": "Springfield", "phone": "+1 417-875-3246", "website": "https://doctors.coxhealth.com/provider/Lynn%2BMarie%2BFrydrych/3143622", "rating": 5.0, "reviews": 5, "place_id": "ChIJKZdE27Blz4cRsXYxy2BGMb4", "latitude": 37.1488731, "longitude": -93.2791012, "care_type": "Plastic Surgeon"}, {"name": "Swann Dermatology Partners - Hulston Cancer Center", "address": "3850 S National Ave #705, Springfield, MO 65807", "city": "Springfield", "phone": "+1 417-888-0858", "website": "https://swanndermatology.com/locations/springfield/", "rating": 4.9, "reviews": 2992, "place_id": "ChIJARaoI8Bkz4cRTKaDPqsJmFY", "latitude": 37.1449288, "longitude": -93.2773033, "care_type": "Plastic Surgeon"}, {"name": "Marcus Alan Henderson, DO", "address": "1965 S Fremont Ave Suite 100, Springfield, MO 65804", "city": "Springfield", "phone": "+1 417-820-3800", "website": "https://www.mercy.net/doctor/marcus-alan-henderson-do%3Futm_source%3Dgoogle%26utm_medium%3Dorganic_search%26utm_campaign%3Dyext%26utm_term%3DCentral%26utm_content%3Dwebsite%26y_source%3D1_MTI5OTk0OTItNzE1LWxvY2F0aW9uLndlYnNpdGU%253D", "rating": 4.8, "reviews": 10, "place_id": "ChIJP7g-6ERjz4cROGkYGZOglzA", "latitude": 37.1791856, "longitude": -93.27225519999999, "care_type": "Plastic Surgeon"}, {"name": "Rajeunir Medical Spa", "address": "1618 E Republic Rd, Springfield, MO 65804", "city": "Springfield", "phone": "+1 417-631-4745", "website": "http://www.rmedspa.com/", "rating": 4.7, "reviews": 88, "place_id": "ChIJ1Z-uCc9kz4cRRCyto-GBpRs", "latitude": 37.1369554, "longitude": -93.2669695, "care_type": "Plastic Surgeon"}, {"name": "Cosmetic Lasers of Southwest", "address": "1240 E Independence St, Springfield, MO 65804", "city": "Springfield", "phone": "+1 417-823-3806", "website": "", "rating": null, "reviews": 0, "place_id": "ChIJs8HkaMBkz4cR5b4hXQnkPFs", "latitude": 37.143726, "longitude": -93.2770304, "care_type": "Plastic Surgeon"}, {"name": "Chelsea Lane Crespo, PA", "address": "1229 E Seminole St #320, Springfield, MO 65804", "city": "Springfield", "phone": "+1 417-820-2064", "website": "https://www.mercy.net/doctor/chelsea-lane-crespo-pa%3Futm_source%3Dgoogle%26utm_medium%3Dorganic_search%26utm_campaign%3Dyext%26utm_term%3D%26utm_content%3Dwebsite%26y_source%3D1_MzkwMjMxMDctNzE1LWxvY2F0aW9uLndlYnNpdGU%253D", "rating": 4.5, "reviews": 2, "place_id": "ChIJ6Tcn16xjz4cRi5hRY2fkuqw", "latitude": 37.17545459999999, "longitude": -93.2751517, "care_type": "Plastic Surgeon"}, {"name": "Jakob Houston Allen, MD", "address": "1229 E Seminole St Suite 340, Springfield, MO 65804", "city": "Springfield", "phone": "+1 417-820-9330", "website": "https://www.mercy.net/doctor/jakob-houston-allen-md%3Futm_source%3Dgoogle%26utm_medium%3Dorganic_search%26utm_campaign%3Dyext%26utm_term%3D%26utm_content%3Dwebsite%26y_source%3D1_MTA3ODY4MzY4NS03MTUtbG9jYXRpb24ud2Vic2l0ZQ%253D%253D", "rating": 5.0, "reviews": 2, "place_id": "ChIJyfNRIBdjz4cRxCaWKYw5qkk", "latitude": 37.1753961, "longitude": -93.27521449999999, "care_type": "Plastic Surgeon"}, {"name": "Dr. William S. Hughes, MD", "address": "1229 E Seminole St Suite 340, Springfield, MO 65804", "city": "Springfield", "phone": "+1 417-820-9330", "website": "", "rating": 5.0, "reviews": 4, "place_id": "ChIJwZkf_lxjz4cRToibkc3CyTo", "latitude": 37.17545459999999, "longitude": -93.2751517, "care_type": "Plastic Surgeon"}, {"name": "Dermatology & Mohs Surgery Skin Cancer Center", "address": "1230 E Kingsley St A, Springfield, MO 65804", "city": "Springfield", "phone": "+1 417-336-0033", "website": "https://www.dermatologyandmohssurgery.com/springfield", "rating": 4.9, "reviews": 841, "place_id": "ChIJmS6Endhlz4cRbb5LEYA5Fws", "latitude": 37.139244, "longitude": -93.277024, "care_type": "Plastic Surgeon"}, {"name": "Ideal Image Springfield", "address": "1111 E Republic Rd #116, Springfield, MO 65807", "city": "Springfield", "phone": "+1 417-730-9220", "website": "https://facetofacespa.com/springfield/", "rating": 4.8, "reviews": 807, "place_id": "ChIJj-mDkOlkz4cRzzrqgaQ1ZL0", "latitude": 37.1388875, "longitude": -93.28070029999999, "care_type": "Plastic Surgeon"}, {"name": "Rosellen S. Meystrik, MD, FACS", "address": "1229 E Seminole St Suite 340, Springfield, MO 65804", "city": "Springfield", "phone": "+1 417-820-9330", "website": "", "rating": 4.1, "reviews": 12, "place_id": "ChIJwZkf_lxjz4cRp9BcsAFL4Ug", "latitude": 37.1753612, "longitude": -93.2751863, "care_type": "Plastic Surgeon"}, {"name": "Kester Nathan L MD", "address": "1530 E Bradford Pkwy, Springfield, MO 65804", "city": "Springfield", "phone": "+1 417-877-0630", "website": "", "rating": 5.0, "reviews": 1, "place_id": "ChIJg0JjALhkz4cR6C7wDeqiu2Q", "latitude": 37.1452836, "longitude": -93.2685728, "care_type": "Plastic Surgeon"}, {"name": "Beautiful You Med Spa", "address": "600 W Republic Rd A-112, Springfield, MO 65807", "city": "Springfield", "phone": "+1 417-350-8730", "website": "https://beautifulyoumed-spa.com/", "rating": 4.9, "reviews": 176, "place_id": "ChIJT0quStllz4cRlYXWtzqXKZ4", "latitude": 37.13691, "longitude": -93.298441, "care_type": "Plastic Surgeon"}, {"name": "Hannah Bergman", "address": "3555 S National Ave Floor 5, Springfield, MO 658077310", "city": "Springfield", "phone": "", "website": "", "rating": 5.0, "reviews": 2, "place_id": "ChIJWcc_jZVkz4cRhAQ1ruvoDPA", "latitude": 37.1489017, "longitude": -93.27902639999999, "care_type": "Plastic Surgeon"}, {"name": "DermaHealth Laser & Skin Care Clinic", "address": "1850 S Stewart Ave, Springfield, MO 65804", "city": "Springfield", "phone": "+1 417-447-7777", "website": "https://www.mydermahealth.com/", "rating": 4.9, "reviews": 819, "place_id": "ChIJYSCc4qxkz4cRBegXKRIc3W4", "latitude": 37.1801474, "longitude": -93.2600301, "care_type": "Plastic Surgeon"}, {"name": "Dr. William Reynolds", "address": "1531 E Bradford Pkwy # 215, Springfield, MO 65804", "city": "Springfield", "phone": "+1 417-823-9777", "website": "", "rating": null, "reviews": 0, "place_id": "ChIJsZXh97dkz4cRqa24iqVsrGo", "latitude": 37.1459937, "longitude": -93.2684158, "care_type": "Plastic Surgeon"}, {"name": "Kristen Jean Angle, FNP-BC", "address": "3555 S National Ave, Springfield, MO 65807", "city": "Springfield", "phone": "+1 417-875-3246", "website": "https://doctors.coxhealth.com/provider/Kristen%2BJean%2BAngle/1568735", "rating": null, "reviews": 0, "place_id": "ChIJ64b2pvdlz4cRA5cd-N6_TfY", "latitude": 37.1488731, "longitude": -93.2791012, "care_type": "Plastic Surgeon"}, {"name": "Ozarks Dermatology Specialists", "address": "3808 S Greystone Ct, Springfield, MO 65804", "city": "Springfield", "phone": "+1 417-889-3332", "website": "http://www.ozarksdermatology.com/", "rating": 4.8, "reviews": 1405, "place_id": "ChIJBT30isdkz4cRpJse1zAlqC8", "latitude": 37.1452303, "longitude": -93.26982749999999, "care_type": "Plastic Surgeon"}, {"name": "John R. Bumberry, MD", "address": "1229 E Seminole St Suite 310, Springfield, MO 65804", "city": "Springfield", "phone": "+1 417-820-9340", "website": "https://www.mercy.net/doctor/john-r-bumberry-md%3Futm_source%3Dgoogle%26utm_medium%3Dorganic_search%26utm_campaign%3Dyext%26utm_term%3DCentral%26utm_content%3Dwebsite%26y_source%3D1_MTI5OTk0NjEtNzE1LWxvY2F0aW9uLndlYnNpdGU%253D", "rating": 3.9, "reviews": 7, "place_id": "ChIJP7g-6ERjz4cRoziBa8ifSa0", "latitude": 37.1754104, "longitude": -93.275194, "care_type": "Plastic Surgeon"}, {"name": "Bentley Skincare & Wellness", "address": "1016 W Battlefield Rd, Springfield, MO 65807", "city": "Springfield", "phone": "+1 417-881-7546", "website": "https://bentleyskincare.com/%3Futm_source%3Dgbp%26utm_medium%3Dorganic", "rating": 5.0, "reviews": 104, "place_id": "ChIJt7vuGDhlz4cRc0pBiktTSag", "latitude": 37.1598026, "longitude": -93.30522769999999, "care_type": "Plastic Surgeon"}, {"name": "Kara Denise Walker, PA-C", "address": "3555 S National Ave, Springfield, MO 65807", "city": "Springfield", "phone": "+1 417-875-3246", "website": "https://doctors.coxhealth.com/provider/Kara%2BDenise%2BWalker/2812360", "rating": null, "reviews": 0, "place_id": "ChIJqfeaTlplz4cR96aaKvz7mXo", "latitude": 37.1488731, "longitude": -93.2791012, "care_type": "Plastic Surgeon"}, {"name": "Christopher A. Edwards, MD", "address": "1965 S Fremont Ave Suite 100, Springfield, MO 65804", "city": "Springfield", "phone": "+1 417-820-3800", "website": "https://www.mercy.net/doctor/christopher-a-edwards-md%3Futm_source%3Dgoogle%26utm_medium%3Dorganic_search%26utm_campaign%3Dyext%26utm_term%3DCentral%26utm_content%3Dwebsite%26y_source%3D1_MTMwMDAwNzEtNzE1LWxvY2F0aW9uLndlYnNpdGU%253D", "rating": 4.3, "reviews": 18, "place_id": "ChIJP7g-6ERjz4cRkaqCNucyaZg", "latitude": 37.1791856, "longitude": -93.27225519999999, "care_type": "Plastic Surgeon"}, {"name": "W. Steven Hughes, MD", "address": "1020 McIntosh Cir Dr #102, Joplin, MO 64804", "city": "Joplin", "phone": "+1 417-781-6844", "website": "https://www.freemanhealth.com/staff/w-steven-hughes", "rating": 4.8, "reviews": 19, "place_id": "ChIJ6-vqhbZ7yIcRHKDQXQHZZls", "latitude": 37.0504059, "longitude": -94.5258257, "care_type": "Plastic Surgeon"}, {"name": "LaFerriere Vitality Centre - Keith LaFerriere, MD", "address": "1200 E Woodhurst Dr H-400, Springfield, MO 65804", "city": "Springfield", "phone": "+1 417-860-9173", "website": "http://lvclivingyounger.com/", "rating": null, "reviews": 0, "place_id": "ChIJnwiCdbhkz4cRl3GBRjxMt2o", "latitude": 37.15692689999999, "longitude": -93.2756709, "care_type": "Plastic Surgeon"}, {"name": "Alyssa Christine Chastain, FNP-C", "address": "3801 S National Ave Suite 700, Springfield, MO 65807", "city": "Springfield", "phone": "+1 417-885-3888", "website": "https://doctors.coxhealth.com/provider/alyssa-chastain/2290967", "rating": null, "reviews": 0, "place_id": "ChIJsTX_t0Jjz4cRvtYF26NAyto", "latitude": 37.1448307, "longitude": -93.2806351, "care_type": "Plastic Surgeon"}, {"name": "Dr. Carla G. Kester, MD", "address": "3231 S National Ave, Springfield, MO 65807", "city": "Springfield", "phone": "+1 417-883-7422", "website": "", "rating": null, "reviews": 0, "place_id": "ChIJd5B785dkz4cRzs4IvZylowQ", "latitude": 37.155373, "longitude": -93.279434, "care_type": "Plastic Surgeon"}, {"name": "Carla Garrison Kester, MD", "address": "1530 E Bradford Pkwy, Springfield, MO 65804", "city": "Springfield", "phone": "+1 417-877-0630", "website": "https://www.healthgrades.com/physician/dr-carla-garrison-kester-ypm9p", "rating": 1.0, "reviews": 1, "place_id": "ChIJ98Rc9jplz4cR12GXleGO6jk", "latitude": 37.1452955, "longitude": -93.2685394, "care_type": "Plastic Surgeon"}, {"name": "Fat Loss And Body Transformation Clinic", "address": "2030 S Stewart Ave, Springfield, MO 65804", "city": "Springfield", "phone": "+1 417-882-6358", "website": "", "rating": 2.0, "reviews": 1, "place_id": "ChIJ-fvPmVJjz4cR_MH5QsHN_wI", "latitude": 37.1770971, "longitude": -93.2597211, "care_type": "Plastic Surgeon"}, {"name": "Shock Plastic Surgery & Spa", "address": "3220 Bluff Creek Dr suite 107, Columbia, MO 65201", "city": "Columbia", "phone": "+1 573-224-8200", "website": "http://shockplasticsurgery.com/", "rating": 5.0, "reviews": 211, "place_id": "ChIJnb310nS53IcR7Vz6IYBi7KQ", "latitude": 38.9140176, "longitude": -92.2970033, "care_type": "Plastic Surgeon"}, {"name": "Osage Valley Plastic Surgery- Columbia, MO", "address": "1601 E Broadway Suite 250, Columbia, MO 65201", "city": "Columbia", "phone": "+1 573-615-1414", "website": "http://www.osagevalleyplasticsurgery.com/", "rating": 4.9, "reviews": 22, "place_id": "ChIJn31yjZS33IcRdVrSL7nF-bY", "latitude": 38.95068699999999, "longitude": -92.3157987, "care_type": "Plastic Surgeon"}, {"name": "Concannon Plastic Surgery", "address": "3115 Falling Leaf Ct, Columbia, MO 65201", "city": "Columbia", "phone": "+1 573-449-5000", "website": "http://www.concannonplasticsurgery.com/", "rating": 4.6, "reviews": 46, "place_id": "ChIJgZjD4dC53IcRWbPVE7YNl9s", "latitude": 38.9154978, "longitude": -92.2959183, "care_type": "Plastic Surgeon"}, {"name": "Dr. Matthew Concannon", "address": "3115 Falling Leaf Ct, Columbia, MO 65201", "city": "Columbia", "phone": "+1 573-449-5000", "website": "http://www.concannonplasticsurgery.com/", "rating": 4.3, "reviews": 12, "place_id": "ChIJgZjD4dC53IcRjejmcxGhoJc", "latitude": 38.9155082, "longitude": -92.2959315, "care_type": "Plastic Surgeon"}, {"name": "Columbia Facial Plastic Surgery", "address": "812 N Keene St, Columbia, MO 65201", "city": "Columbia", "phone": "+1 573-882-8000", "website": "http://columbia-face.com/", "rating": 3.0, "reviews": 4, "place_id": "ChIJM9TntQ643IcRX8e7Do5cdWI", "latitude": 38.9598241, "longitude": -92.2878322, "care_type": "Plastic Surgeon"}, {"name": "Sono Bello Columbia Missouri", "address": "2703 E Broadway Suite 224, Columbia, MO 65201", "city": "Columbia", "phone": "+1 573-615-4054", "website": "https://www.sonobello.com/", "rating": 4.9, "reviews": 50, "place_id": "ChIJY2AX6sm53IcRB6ZyHFPg6ag", "latitude": 38.94730879999999, "longitude": -92.29682539999999, "care_type": "Plastic Surgeon"}, {"name": "Plastic Surgery Como", "address": "1000 W Nifong Blvd bldg 2 suite 200, Columbia, MO 65203", "city": "Columbia", "phone": "+1 573-698-0495", "website": "https://www.plasticsurgerycomo.com/", "rating": null, "reviews": 0, "place_id": "ChIJsQVCjhO33IcRrfteAziWvgw", "latitude": 38.90834359999999, "longitude": -92.35502939999999, "care_type": "Plastic Surgeon"}, {"name": "Stephen Colbert, MD", "address": "1 Hospital Dr, Columbia, MO 65212", "city": "Columbia", "phone": "+1 573-882-2275", "website": "https://www.muhealth.org/doctors/stephen-colbert-md%3Futm_source%3Dgoogle%26utm_medium%3Dlocation_listings%26utm_campaign%3Dyext_location", "rating": 4.7, "reviews": 10, "place_id": "ChIJ-Y2FBRC33IcRjT4mAvQRack", "latitude": 38.938273, "longitude": -92.3273842, "care_type": "Plastic Surgeon"}, {"name": "Pediatric Plastic Surgery, University of Missouri Children's Hospital", "address": "1 Hospital Dr, Columbia, MO 65212", "city": "Columbia", "phone": "+1 573-882-2275", "website": "http://smilesforkids.missouri.edu/", "rating": 3.0, "reviews": 1, "place_id": "ChIJsfst6Lu33IcRlt_4LeQjWFQ", "latitude": 38.9381593, "longitude": -92.3285858, "care_type": "Plastic Surgeon"}, {"name": "Nichols Mohs and Skin Surgery", "address": "303 N Keene St, Columbia, MO 65201", "city": "Columbia", "phone": "+1 573-876-1000", "website": "http://www.nicholssurgery.com/", "rating": 5.0, "reviews": 4, "place_id": "ChIJux78JxC43IcRfq39Jth3SLg", "latitude": 38.954823, "longitude": -92.290759, "care_type": "Plastic Surgeon"}, {"name": "Aurora Medical Spa", "address": "505 E Nifong Blvd Suite 107, Columbia, MO 65201", "city": "Columbia", "phone": "+1 573-615-1893", "website": "https://www.auroramedicalspa.com/columbia-mo/%3Futm_source%3DGMBlisting%26utm_medium%3Dorganic%26utm_campaign%3Dcolumbia", "rating": 5.0, "reviews": 447, "place_id": "ChIJHSxkh2C33IcRXgxzbIHewCk", "latitude": 38.9103313, "longitude": -92.3315349, "care_type": "Plastic Surgeon"}, {"name": "Lisa Brennaman, MD", "address": "1020 Hitt St, Columbia, MO 65212", "city": "Columbia", "phone": "+1 573-499-6084", "website": "https://www.muhealth.org/doctors/lisa-brennaman-md%3Futm_source%3Dgoogle%26utm_medium%3Dlocation_listings%26utm_campaign%3Dyext_location", "rating": 4.5, "reviews": 16, "place_id": "ChIJS-1HiA643IcRT2pSNXZ_LnY", "latitude": 38.9387641, "longitude": -92.32499639999999, "care_type": "Plastic Surgeon"}, {"name": "Raymond Foster, MD", "address": "500 N Keene St STE 306, Columbia, MO 65201", "city": "Columbia", "phone": "+1 573-817-3165", "website": "https://www.muhealth.org/doctors/raymond-foster-md%3Futm_source%3Dgoogle%26utm_medium%3Dlocation_listings%26utm_campaign%3Dyext_location", "rating": 4.0, "reviews": 10, "place_id": "ChIJacAMMg643IcRGgzxGrizg2A", "latitude": 38.9582749, "longitude": -92.288039, "care_type": "Plastic Surgeon"}, {"name": "Cayce Dermatology Clinic", "address": "2011 Corona Rd STE 207, Columbia, MO 65203", "city": "Columbia", "phone": "+1 573-234-1000", "website": "https://columbiaderm.com/", "rating": 4.8, "reviews": 596, "place_id": "ChIJtaAyz8e13IcRQes530VQOkU", "latitude": 38.9329847, "longitude": -92.39895299999999, "care_type": "Plastic Surgeon"}, {"name": "Central Missouri Dermatology Associates - Columbia", "address": "401 N Keene St, Columbia, MO 65201", "city": "Columbia", "phone": "+1 573-876-1616", "website": "https://comoskin.com/", "rating": 4.9, "reviews": 1549, "place_id": "ChIJ2xXC0Q-43IcRQmwoGBSEiI4", "latitude": 38.956186, "longitude": -92.290498, "care_type": "Plastic Surgeon"}, {"name": "Dermatology Center of Columbia", "address": "204 N Keene St #100, Columbia, MO 65201", "city": "Columbia", "phone": "+1 573-442-2961", "website": "https://www.columbiamodermatology.com/", "rating": 4.9, "reviews": 570, "place_id": "ChIJq6rqzhG43IcRwiLorS5yPGw", "latitude": 38.9539678, "longitude": -92.2897428, "care_type": "Plastic Surgeon"}, {"name": "Andrea Hanick", "address": "1000 W Nifong Blvd Building 2, Suite 200, Columbia, MO 65203", "city": "Columbia", "phone": "+1 573-214-2000", "website": "https://www.moentcenter.com/andrea-l-hanick-md/", "rating": 5.0, "reviews": 2, "place_id": "ChIJq6o6kO623IcR-cvLm17vVlY", "latitude": 38.9085074, "longitude": -92.3559538, "care_type": "Plastic Surgeon"}, {"name": "Lumia Med Spa", "address": "2011 Chapel Plaza Ct STE 111, Columbia, MO 65203", "city": "Columbia", "phone": "+1 573-222-0158", "website": "http://www.spalumia.com/", "rating": 5.0, "reviews": 151, "place_id": "ChIJgU6RNQ233IcR45caIQy1i7A", "latitude": 38.92965299999999, "longitude": -92.36489549999999, "care_type": "Plastic Surgeon"}, {"name": "Magnolia Med Spa", "address": "2475 Broadway Bluffs Dr STE 301, Columbia, MO 65201", "city": "Columbia", "phone": "+1 573-874-3235", "website": "https://www.magmedspa.com/", "rating": 4.6, "reviews": 27, "place_id": "ChIJsz6qOB643IcRKrUxoJoXE9k", "latitude": 38.9477298, "longitude": -92.3021935, "care_type": "Plastic Surgeon"}, {"name": "Cayce Medical Spa", "address": "2001 Corona Rd # 201, Columbia, MO 65203", "city": "Columbia", "phone": "+1 573-234-6930", "website": "https://caycemedspa.com/", "rating": 4.2, "reviews": 36, "place_id": "ChIJ__-Ptse13IcRDkANfGz39A8", "latitude": 38.9333244, "longitude": -92.3989884, "care_type": "Plastic Surgeon"}, {"name": "Denicia Dwarica, MD", "address": "500 N Keene St STE 306, Columbia, MO 65201", "city": "Columbia", "phone": "+1 573-817-3165", "website": "https://www.muhealth.org/doctors/denicia-dwarica-md", "rating": 5.0, "reviews": 1, "place_id": "ChIJc59tmw643IcRWhH6BQX8JW4", "latitude": 38.9582749, "longitude": -92.288039, "care_type": "Plastic Surgeon"}, {"name": "Missouri Ear Nose & Throat Center", "address": "1000 W Nifong Blvd Bldg 3 Ste 100, Columbia, MO 65203", "city": "Columbia", "phone": "+1 573-214-2000", "website": "http://www.moentcenter.com/", "rating": 4.3, "reviews": 100, "place_id": "ChIJJQj44e623IcRggwWzxwbbG0", "latitude": 38.9077445, "longitude": -92.3545946, "care_type": "Plastic Surgeon"}, {"name": "Osage Valley Plastic Surgery", "address": "985 Executive Dr, Osage Beach, MO 65065", "city": "Osage Beach", "phone": "+1 573-348-4863", "website": "http://www.osagevalleyplasticsurgery.com/", "rating": 4.9, "reviews": 93, "place_id": "ChIJf2xjOWrbxIcRvOkaiMk7dbY", "latitude": 38.0949211, "longitude": -92.6855892, "care_type": "Plastic Surgeon"}, {"name": "Gregory Renner, MD", "address": "525 N Keene St STE 201, Columbia, MO 65201", "city": "Columbia", "phone": "+1 573-882-7903", "website": "https://www.muhealth.org/doctors/gregory-renner-md%3Futm_source%3Dgoogle%26utm_medium%3Dlocation_listings%26utm_campaign%3Dyext_location", "rating": null, "reviews": 0, "place_id": "ChIJ9_-OVA643IcRqVIhztIOtAM", "latitude": 38.957192, "longitude": -92.28997249999999, "care_type": "Plastic Surgeon"}, {"name": "Maningas Cosmetic Surgery: Dr. Talon Maningas", "address": "620 W 32nd St B, Joplin, MO 64804", "city": "Joplin", "phone": "+1 417-437-0303", "website": "https://mcosmeticsurgery.com/%3Futm_source%3Dgoogle%26utm_medium%3Dlocal", "rating": 4.9, "reviews": 306, "place_id": "ChIJiYTQLtp6yIcROctI8mkhikQ", "latitude": 37.0547215, "longitude": -94.52191189999999, "care_type": "Plastic Surgeon"}, {"name": "Wellness Spa at Maningas Cosmetic Surgery", "address": "620 W 32nd St, Joplin, MO 64804", "city": "Joplin", "phone": "+1 417-437-0303", "website": "https://mcosmeticsurgery.com/medspa-at-maningas-cosmetic-surgery/", "rating": 5.0, "reviews": 3, "place_id": "ChIJP8Hql9h6yIcRNhSETNYDuhg", "latitude": 37.0545855, "longitude": -94.5219199, "care_type": "Plastic Surgeon"}, {"name": "Derma Tech", "address": "2935 E 18th St, Joplin, MO 64804", "city": "Joplin", "phone": "+1 417-206-4884", "website": "https://www.derma-tech.com/%3Futm_source%3DGMB%26utm_medium%3Dorganic%26utm_campaign%3DGMB%2520Homepage", "rating": 4.8, "reviews": 62, "place_id": "ChIJT8CpC518yIcRVG43Yp3XJnQ", "latitude": 37.0712938, "longitude": -94.4784859, "care_type": "Plastic Surgeon"}, {"name": "Phelan Dermatology Aesthetics & Mohs Surgery", "address": "520 E 32nd St, Joplin, MO 64804", "city": "Joplin", "phone": "+1 417-622-0293", "website": "http://www.phelandermatology.com/%3Futm_source%3Dgoogle%26utm_medium%3Dwix_google_business_profile%26utm_campaign%3D7517621832046011451", "rating": 5.0, "reviews": 2013, "place_id": "ChIJ-ZK9ZaR7yIcRPXR-SwL1lCg", "latitude": 37.0545331, "longitude": -94.508836, "care_type": "Plastic Surgeon"}, {"name": "Joplin Hand & Microsurgery Associates", "address": "2727 E 32nd St, Joplin, MO 64804", "city": "Joplin", "phone": "+1 417-621-9000", "website": "", "rating": 5.0, "reviews": 2, "place_id": "ChIJtxwTdVl7yIcRv17mQKzTucw", "latitude": 37.0552288, "longitude": -94.48330969999999, "care_type": "Plastic Surgeon"}, {"name": "Dermatologist | Joplin, MO", "address": "520 E 32nd St, Joplin, MO 64804", "city": "Joplin", "phone": "+1 417-622-0293", "website": "https://www.phelandermatology.com/", "rating": 5.0, "reviews": 2, "place_id": "ChIJWzGToDt7yIcRs19Ug7Ggetg", "latitude": 37.054512, "longitude": -94.5088545, "care_type": "Plastic Surgeon"}, {"name": "U.S. Dermatology Partners Joplin 7th St", "address": "3435 E 7th St, Joplin, MO 64801", "city": "Joplin", "phone": "+1 417-624-6225", "website": "https://www.usdermatologypartners.com/locations/missouri/joplin/3435-e-7th-st/", "rating": 5.0, "reviews": 883, "place_id": "ChIJlZJ12N99yIcRo-SMRo8_-7A", "latitude": 37.0844828, "longitude": -94.4688249, "care_type": "Plastic Surgeon"}, {"name": "Phelan Dermatology & Aesthetics", "address": "520 E 32nd St, Joplin, MO 64804", "city": "Joplin", "phone": "+1 417-622-0293", "website": "http://www.phelandermatology.com/", "rating": 4.9, "reviews": 64, "place_id": "ChIJGdnG-uMDyYcRQwk2KiBerw0", "latitude": 37.0545096, "longitude": -94.5088708, "care_type": "Plastic Surgeon"}, {"name": "River of Time Aesthetics", "address": "2727 E 32nd St # 9, Joplin, MO 64804", "city": "Joplin", "phone": "+1 417-438-1373", "website": "https://riveroftimeaesthetics.com/", "rating": 5.0, "reviews": 3, "place_id": "ChIJrWwHzq97yIcR69IqoY9hyKQ", "latitude": 37.0555322, "longitude": -94.4831786, "care_type": "Plastic Surgeon"}, {"name": "U.S. Dermatology Partners Joplin", "address": "2829 S Jackson Ave, Joplin, MO 64804", "city": "Joplin", "phone": "+1 417-624-0440", "website": "https://www.usdermatologypartners.com/joplin/", "rating": 4.9, "reviews": 1705, "place_id": "ChIJu_rTo996yIcR0CAZWUYXa_E", "latitude": 37.0590883, "longitude": -94.5227532, "care_type": "Plastic Surgeon"}, {"name": "Dr. Bradley R. Burnett, DDS", "address": "2819 E 29th St #1, Joplin, MO 64804", "city": "Joplin", "phone": "+1 417-621-0500", "website": "https://www.oralfacialjoplin.com/meet-us/dr-bradley-burnett/", "rating": 5.0, "reviews": 14, "place_id": "ChIJ2T5Uuth6yIcR4i7Y2sIE5Dk", "latitude": 37.0588567, "longitude": -94.48076669999999, "care_type": "Plastic Surgeon"}, {"name": "Dr. Bruce Silverberg, MD", "address": "2727 E 32nd St Suite A, Joplin, MO 64804", "city": "Joplin", "phone": "+1 417-621-9000", "website": "", "rating": 3.4, "reviews": 5, "place_id": "ChIJy4yba9p6yIcRJDgALbTpmr8", "latitude": 37.0557157, "longitude": -94.48405629999999, "care_type": "Plastic Surgeon"}, {"name": "St. Louis Cosmetic Surgery", "address": "17300 N Outer 40 Rd #300, Chesterfield, MO 63005", "city": "Chesterfield", "phone": "+1 636-530-6161", "website": "https://www.stlcosmeticsurgery.com/%3Futm_source%3Dgoogle%26utm_medium%3Dlocal%26utm_campaign%3Dchesterfield-practice-website", "rating": 4.9, "reviews": 650, "place_id": "ChIJs7acHqAq34cRdJ1Ha_m3Kxo", "latitude": 38.6720126, "longitude": -90.6007656, "care_type": "Plastic Surgeon"}, {"name": "Thomae Medical Spa", "address": "3533 Dunn Rd #210, Florissant, MO 63033", "city": "Florissant", "phone": "+1 314-838-6600", "website": "", "rating": 2.3, "reviews": 3, "place_id": "ChIJhdFbOa5J34cR6ZoFjiYqzuo", "latitude": 38.7720078, "longitude": -90.2729943, "care_type": "Plastic Surgeon"}, {"name": "Parkcrest Plastic Surgery", "address": "845 N New Ballas Ct #300, St. Louis, MO 63141", "city": "St. Louis", "phone": "+1 314-485-4965", "website": "http://www.parkcrestplasticsurgery.com/", "rating": 5.0, "reviews": 500, "place_id": "ChIJo8txkJgy34cRgW_zsrYou7Q", "latitude": 38.673459, "longitude": -90.444284, "care_type": "Plastic Surgeon"}, {"name": "Ridenour Plastic Surgery", "address": "12460 Olive Blvd 2nd floor, Creve Coeur, MO 63141", "city": "Creve Coeur", "phone": "+1 314-878-8600", "website": "http://www.ridenourplasticsurgery.com/", "rating": 4.9, "reviews": 434, "place_id": "ChIJFd0DOGgt34cRx45R1UbvQpI", "latitude": 38.67454, "longitude": -90.46131299999999, "care_type": "Plastic Surgeon"}, {"name": "Aria Cosmetic Surgery", "address": "675 Old Ballas Rd ste 200, Creve Coeur, St. Louis, MO 63141", "city": "St. Louis", "phone": "+1 314-649-5419", "website": "https://ariacosmeticsurgery.com/", "rating": 4.7, "reviews": 195, "place_id": "ChIJ7SK_NYUz34cR0ilgnozQ7AI", "latitude": 38.6678155, "longitude": -90.4389389, "care_type": "Plastic Surgeon"}, {"name": "West County Plastic Surgeons", "address": "1020 N Mason Rd #110, St. Louis, MO 63141", "city": "St. Louis", "phone": "+1 314-996-8800", "website": "https://westcountyplasticsurgeons.wustl.edu/%3Futm_source%3DGoogle%2520My%2520Business%26utm_medium%3DOrganic", "rating": 4.7, "reviews": 97, "place_id": "ChIJPYmMzRQt34cR2C18GY2MNGk", "latitude": 38.6739744, "longitude": -90.4681689, "care_type": "Plastic Surgeon"}, {"name": "Dr. Kelly Currie", "address": "11133 Dunn Rd, St. Louis, MO 63136", "city": "St. Louis", "phone": "+1 314-362-7388", "website": "https://physicians.wustl.edu/people/kelly-b-currie-md/", "rating": 5.0, "reviews": 1, "place_id": "ChIJAQAA7yBJ34cRvxaSm5R8Fz8", "latitude": 38.776651, "longitude": -90.2401515, "care_type": "Plastic Surgeon"}, {"name": "Renaissance Plastic Surgery: Paul B. Mills MD", "address": "145 St Peters Centre Blvd, St Peters, MO 63376", "city": "St Peters", "phone": "+1 636-206-3463", "website": "https://www.rpsplasticsurgery.com/", "rating": 4.9, "reviews": 29, "place_id": "ChIJQR5zvSMo34cRHGfgf9sdUI4", "latitude": 38.7942025, "longitude": -90.5950514, "care_type": "Plastic Surgeon"}, {"name": "Amelia Aesthetics", "address": "1551 Wall St Suite 420, St Charles, MO 63303", "city": "St Charles", "phone": "+1 636-329-4036", "website": "https://www.askamelia.com/locations/st-louis", "rating": 5.0, "reviews": 274, "place_id": "ChIJYTuRDNcv34cRfPo37S8pQfA", "latitude": 38.7800149, "longitude": -90.5250069, "care_type": "Plastic Surgeon"}, {"name": "Renaissance Plastic Surgery: Mark T. Boschert MD", "address": "145 St Peters Centre Blvd, St Peters, MO 63376", "city": "St Peters", "phone": "+1 636-206-3463", "website": "https://www.rpsplasticsurgery.com/", "rating": 5.0, "reviews": 55, "place_id": "ChIJQR5zvSMo34cROpcQEHXXoac", "latitude": 38.794233, "longitude": -90.5950787, "care_type": "Plastic Surgeon"}, {"name": "Ahmed Noor MD", "address": "1224 Graham Rd # 3002, Florissant, MO 63031", "city": "Florissant", "phone": "+1 314-837-8400", "website": "", "rating": null, "reviews": 0, "place_id": "ChIJwaPOIFU234cR2SGOGQsBRHo", "latitude": 38.7786675, "longitude": -90.3330993, "care_type": "Plastic Surgeon"}, {"name": "Christian A. Prada, MD, FACS", "address": "17300 N Outer 40 Rd #300, Chesterfield, MO 63005", "city": "Chesterfield", "phone": "+1 636-530-6161", "website": "https://stlcosmeticsurgery.com/meet-the-surgeons/dr-christian-a-prada-md-facs/%3Futm_source%3Dgoogle%26utm_medium%3Dlocal%26utm_campaign%3Dchesterfield-prada-website", "rating": 5.0, "reviews": 271, "place_id": "ChIJs7acHqAq34cRMA7-6tYZCnk", "latitude": 38.6720126, "longitude": -90.6007656, "care_type": "Plastic Surgeon"}, {"name": "Renaissance Plastic Surgery & R Medical Spa", "address": "145 St Peters Centre Blvd, St Peters, MO 63376", "city": "St Peters", "phone": "+1 636-206-3463", "website": "https://www.rpsplasticsurgery.com/%3Futm_source%3DGMBlisting%26utm_medium%3Dorganic%26utm_campaign%3Dpractice-profile", "rating": 5.0, "reviews": 873, "place_id": "ChIJQR5zvSMo34cRJuHFQMwcWDI", "latitude": 38.7942053, "longitude": -90.59521389999999, "care_type": "Plastic Surgeon"}, {"name": "Renaissance Plastic Surgery: Stefan B. Craig MD", "address": "145 St Peters Centre Blvd, St Peters, MO 63376", "city": "St Peters", "phone": "+1 636-206-3463", "website": "https://www.rpsplasticsurgery.com/", "rating": 4.8, "reviews": 51, "place_id": "ChIJQR5zvSMo34cRFi4EPA-w3Ow", "latitude": 38.7942025, "longitude": -90.5950514, "care_type": "Plastic Surgeon"}, {"name": "Dr. Marissa Tenenbaum, MD", "address": "1020 N Mason Rd #110, St. Louis, MO 63141", "city": "St. Louis", "phone": "+1 314-996-8800", "website": "https://wuphysicians.wustl.edu/for-patients/find-a-physician/marissa-m-tenenbaum", "rating": 4.8, "reviews": 48, "place_id": "ChIJF_W-FSe12IcRRcEXwgHNtnY", "latitude": 38.6739142, "longitude": -90.4681794, "care_type": "Plastic Surgeon"}, {"name": "Washington University Plastic & Reconstructive Surgery Institute", "address": "Medical Building #1,, North 11133 Dunn Rd # 202, St. Louis, MO 63136", "city": "St. Louis", "phone": "+1 314-362-7388", "website": "http://plasticsurgery.wustl.edu/", "rating": null, "reviews": 0, "place_id": "ChIJTwrhkSBJ34cR0jVfF6SsclY", "latitude": 38.776651, "longitude": -90.2401515, "care_type": "Plastic Surgeon"}, {"name": "Dr. Deniz Sarhaddi, MD Cosmetic Plastic Surgeon", "address": "17300 N Outer 40 Rd #300, Chesterfield, MO 63005", "city": "Chesterfield", "phone": "+1 636-530-6161", "website": "https://stlcosmeticsurgery.com/meet-the-surgeons/dr-deniz-sarhaddi-md/%3Futm_source%3Dgoogle%26utm_medium%3Dlocal%26utm_campaign%3Dchesterfield-sarhaddi-website", "rating": 4.9, "reviews": 91, "place_id": "ChIJYZaJ-Kkr34cRQyUcwna2aSM", "latitude": 38.6720126, "longitude": -90.6007656, "care_type": "Plastic Surgeon"}, {"name": "Ear, Nose, Throat/Plastic Surgery, Inc.", "address": "12277 De Paul Dr # 303, Bridgeton, MO 63044", "city": "Bridgeton", "phone": "+1 314-770-0708", "website": "https://stlouisentplasticsurgery.com/", "rating": 1.0, "reviews": 1, "place_id": "ChIJOdbd7Owx34cRsWgw2LoPZe4", "latitude": 38.7512333, "longitude": -90.43439459999999, "care_type": "Plastic Surgeon"}, {"name": "Dr. Terry Myckatyn, MD", "address": "1020 N Mason Rd #110, St. Louis, MO 63141", "city": "St. Louis", "phone": "+1 314-996-8800", "website": "https://westcountyplasticsurgeons.wustl.edu/our-surgeons/terry-myckatyn.html", "rating": 4.5, "reviews": 16, "place_id": "ChIJPYmMzRQt34cRC5xMXIESKXs", "latitude": 38.6739142, "longitude": -90.4681794, "care_type": "Plastic Surgeon"}, {"name": "Renaissance Plastic Surgery: Dr. Brendan Alleyne, MD, FACS", "address": "145 St Peters Centre Blvd, St Peters, MO 63376", "city": "St Peters", "phone": "+1 636-896-0600", "website": "https://www.rpsplasticsurgery.com/", "rating": 5.0, "reviews": 9, "place_id": "ChIJlTMKakMp34cRXwkktSVfYQk", "latitude": 38.7942748, "longitude": -90.5950349, "care_type": "Plastic Surgeon"}, {"name": "Heartland Plastic Surgery", "address": "319 S Silver Springs Rd suite c, Cape Girardeau, MO 63703", "city": "Cape Girardeau", "phone": "+1 888-515-2847", "website": "http://www.heartlandplastic.com/", "rating": 4.8, "reviews": 236, "place_id": "ChIJG_dt4R-Id4gRCAHlUhxJR7c", "latitude": 37.2963033, "longitude": -89.567251, "care_type": "Plastic Surgeon"}, {"name": "Plastic Surgery Center of St. Louis", "address": "1001 S Kirkwood Rd #160, St. Louis, MO 63122", "city": "St. Louis", "phone": "+1 314-984-0461", "website": "https://plasticsurgerycenterstl.com/", "rating": 4.2, "reviews": 5, "place_id": "ChIJ88DK_9vN2IcR6fXjQMIwiG8", "latitude": 38.5664196, "longitude": -90.4077815, "care_type": "Plastic Surgeon"}, {"name": "St. Louis", "address": "12255 De Paul Dr #370, Bridgeton, MO 63044", "city": "Bridgeton", "phone": "+1 314-739-8884", "website": "http://stl-psc.com/", "rating": null, "reviews": 0, "place_id": "ChIJH1L1cOwx34cRtM0E8XVIv6U", "latitude": 38.7507126, "longitude": -90.4332987, "care_type": "Plastic Surgeon"}, {"name": "Tara Ramachandra, M.D.", "address": "845 N New Ballas Ct Suite 310, Creve Coeur, MO 63141", "city": "Creve Coeur", "phone": "+1 314-934-0551", "website": "http://tararamachandra.com/", "rating": 4.9, "reviews": 47, "place_id": "ChIJOaI7hyTL2IcRuLQ-CCxcWuw", "latitude": 38.6735231, "longitude": -90.44397239999999, "care_type": "Plastic Surgeon"}, {"name": "Washington University Plastic and Reconstructive Surgery", "address": "4921 Parkview Pl 13th Fl Suite B, St. Louis, MO 63110", "city": "St. Louis", "phone": "+1 314-362-7388", "website": "http://plasticsurgery.wustl.edu/", "rating": 3.7, "reviews": 3, "place_id": "ChIJ2yrOliC12IcRIXWQxPqblTA", "latitude": 38.6385389, "longitude": -90.2631696, "care_type": "Plastic Surgeon"}, {"name": "Chesterfield Plastic Surgery", "address": "111 St Luke's Center Dr Building B Suite 46, Chesterfield, MO 63017", "city": "Chesterfield", "phone": "+1 314-501-9100", "website": "https://www.plasticsurgery-stl.com/%3Futm_source%3Dgoogle%26utm_medium%3Dorganic%26utm_campaign%3Dgbp%26utm_term%3DChesterfield-Plastic-Surgery%26utm_content%3Dwebsite", "rating": 4.9, "reviews": 31, "place_id": "ChIJpTHrUbQs34cRTo5mbrJmdUc", "latitude": 38.6556033, "longitude": -90.5088579, "care_type": "Plastic Surgeon"}, {"name": "Washington University and Barnes-Jewish Plastic and Reconstructive Surgery Center", "address": "4921 Parkview Pl FLOOR 6 Suite G, St. Louis, MO 63110", "city": "St. Louis", "phone": "+1 314-362-7388", "website": "http://www.barnesjewish.org/Medical-Services/Plastic-Reconstructive-Surgery", "rating": 5.0, "reviews": 3, "place_id": "ChIJz5hrFSe12IcR4G0XkfbvtVw", "latitude": 38.6384374, "longitude": -90.2632928, "care_type": "Plastic Surgeon"}, {"name": "Scott E. Geiger, MD", "address": "B, 111 St Luke's Center Dr Building B Suite 46, Chesterfield, MO 63017", "city": "Chesterfield", "phone": "+1 314-501-9100", "website": "http://www.plasticsurgery-stl.com/", "rating": 4.9, "reviews": 35, "place_id": "ChIJZcPLU7Qs34cR2dIStcBb2Dg", "latitude": 38.6556697, "longitude": -90.50879739999999, "care_type": "Plastic Surgeon"}, {"name": "Washington University Facial Plastic Surgery Center", "address": "1044 N Mason Rd Suite L10, Creve Coeur, MO 63141", "city": "Creve Coeur", "phone": "+1 314-996-3880", "website": "https://facialplasticsurgery.wustl.edu/", "rating": 3.4, "reviews": 8, "place_id": "ChIJb0-tdLsy34cRf2lVcDlILLE", "latitude": 38.67608389999999, "longitude": -90.46934979999999, "care_type": "Plastic Surgeon"}, {"name": "John H. Hulsen, III, MD", "address": "111 St Luke's Center Dr Building B Suite 46, Chesterfield, MO 63017", "city": "Chesterfield", "phone": "+1 314-501-9100", "website": "https://www.plasticsurgery-stl.com/plastic-surgery-st-louis/", "rating": 5.0, "reviews": 15, "place_id": "ChIJ3fN2o_At34cRKJy99VYAkPk", "latitude": 38.6556033, "longitude": -90.5088579, "care_type": "Plastic Surgeon"}, {"name": "Patricia A. McGuire MD", "address": "845 N New Ballas Ct #300, St. Louis, MO 63141", "city": "St. Louis", "phone": "+1 314-485-4965", "website": "http://www.parkcrestplasticsurgery.com/plastic-surgeon-st-louis-dr-mcguire/", "rating": 3.8, "reviews": 14, "place_id": "ChIJuRB_nbwy34cRRuVd2t7yTws", "latitude": 38.6735917, "longitude": -90.4440778, "care_type": "Plastic Surgeon"}, {"name": "Dr. David A. Caplin, MD", "address": "845 N New Ballas Ct #300, St. Louis, MO 63141", "city": "St. Louis", "phone": "+1 314-569-0130", "website": "https://www.parkcrestplasticsurgery.com/plastic-surgeon-st-louis-dr-caplin/", "rating": 5.0, "reviews": 8, "place_id": "ChIJo8txkJgy34cRNon_xpesAxk", "latitude": 38.6735917, "longitude": -90.4440778, "care_type": "Plastic Surgeon"}, {"name": "Plastic Surgery Consultants", "address": "10004 Kennerly Rd #283b, St. Louis, MO 63128", "city": "St. Louis", "phone": "+1 314-842-5885", "website": "http://www.stl-psc.com/", "rating": 5.0, "reviews": 1, "place_id": "ChIJ8Vm4zTXP2IcROIH7sa0Xp0I", "latitude": 38.5068778, "longitude": -90.3802795, "care_type": "Plastic Surgeon"}, {"name": "St. Louis Facial Plastic Surgery", "address": "1588 S Lindbergh Blvd Suite 210, St. Louis, MO 63131", "city": "St. Louis", "phone": "+1 314-475-3700", "website": "", "rating": 4.9, "reviews": 11, "place_id": "ChIJK8258iPN2IcRNtOwhegcbMo", "latitude": 38.6321125, "longitude": -90.40476819999999, "care_type": "Plastic Surgeon"}, {"name": "Center for Advanced Medicine - Plastic and Reconstructive Surgery Center", "address": "4921 Parkview Pl #6g, St. Louis, MO 63110", "city": "St. Louis", "phone": "+1 314-362-7388", "website": "https://physicians.wustl.edu/places/center-for-advanced-medicine-plastic-and-reconstructive-surgery-center/", "rating": null, "reviews": 0, "place_id": "ChIJjZj6lCC12IcRwDgNiu1Be2o", "latitude": 38.6382292, "longitude": -90.26295789999999, "care_type": "Plastic Surgeon"}, {"name": "Dr. Ida K. Fox, MD", "address": "4921 Parkview Pl #6g, St. Louis, MO 63110", "city": "St. Louis", "phone": "+1 314-362-7388", "website": "https://wuphysicians.wustl.edu/for-patients/find-a-physician/ida-k-fox", "rating": 4.2, "reviews": 5, "place_id": "ChIJfziQPye12IcRT2HnXlOIcRA", "latitude": 38.6383805, "longitude": -90.2631818, "care_type": "Plastic Surgeon"}, {"name": "Dr. Thomas H. Tung, MD", "address": "4921 Parkview Pl #6c, St. Louis, MO 63110", "city": "St. Louis", "phone": "+1 314-362-7388", "website": "https://physicians.wustl.edu/people/thomas-h-tung-md/", "rating": 2.8, "reviews": 14, "place_id": "ChIJfziQPye12IcRHVOIyfBWK6Q", "latitude": 38.6383805, "longitude": -90.2631818, "care_type": "Plastic Surgeon"}, {"name": "Rinehart Gregory C MD", "address": "1001 S Kirkwood Rd #160, Kirkwood, MO 63122", "city": "Kirkwood", "phone": "+1 314-984-0461", "website": "https://www.plasticsurgerycenterstl.com/about-us", "rating": 3.7, "reviews": 22, "place_id": "ChIJIcwXKoLO2IcROI4w_ajiEtU", "latitude": 38.566106, "longitude": -90.4076767, "care_type": "Plastic Surgeon"}, {"name": "Ophthalmic Plastic & Cosmetic Surgery Inc.", "address": "3530 Jeffco Blvd #100, Arnold, MO 63010", "city": "Arnold", "phone": "+1 636-548-0908", "website": "http://www.eyelidmd.com/", "rating": null, "reviews": 0, "place_id": "ChIJ3y6XbNrF2IcR4Lf8ugOuP-A", "latitude": 38.4128486, "longitude": -90.37876179999999, "care_type": "Plastic Surgeon"}, {"name": "Missouri Plastic & Hand Surgery", "address": "300 S Mt Auburn Rd STE 100, Cape Girardeau, MO 63703", "city": "Cape Girardeau", "phone": "+1 573-651-4488", "website": "https://missouriphs.com/", "rating": 4.9, "reviews": 30, "place_id": "ChIJYYcLM4oneIgRdTe89ob15t0", "latitude": 37.2944959, "longitude": -89.5727984, "care_type": "Plastic Surgeon"}, {"name": "Samer W. Cabbabe, MD | Board - Certified Plastic Surgeon", "address": "10004 Kennerly Rd Suite 281B, St. Louis, MO 63128", "city": "St. Louis", "phone": "+1 314-842-5885", "website": "https://www.stl-psc.com/%3Futm_source%3Dgoogle%26utm_medium%3Dorganic%26utm_campaign%3Dgbp%26utm_term%3DSamer-W-Cabbabe-MD-%257C-Board-Certified-Plastic-Surgeon%26utm_content%3Dwebsite", "rating": 4.8, "reviews": 248, "place_id": "ChIJnWyRU8ss34cRwnvtahSoCDM", "latitude": 38.5069, "longitude": -90.37978919999999, "care_type": "Plastic Surgeon"}, {"name": "Nayak Plastic Surgery", "address": "607 S Lindbergh Blvd, St. Louis, MO 63131", "city": "St. Louis", "phone": "+1 314-991-5438", "website": "https://www.nayakplasticsurgery.com/", "rating": 4.8, "reviews": 285, "place_id": "ChIJ97-KDtHM2IcRBeeiFK0qdOU", "latitude": 38.645309, "longitude": -90.405987, "care_type": "Plastic Surgeon"}, {"name": "Paul Rottler, MD, FACS", "address": "13625 Big Bend Rd, St. Louis, MO 63122", "city": "St. Louis", "phone": "+1 314-966-8880", "website": "https://www.dr-rottler.com/%3Futm_source%3Dgoogle%26utm_medium%3Dorganic%26utm_campaign%3Dgbp%26utm_term%3DPaul-Rottler-MD-FACS%26utm_content%3Dwebsite", "rating": 4.4, "reviews": 70, "place_id": "ChIJ88DK_9vN2IcRHuPRy3mVVUc", "latitude": 38.5680217, "longitude": -90.47725, "care_type": "Plastic Surgeon"}, {"name": "Bailey Cosmetic Surgery & Vein Centre", "address": "1708 W Main St, Sedalia, MO 65301", "city": "Sedalia", "phone": "+1 660-829-0804", "website": "https://baileyveinandskincare.com/%3FUTM_source%3DGBP_listing%26UTM_medium%3Dorganic%26source%3Dgmb", "rating": 4.7, "reviews": 18, "place_id": "ChIJRXmxRI2Fw4cRaCsriewU4qQ", "latitude": 38.7143393, "longitude": -93.24804119999999, "care_type": "Plastic Surgeon"}, {"name": "Dermatology & Mohs Surgery Skin Cancer Center", "address": "10101 Stoltz Dr, Rolla, MO 65401", "city": "Rolla", "phone": "+1 417-336-0033", "website": "https://www.dermatologyandmohssurgery.com/rolla/", "rating": 4.8, "reviews": 41, "place_id": "ChIJ390h3ClT2ocRRSTgqovni2I", "latitude": 37.9528593, "longitude": -91.73930899999999, "care_type": "Plastic Surgeon"}, {"name": "Lake Medical Spa- Rolla", "address": "201 S Bishop Ave Suite B, Rolla, MO 65401", "city": "Rolla", "phone": "+1 573-426-7020", "website": "http://www.lakemedicalspa.com/", "rating": 4.9, "reviews": 44, "place_id": "ChIJnyhOo71V2ocRj-GoiUPlfhk", "latitude": 37.9416735, "longitude": -91.7767808, "care_type": "Plastic Surgeon"}, {"name": "Dermatology Center", "address": "10101 Stoltz Dr, Rolla, MO 65401", "city": "Rolla", "phone": "+1 573-364-0122", "website": "https://www.rolladermcenter.com/", "rating": 4.4, "reviews": 21, "place_id": "ChIJ5_cG9kRT2ocRs2_LcH4bPkE", "latitude": 37.9528601, "longitude": -91.73924219999999, "care_type": "Plastic Surgeon"}, {"name": "Bailey Cosmetic Surgery & Vein Centre", "address": "1811 Martin Springs Dr Suite A, Rolla, MO 65401", "city": "Rolla", "phone": "+1 573-458-6996", "website": "https://baileyveinandskincare.com/%3FUTM_source%3DGBP_listing%26UTM_medium%3Dorganic%26source%3Dgmb", "rating": 4.7, "reviews": 20, "place_id": "ChIJHwawFxdV2ocRGfJJ7qm0wrw", "latitude": 37.9397201, "longitude": -91.8042297, "care_type": "Plastic Surgeon"}, {"name": "U.S. Dermatology Partners Belton MO", "address": "17067 S Outer Rd Ste 200, Belton, MO 64012", "city": "Belton", "phone": "+1 816-630-7546", "website": "https://www.usdermatologypartners.com/locations/missouri/belton/17067-s-outer-rd-ste-200/", "rating": 2.6, "reviews": 8, "place_id": "ChIJg_XBPIrbwIcR-N6mrIjAiUw", "latitude": 38.8154232, "longitude": -94.5022211, "care_type": "Plastic Surgeon"}, {"name": "Aesthetic Nirvana", "address": "1648 W Harper St Suite 2, Poplar Bluff, MO 63901", "city": "Poplar Bluff", "phone": "+1 573-609-2203", "website": "https://aestheticnirvana.com/%3Futm_source%3Dgoogle%26utm_medium%3Dlocal", "rating": 4.8, "reviews": 57, "place_id": "ChIJ4Wnp6Ryx14cR_hZO3SoGExc", "latitude": 36.7663167, "longitude": -90.4154575, "care_type": "Plastic Surgeon"}, {"name": "Elite Dermatology | Poplar Bluff, MO", "address": "1600 W Harper St, Poplar Bluff, MO 63901", "city": "Poplar Bluff", "phone": "+1 573-686-4750", "website": "https://thedermatologyoffice.com/about/", "rating": 3.6, "reviews": 31, "place_id": "ChIJ8ylB0vqv14cRWgQNwY-Gbvo", "latitude": 36.7662603, "longitude": -90.414979, "care_type": "Plastic Surgeon"}, {"name": "Hiers Connie L MD", "address": "225 Physicians Park Suite 400, Poplar Bluff, MO 63901", "city": "Poplar Bluff", "phone": "+1 573-727-5500", "website": "http://www.sfmc.net/", "rating": null, "reviews": 0, "place_id": "ChIJ8ylB0vqv14cRUvVOHW0mmZo", "latitude": 36.7877026, "longitude": -90.4260966, "care_type": "Plastic Surgeon"}, {"name": "Judith Gurley Plastic Surgery & Medical Spa", "address": "9910 Clayton Rd, St. Louis, MO 63124", "city": "St. Louis", "phone": "+1 314-200-2910", "website": "https://judithgurley.com/%3Futm_source%3Dgoogle%26utm_medium%3Dorganic%26utm_campaign%3Dgbp", "rating": 5.0, "reviews": 279, "place_id": "ChIJMe0upcrU2IcRP09niJ4U8gw", "latitude": 38.6369023, "longitude": -90.3927219, "care_type": "Plastic Surgeon"}, {"name": "Metropolitian Plastic Surgery", "address": "8301 Maryland Ave, St. Louis, MO 63105", "city": "St. Louis", "phone": "", "website": "", "rating": 3.0, "reviews": 1, "place_id": "ChIJP37dE9g134cRct2Ic1HNdBM", "latitude": 38.6531936, "longitude": -90.3460436, "care_type": "Plastic Surgeon"}, {"name": "Saint Louis Children's Hospital Plastic Surgery Department", "address": "1 Children's Pl, St. Louis, MO 63110", "city": "St. Louis", "phone": "+1 314-454-6000", "website": "https://www.stlouischildrens.org/", "rating": 3.0, "reviews": 3, "place_id": "ChIJHd4_sSa12IcRR-hf-1QA49E", "latitude": 38.6377803, "longitude": -90.2650159, "care_type": "Plastic Surgeon"}, {"name": "Howard Plastic Surgery", "address": "3241 W Truman Blvd #100, Jefferson City, MO 65109", "city": "Jefferson City", "phone": "+1 573-635-9668", "website": "http://www.howardplasticsurgery.com/", "rating": 4.9, "reviews": 19, "place_id": "ChIJjd0jqd9Y24cRVJks3E0srLM", "latitude": 38.5919084, "longitude": -92.2410036, "care_type": "Plastic Surgeon"}, {"name": "Christina Plikaitis, MD", "address": "1027 Bellevue Ave Suite G25, St. Louis, MO 63117", "city": "St. Louis", "phone": "+1 314-617-2000", "website": "https://www.getcare.ssmhealth.com/find-a-doctor/doctor-details/christina-m-plikaitis-md%3Fy_source%3D1_MTAwNTc2OTQyNy03MTUtbG9jYXRpb24ud2Vic2l0ZQ%253D%253D", "rating": 5.0, "reviews": 8, "place_id": "ChIJidxLnSPL2IcRK6x8owLIhqU", "latitude": 38.6333852, "longitude": -90.3126121, "care_type": "Plastic Surgeon"}, {"name": "Lifestyle Lift, St. Louis", "address": "8301 Maryland Ave Suite 300, Clayton, MO 63105", "city": "Clayton", "phone": "+1 877-333-7354", "website": "", "rating": 1.0, "reviews": 0, "place_id": "ChIJd7gEsdI034cR4oHV4-92cag", "latitude": 38.6532036, "longitude": -90.3460312, "care_type": "Plastic Surgeon"}, {"name": "Faces STL", "address": "9733 Clayton Rd, St. Louis, MO 63124", "city": "St. Louis", "phone": "+1 314-788-6387", "website": "https://facesstl.com/", "rating": 5.0, "reviews": 0, "place_id": "ChIJjTHoda_N2IcRDxU44nsOM2k", "latitude": 38.6390484, "longitude": -90.3891367, "care_type": "Plastic Surgeon"}, {"name": "PRICK'D Medspa", "address": "35 The Blvd Saint Louis, St. Louis, MO 63117", "city": "St. Louis", "phone": "+1 314-256-1290", "website": "https://www.prickdmedspa.com/%3Futm_source%3Dgoogle%26utm_medium%3Dorganic%26utm_campaign%3Dgbp", "rating": 4.9, "reviews": 0, "place_id": "ChIJvwBO6QzN2IcRbbExFYWQRVs", "latitude": 38.6343195, "longitude": -90.34546139999999, "care_type": "Plastic Surgeon"}, {"name": "Kamlesh B Patel, MD", "address": "1 Children's Pl, St. Louis, MO 63110", "city": "St. Louis", "phone": "+1 800-283-5848", "website": "https://wuphysicians.wustl.edu/for-patients/find-a-physician/kamlesh-b-patel", "rating": 5.0, "reviews": 7, "place_id": "ChIJVUeQPye12IcR6bpS4itRRVI", "latitude": 38.6377169, "longitude": -90.2642791, "care_type": "Plastic Surgeon"}, {"name": "Face Forward Regenerative Aesthetics", "address": "9840 Clayton Rd, St. Louis, MO 63124", "city": "St. Louis", "phone": "+1 314-417-9017", "website": "https://faceforwardstl.com/%3Futm_source%3Dgbp%26utm_medium%3Dorganic%26utm_campaign%3Dgbp-listing", "rating": 5.0, "reviews": 0, "place_id": "ChIJEZC4StTN2IcRoeOnPiNgXvQ", "latitude": 38.6374006, "longitude": -90.3912252, "care_type": "Plastic Surgeon"}, {"name": "Beautify Agency", "address": "522 S Hanley Rd Suite B, Clayton, MO 63105", "city": "Clayton", "phone": "+1 314-222-0101", "website": "https://www.beautifyagency.com/", "rating": 4.9, "reviews": 0, "place_id": "ChIJYWRkxB_L2IcRbZgku981G-4", "latitude": 38.6434388, "longitude": -90.33475469999999, "care_type": "Plastic Surgeon"}, {"name": "Mitchell A. Pet, MD", "address": "Center for Advanced Medicine - Plastic and Reconstructive Surgery Center 4921 Parkview Place St. Louis, MO 63110 Floor: 6, Suite: G, St. Louis, MO 63110", "city": "St. Louis", "phone": "+1 314-362-7388", "website": "https://wuphysicians.wustl.edu/for-patients/find-a-physician/mitchell-a-pet", "rating": 5.0, "reviews": 7, "place_id": "ChIJAZ7ib6y12IcRasVJ_6S5l94", "latitude": 38.638363, "longitude": -90.263234, "care_type": "Plastic Surgeon"}, {"name": "Facial Plastic & Cosmetic Surgery Center", "address": "10448 Old Olive Street Rd, St. Louis, MO 63146", "city": "St. Louis", "phone": "+1 314-743-4000", "website": "", "rating": 1.0, "reviews": 0, "place_id": "ChIJwzuvEOAy34cRDAkZ1A1M9cY", "latitude": 38.6754654, "longitude": -90.4108321, "care_type": "Plastic Surgeon"}, {"name": "JCMG Plastic and Reconstructive Surgery", "address": "1241 W Stadium Blvd Floor 2, Jefferson City, MO 65109", "city": "Jefferson City", "phone": "+1 573-556-7722", "website": "https://www.jcmg.org/specialties/plastic-reconstructive-surgery/", "rating": null, "reviews": 0, "place_id": "ChIJj1Rm6fFf24cR00Pzt6jkndQ", "latitude": 38.570238, "longitude": -92.2143669, "care_type": "Plastic Surgeon"}, {"name": "Hart Cosmetic & Reconstructive Surgery Institute", "address": "969 Executive Pkwy Dr, Creve Coeur, MO 63141", "city": "Creve Coeur", "phone": "+1 314-991-1700", "website": "http://www.hartmd.com/contact.htm", "rating": null, "reviews": 0, "place_id": "ChIJVVUVcRUt34cRScRrTlrkXQo", "latitude": 38.6739115, "longitude": -90.4711025, "care_type": "Plastic Surgeon"}, {"name": "Midwest Plastic & Hand Surgery", "address": "621 S New Ballas Rd # 6003B, St. Louis, MO 63141", "city": "St. Louis", "phone": "+1 314-991-2151", "website": "", "rating": null, "reviews": 0, "place_id": "ChIJXeSOMFHN2IcRiC2n6cn5A3k", "latitude": 38.645123, "longitude": -90.44497799999999, "care_type": "Plastic Surgeon"}, {"name": "Arch Aesthetics", "address": "1034 S Brentwood Blvd #754, Richmond Heights, MO 63117", "city": "Richmond Heights", "phone": "+1 314-353-9770", "website": "https://archaestheticsclinic.com/", "rating": 5.0, "reviews": 18, "place_id": "ChIJHfN00E_L2IcRZ0Z6nR9vM30", "latitude": 38.6359297, "longitude": -90.3440978, "care_type": "Plastic Surgeon"}, {"name": "Look Lab Med Spa", "address": "7805 Clayton Rd, Clayton, MO 63117", "city": "Clayton", "phone": "+1 314-886-5665", "website": "https://looklab.com/locations/clayton-mo/", "rating": 5.0, "reviews": 1241, "place_id": "ChIJ2Ry7GtvL2IcRrtls0tUZ5gg", "latitude": 38.6378809, "longitude": -90.3385512, "care_type": "Plastic Surgeon"}, {"name": "Brian Mailey, MD", "address": "1034 S Brentwood Blvd Suite 550, St. Louis, MO 63117", "city": "St. Louis", "phone": "+1 314-617-2000", "website": "https://www.getcare.ssmhealth.com/find-a-doctor/doctor-details/brian-a-mailey-md", "rating": null, "reviews": 0, "place_id": "ChIJEelbPsHL2IcRgwr4vn_n9fo", "latitude": 38.6360762, "longitude": -90.3440456, "care_type": "Plastic Surgeon"}, {"name": "Plastic Surgery International", "address": "456 N New Ballas Rd, St. Louis, MO 63141", "city": "St. Louis", "phone": "+1 314-878-2278", "website": "", "rating": 5.0, "reviews": 1, "place_id": "ChIJZYvTG6Uy34cRK4e8Md5CeYU", "latitude": 38.66433079999999, "longitude": -90.4419929, "care_type": "Plastic Surgeon"}, {"name": "Willis Cosmetic Surgery & MedSpa", "address": "15322 Manchester Rd, Ellisville, MO 63011", "city": "Ellisville", "phone": "+1 636-226-4444", "website": "https://williscosmeticsurgery.com/", "rating": 5.0, "reviews": 93, "place_id": "ChIJJYUqo-TV2IcRTl4aj2Ny_t8", "latitude": 38.5924359, "longitude": -90.5592801, "care_type": "Plastic Surgeon"}, {"name": "Fantastic Plastic Surgery", "address": "311 Consort Dr, Ballwin, MO 63011", "city": "Ballwin", "phone": "+1 636-256-7546", "website": "", "rating": null, "reviews": 0, "place_id": "ChIJw7nKSLLT2IcRbagEGyNGP-M", "latitude": 38.5970066, "longitude": -90.49121339999999, "care_type": "Plastic Surgeon"}, {"name": "Cara E. Hahs, MD", "address": "15945 Clayton Rd Suite 120A, Ballwin, MO 63011", "city": "Ballwin", "phone": "+1 636-256-5000", "website": "https://www.mercy.net/doctor/cara-e-hahs-md%3Futm_source%3Dgoogle%26utm_medium%3Dorganic_search%26utm_campaign%3Dyext%26utm_term%3DEast%26utm_content%3Dwebsite%26y_source%3D1_MTMwMDAxMDgtNzE1LWxvY2F0aW9uLndlYnNpdGU%253D", "rating": 5.0, "reviews": 7, "place_id": "ChIJoX5IjpDV2IcRcUDgHSFawuk", "latitude": 38.6054713, "longitude": -90.58804839999999, "care_type": "Plastic Surgeon"}, {"name": "Ophthalmic Plastic & Cosmetic Surgery, Inc.", "address": "12990 Manchester Rd # 102, St. Louis, MO 63131", "city": "St. Louis", "phone": "+1 314-567-3567", "website": "https://www.eyelidmd.com/", "rating": 4.8, "reviews": 109, "place_id": "ChIJ7_a-3HrS2IcRJN5g8NIJ52I", "latitude": 38.6016882, "longitude": -90.4585807, "care_type": "Plastic Surgeon"}, {"name": "Abigail Weil Hoffman, MD", "address": "15945 Clayton Rd Suite 120A, Ballwin, MO 63011", "city": "Ballwin", "phone": "+1 636-256-5000", "website": "https://www.mercy.net/doctor/abigail-weil-hoffman-md%3Futm_source%3Dgoogle%26utm_medium%3Dorganic_search%26utm_campaign%3Dyext%26utm_term%3DEast%26utm_content%3Dwebsite%26y_source%3D1_MTI5OTkwNzAtNzE1LWxvY2F0aW9uLndlYnNpdGU%253D", "rating": 4.2, "reviews": 5, "place_id": "ChIJP8QxzA_V2IcRylrr2GqqO1A", "latitude": 38.6054713, "longitude": -90.58804839999999, "care_type": "Plastic Surgeon"}, {"name": "Body Aesthetic Plastic Surgery & Skincare Center", "address": "969 N Mason Rd Suite 170, St. Louis, MO 63141", "city": "St. Louis", "phone": "+1 314-628-8200", "website": "https://www.bodyaesthetic.com/", "rating": 5.0, "reviews": 128, "place_id": "ChIJ9fjHdhUt34cRgQ520T2XDnw", "latitude": 38.673969, "longitude": -90.471109, "care_type": "Plastic Surgeon"}, {"name": "Dr. Jonathan Pollack, MD", "address": "15945 Clayton Rd #305, Ballwin, MO 63011", "city": "Ballwin", "phone": "+1 314-251-5570", "website": "https://www.mercy.net/doctor/jonathan-pollack-md", "rating": 5.0, "reviews": 1, "place_id": "ChIJGXfDFJzV2IcRbxwc125q5o0", "latitude": 38.6053231, "longitude": -90.58833539999999, "care_type": "Plastic Surgeon"}, {"name": "Richard L. Kofkoff, MD", "address": "16216 Baxter Rd #250, Chesterfield, MO 63017", "city": "Chesterfield", "phone": "+1 636-532-1717", "website": "https://rymaps.xyz/business/richard-l-kofkoff-md-k73dsk", "rating": 5.0, "reviews": 12, "place_id": "ChIJ-QIq9yXV2IcR3Jxyx_aoXpE", "latitude": 38.640705, "longitude": -90.56953999999999, "care_type": "Plastic Surgeon"}, {"name": "Jeffrey G. Copeland, MD, FACS", "address": "2 Richmond Center Ct, St Peters, MO 63376", "city": "St Peters", "phone": "+1 636-397-2001", "website": "https://www.copelandcosmeticsurgery.com/", "rating": 4.8, "reviews": 65, "place_id": "ChIJz19RF0Eo34cRfOzdP158vbU", "latitude": 38.8008259, "longitude": -90.6611856, "care_type": "Plastic Surgeon"}, {"name": "Amelia Medspa", "address": "1551 Wall St suite 320, St Charles, MO 63303", "city": "St Charles", "phone": "+1 636-329-4036", "website": "https://www.askamelia.com/medspa/st-louis", "rating": 5.0, "reviews": 0, "place_id": "ChIJTynuo_Er34cREwdym3tt36E", "latitude": 38.7799832, "longitude": -90.5250083, "care_type": "Plastic Surgeon"}, {"name": "Ophthalmic Plastic & Cosmetic Surgery, Inc.", "address": "300 St Peters Centre Blvd # 150, St Peters, MO 63376", "city": "St Peters", "phone": "+1 636-706-5500", "website": "https://www.eyelidmd.com/", "rating": null, "reviews": 0, "place_id": "ChIJ9YUTgsMp34cRI3JkZiQ3bVE", "latitude": 38.7973308, "longitude": -90.5961366, "care_type": "Plastic Surgeon"}, {"name": "Indigo MedSpa", "address": "3100 SW State Rte 7 STE A, Blue Springs, MO 64014", "city": "Blue Springs", "phone": "+1 816-295-5162", "website": "https://www.myindigoclinic.com/%3Futm_source%3Dgmb_auth", "rating": 4.9, "reviews": 253, "place_id": "ChIJDYib2AodwYcR0B5OtkNT6s4", "latitude": 38.9892686, "longitude": -94.2727419, "care_type": "Plastic Surgeon"}, {"name": "Dr. Justin M. Sacks, MD", "address": "4921 Parkview Pl #6g, St. Louis, MO 63110", "city": "St. Louis", "phone": "+1 314-362-7388", "website": "https://physicians.wustl.edu/people/justin-m-sacks-md-mba/", "rating": 3.9, "reviews": 14, "place_id": "ChIJfVPJFIgEyIkRNV5WQFjacj0", "latitude": 38.6383805, "longitude": -90.2631818, "care_type": "Plastic Surgeon"}, {"name": "Dr. Amy F. Kells, MD, PhD", "address": "4921 Parkview Pl #6g, St. Louis, MO 63110", "city": "St. Louis", "phone": "+1 314-362-7388", "website": "https://physicians.wustl.edu/people/amy-f-kells-md-phd/", "rating": 3.0, "reviews": 6, "place_id": "ChIJVUeQPye12IcRw1fgs604jl0", "latitude": 38.6383805, "longitude": -90.2631818, "care_type": "Plastic Surgeon"}, {"name": "Dr. Susan E. Mackinnon, MD", "address": "660 S Euclid Ave, St. Louis, MO 63110", "city": "St. Louis", "phone": "+1 314-362-7388", "website": "https://physicians.wustl.edu/people/susan-e-mackinnon-md/", "rating": 3.4, "reviews": 19, "place_id": "ChIJjZj6lCC12IcRb6D7_WN1xbM", "latitude": 38.6354025, "longitude": -90.26266439999999, "care_type": "Plastic Surgeon"}, {"name": "Dr. Keith E. Brandt, MD", "address": "660 S Euclid Ave #1150, St. Louis, MO 63110", "city": "St. Louis", "phone": "+1 314-362-7388", "website": "", "rating": 4.2, "reviews": 5, "place_id": "ChIJjZj6lCC12IcRuoBBvgJCY2M", "latitude": 38.63476319999999, "longitude": -90.2629128, "care_type": "Plastic Surgeon"}, {"name": "Rachel A. Anolik, MD", "address": "4921 Parkview Pl Suite #6G, St. Louis, MO 63110", "city": "St. Louis", "phone": "+1 314-362-7388", "website": "https://physicians.wustl.edu/people/rachel-a-anolik-md/", "rating": 4.6, "reviews": 11, "place_id": "ChIJs2GasD6_xokRDB3sLjTE9OI", "latitude": 38.635666, "longitude": -90.2644122, "care_type": "Plastic Surgeon"}, {"name": "Keith E. Brandt, MD, FACS", "address": "4921 Parkview Pl Floor: 6, Suite: G, St. Louis, MO 63110", "city": "St. Louis", "phone": "+1 314-362-7388", "website": "https://wuphysicians.wustl.edu/for-patients/find-a-physician/keith-e-brandt", "rating": 5.0, "reviews": 2, "place_id": "ChIJfziQPye12IcRqTDXFko4urE", "latitude": 38.638363, "longitude": -90.263234, "care_type": "Plastic Surgeon"}, {"name": "Robi Maamari, MD FACS", "address": "4901 Forest Park Ave 6th floor, St. Louis, MO 63108", "city": "St. Louis", "phone": "+1 314-747-5437", "website": "https://physicians.wustl.edu/people/robi-n-maamari-md/", "rating": 4.9, "reviews": 57, "place_id": "ChIJdyvU1t612IcR3Pk8wkNqcV8", "latitude": 38.6394168, "longitude": -90.2625393, "care_type": "Plastic Surgeon"}, {"name": "Dr. Bruce A. Kraemer, MD", "address": "1035 Bellevue Ave, St. Louis, MO 63117", "city": "St. Louis", "phone": "+1 314-977-6051", "website": "", "rating": 5.0, "reviews": 1, "place_id": "ChIJkSsA3b3K2IcRNH7o7ztOETU", "latitude": 38.6326828, "longitude": -90.31273639999999, "care_type": "Plastic Surgeon"}, {"name": "MarElyse MediSpa", "address": "1034 S Brentwood Blvd #1010, St. Louis, MO 63117", "city": "St. Louis", "phone": "+1 314-571-6062", "website": "https://www.marelyse.com/", "rating": 4.9, "reviews": 0, "place_id": "ChIJM0xBLW3L2IcRLoJUM9CEhYc", "latitude": 38.6359297, "longitude": -90.3440978, "care_type": "Plastic Surgeon"}, {"name": "William Young Zhu, MD", "address": "4921 Parkview Pl Suite: 6G, St. Louis, MO 63110", "city": "St. Louis", "phone": "+1 314-362-7388", "website": "https://physicians.wustl.edu/people/william-young-zhu-md/", "rating": null, "reviews": 0, "place_id": "ChIJ8z3Auy612IcRw1Gpe_Bez1U", "latitude": 38.6383622, "longitude": -90.26330929999999, "care_type": "Plastic Surgeon"}, {"name": "Eric Barbarite, MD", "address": "4921 Parkview Pl Suite: 11A, St. Louis, MO 63110", "city": "St. Louis", "phone": "+1 314-362-7509", "website": "https://physicians.wustl.edu/people/eric-barbarite-md/", "rating": 5.0, "reviews": 1, "place_id": "ChIJpdEbBly12IcRC_JY8LOzQe8", "latitude": 38.6383181, "longitude": -90.26320679999999, "care_type": "Plastic Surgeon"}, {"name": "Dr. Brock Ridenour", "address": "12460 Olive Blvd Fl 2, St. Louis, MO 63141", "city": "St. Louis", "phone": "+1 314-878-8600", "website": "https://www.ridenourplasticsurgery.com/", "rating": 4.5, "reviews": 13, "place_id": "ChIJt2LGR2gt34cR9IlQHdzsckY", "latitude": 38.6744959, "longitude": -90.4613949, "care_type": "Plastic Surgeon"}, {"name": "Steven M. Couch, MD", "address": "Center for Outpatient Health, 4901 Forest Park Ave 6th floor, St. Louis, MO 63108", "city": "St. Louis", "phone": "+1 314-362-3937", "website": "https://wuphysicians.wustl.edu/for-patients/find-a-physician/steven-m-couch", "rating": 4.7, "reviews": 0, "place_id": "ChIJfziQPye12IcRk9yZuwiK0MY", "latitude": 38.6395608, "longitude": -90.26252319999999, "care_type": "Plastic Surgeon"}, {"name": "Thomas H. Tung, MD", "address": "Northwest Tower, 660 S Euclid Ave #1150, St. Louis, MO 63110", "city": "St. Louis", "phone": "+1 314-362-4588", "website": "", "rating": null, "reviews": 0, "place_id": "ChIJjZj6lCC12IcRbkxVT9Qug3Y", "latitude": 38.6347453, "longitude": -90.2626816, "care_type": "Plastic Surgeon"}, {"name": "Gregory H. Branham, MD", "address": "4921 Parkview Pl, St. Louis, MO 63110", "city": "St. Louis", "phone": "", "website": "https://facialplasticsurgery.wustl.edu/doctors/gregory-branham-md/", "rating": 3.7, "reviews": 3, "place_id": "ChIJfziQPye12IcReeLscQ0O8co", "latitude": 38.6383395, "longitude": -90.2632654, "care_type": "Plastic Surgeon"}, {"name": "Avani Derm Spa", "address": "1070 N Ballas Rd, Des Peres, MO 63131", "city": "Des Peres", "phone": "+1 314-896-3376", "website": "https://www.avanidermspa.com/%3Futm_source%3Dgoogle%26utm_medium%3Dorganic%26utm_campaign%3Dgbp%26utm_term%3DAvani-Derm-Spa-Des-Peres%26utm_content%3Dwebsite", "rating": 4.9, "reviews": 178, "place_id": "ChIJKcoXDtHM2IcRRNdypVmyH3g", "latitude": 38.602481, "longitude": -90.44359999999999, "care_type": "Plastic Surgeon"}, {"name": "The Saint Louis Med Spa", "address": "525 S Hanley Rd, St. Louis, MO 63105", "city": "St. Louis", "phone": "+1 557-220-9575", "website": "http://www.thesaintlouismedspa.com/", "rating": 5.0, "reviews": 74, "place_id": "ChIJH6erFQDL2IcRI_m5tTP0e1s", "latitude": 38.6434535, "longitude": -90.335205, "care_type": "Plastic Surgeon"}, {"name": "Dr. John Felder", "address": "1 Barnes Jewish Hospital Plaza, St. Louis, MO 63110", "city": "St. Louis", "phone": "+1 855-469-4323", "website": "https://doctors.beaumont.org/provider/John%2BMatthew%2BFelder/2587209%3Falias_term%3DPlastic%2520Surgery%26specialty_synonym%3DPlastic%2520Surgery.*%26sort%3Dname%26page%3D2%26from%3Dsearch-list", "rating": null, "reviews": 0, "place_id": "ChIJq6pqGiG12IcRCh2W3KJdKPo", "latitude": 38.6352337, "longitude": -90.2648651, "care_type": "Plastic Surgeon"}, {"name": "Epiphany Dermatology", "address": "8888 Ladue Rd Ste 120, St. Louis, MO 63124", "city": "St. Louis", "phone": "+1 314-344-0004", "website": "https://www.epiphanydermatology.com/location/st-louis-ladue-rd/", "rating": 4.5, "reviews": 375, "place_id": "ChIJOdbd7Owx34cRjPK03OEzoGg", "latitude": 38.65121389999999, "longitude": -90.3516629, "care_type": "Plastic Surgeon"}, {"name": "Dr. John M. Vaszari, MD", "address": "1 Barnes Jewish Hospital Plaza, St. Louis, MO 63110", "city": "St. Louis", "phone": "+1 314-362-5000", "website": "http://www.barnesjewish.org/", "rating": null, "reviews": 0, "place_id": "ChIJ24rfECG12IcR-9LmkQ5wk0A", "latitude": 38.6352337, "longitude": -90.2648651, "care_type": "Plastic Surgeon"}, {"name": "Dr. Neil S. Sachanandani, MD", "address": "1 Barnes Jewish Hospital Plaza, St. Louis, MO 63110", "city": "St. Louis", "phone": "+1 314-362-5000", "website": "http://www.barnesjewish.org/", "rating": null, "reviews": 0, "place_id": "ChIJ24rfECG12IcRjFOP-s2YUAQ", "latitude": 38.6352337, "longitude": -90.2648651, "care_type": "Plastic Surgeon"}, {"name": "Dr. David Tang, MD", "address": "660 S Euclid Ave, St. Louis, MO 63110", "city": "St. Louis", "phone": "+1 314-747-0541", "website": "", "rating": null, "reviews": 0, "place_id": "ChIJjZj6lCC12IcR0OlVXB1RpR0", "latitude": 38.6354259, "longitude": -90.2629884, "care_type": "Plastic Surgeon"}, {"name": "Joani M. Christensen, MD", "address": "4921 Parkview Pl, St. Louis, MO 63110", "city": "St. Louis", "phone": "+1 314-362-7388", "website": "https://faculty.mdanderson.org/profiles/joani_christensen.html", "rating": null, "reviews": 0, "place_id": "ChIJDzQZICG12IcRSraJ-uxytqk", "latitude": 38.6383774, "longitude": -90.2630822, "care_type": "Plastic Surgeon"}, {"name": "William Zhu", "address": "1 Barnes Jewish Hospital Plaza, St. Louis, MO 63110", "city": "St. Louis", "phone": "+1 314-362-5000", "website": "", "rating": null, "reviews": 0, "place_id": "ChIJe_JiECG12IcRpWH33KXF8Vo", "latitude": 38.6351456, "longitude": -90.2649821, "care_type": "Plastic Surgeon"}, {"name": "Amber R. Leis, MD", "address": "4921 Parkview Pl Suite: 6G, St. Louis, MO 63110", "city": "St. Louis", "phone": "+1 314-362-7388", "website": "https://physicians.wustl.edu/people/amber-r-leis-md/", "rating": null, "reviews": 0, "place_id": "ChIJVWC2UNC12IcRNmpoVffpq-k", "latitude": 38.6383622, "longitude": -90.26330929999999, "care_type": "Plastic Surgeon"}, {"name": "Barnes Jewish Hospital: Fox Stephanie J MD", "address": "1 Barnes Jewish Hospital Plaza, St. Louis, MO 63110", "city": "St. Louis", "phone": "+1 314-747-3000", "website": "", "rating": null, "reviews": 0, "place_id": "ChIJ24rfECG12IcRRZw7WvIjb4g", "latitude": 38.6352373, "longitude": -90.2650845, "care_type": "Plastic Surgeon"}, {"name": "Dr. Ida Fox", "address": "4901 Forest Park Ave #420, St. Louis, MO 63108", "city": "St. Louis", "phone": "+1 314-362-3937", "website": "https://physicians.wustl.edu/people/ida-k-fox-md/", "rating": null, "reviews": 0, "place_id": "ChIJn4g8eCe12IcRy5YCToyn9DM", "latitude": 38.639482, "longitude": -90.262546, "care_type": "Plastic Surgeon"}, {"name": "J. Stewart Humphrey, MD", "address": "319 S Silver Springs Rd suite c, Cape Girardeau, MO 63703", "city": "Cape Girardeau", "phone": "+1 573-334-4263", "website": "http://www.heartlandplastic.com/", "rating": 4.4, "reviews": 20, "place_id": "ChIJG_dt4R-Id4gRLe7FCfRWyJQ", "latitude": 37.2962899, "longitude": -89.56722889999999, "care_type": "Plastic Surgeon"}, {"name": "Dr Buck BJH", "address": "4921 Parkview Pl, St. Louis, MO 63110", "city": "St. Louis", "phone": "+1 314-454-8778", "website": "", "rating": null, "reviews": 0, "place_id": "ChIJO_W-FSe12IcRhmnCQZbXVV8", "latitude": 38.63836149999999, "longitude": -90.26338439999999, "care_type": "Plastic Surgeon"}, {"name": "SLUCare Physician Group", "address": "1027 Bellevue Ave Suite G25, St. Louis, MO 63117", "city": "St. Louis", "phone": "+1 314-617-2000", "website": "https://www.ssmhealth.com/locations/location-details/slucare-physician-group-surgery-services-1027-bellevue%3Futm_id%3Dsys-listings-1%26linksource%3Dsys_listing_links-gmb_listing%26y_source%3D1_MjAxODIyOTE5Ni03MTUtbG9jYXRpb24ud2Vic2l0ZQ%253D%253D", "rating": null, "reviews": 0, "place_id": "ChIJ1eGKRfXL2IcRS81iXcmmKO4", "latitude": 38.6333852, "longitude": -90.3126121, "care_type": "Plastic Surgeon"}, {"name": "Saif Badran, MD, MRCS", "address": "1 Children's Pl Suite: 2A, St. Louis, MO 63110", "city": "St. Louis", "phone": "", "website": "https://physicians.wustl.edu/people/saif-badran-md-mrcs/", "rating": null, "reviews": 0, "place_id": "ChIJ_a8jG7i12IcRksUgdUMOeOw", "latitude": 38.6379091, "longitude": -90.2650626, "care_type": "Plastic Surgeon"}, {"name": "Saif Badran, MD, PhD", "address": "4921 Parkview Pl Suite: 6G, St. Louis, MO 63110", "city": "St. Louis", "phone": "+1 314-362-7388", "website": "https://physicians.wustl.edu/people/saif-badran-md-phd/", "rating": null, "reviews": 0, "place_id": "ChIJfWteEGa12IcRFNqXosIb908", "latitude": 38.6383181, "longitude": -90.26320679999999, "care_type": "Plastic Surgeon"}, {"name": "Ruth Tevlin, MD", "address": "4921 Parkview Pl Suite: 6G, St. Louis, MO 63110", "city": "St. Louis", "phone": "+1 314-362-7388", "website": "https://physicians.wustl.edu/people/ruth-tevlin-md/", "rating": null, "reviews": 0, "place_id": "ChIJz8rM9ke12IcRoCsrSFo7LOk", "latitude": 38.6383622, "longitude": -90.26330929999999, "care_type": "Plastic Surgeon"}, {"name": "Robert Cristel, MD FACS: Synergi Facial Surgery", "address": "4651 State Hwy K, O'Fallon, MO 63368", "city": "O'Fallon", "phone": "+1 314-523-5738", "website": "https://www.robcristelmd.com/", "rating": 5.0, "reviews": 15, "place_id": "ChIJE6nfemjT3ocRcK6JVLDiknY", "latitude": 38.7193321, "longitude": -90.7042663, "care_type": "Plastic Surgeon"}, {"name": "Laser Lipo & Vein Center", "address": "1630 Market Center Blvd #201, O'Fallon, MO 63368", "city": "O'Fallon", "phone": "+1 636-614-1665", "website": "https://www.laserlipoandveins.com/", "rating": 4.9, "reviews": 147, "place_id": "ChIJV0gQ8bnX3ocRaEMwEWTTCXg", "latitude": 38.7359791, "longitude": -90.6942495, "care_type": "Plastic Surgeon"}, {"name": "St. Louis Laser Liposuction Center", "address": "1630 Market Center Blvd #201, O'Fallon, MO 63368", "city": "O'Fallon", "phone": "+1 314-627-0755", "website": "https://www.stlouislipo.com/", "rating": 5.0, "reviews": 27, "place_id": "ChIJUd_y5GfR3ocR0LVww9nCRuE", "latitude": 38.7359988, "longitude": -90.6942911, "care_type": "Plastic Surgeon"}, {"name": "Thomas F. Wright, MD, FACPh", "address": "1630 Market Center Blvd #201, O'Fallon, MO 63368", "city": "O'Fallon", "phone": "+1 636-614-1665", "website": "https://www.laserlipoandveins.com/", "rating": 4.9, "reviews": 86, "place_id": "ChIJ0ynQgAnS2IcRrsZowi6gv60", "latitude": 38.7359988, "longitude": -90.6942911, "care_type": "Plastic Surgeon"}, {"name": "Mosaic Life Care at St. Joseph - Plastic Surgery and Dermatology", "address": "5204 N Belt Hwy Entrance A, St Joseph, MO 64506", "city": "St Joseph", "phone": "+1 816-383-8180", "website": "https://www.mymlc.com/Main/Location/st-joseph-mo/Plastic-Surgery-and-Dermatology/", "rating": 4.2, "reviews": 10, "place_id": "ChIJ3WqIchwcwIcR7TY5zaSCVS8", "latitude": 39.813083, "longitude": -94.81600999999999, "care_type": "Plastic Surgeon"}, {"name": "Jonathan Amspacher, MD", "address": "5204 N Belt Hwy Entrance A, St Joseph, MO 64506", "city": "St Joseph", "phone": "+1 816-383-8180", "website": "https://www.mymlc.com/Main/Doctor/Dr-Jonathan-C-Amspacher-MD%3Futm_campaign%3Dwebsite-link%26utm_medium%3Dorganic%26utm_source%3Dlocal-listing", "rating": 4.9, "reviews": 35, "place_id": "ChIJfSpriRscwIcRIq7Q798j_rg", "latitude": 39.813083, "longitude": -94.81600999999999, "care_type": "Plastic Surgeon"}, {"name": "Plastic Surgery Center of Saint Joseph", "address": "2111 N Woodbine Rd, St Joseph, MO 64506", "city": "St Joseph", "phone": "+1 816-364-6446", "website": "https://depriestplasticsurgery.com/", "rating": 4.6, "reviews": 11, "place_id": "ChIJjVGyOUQZwIcRlIivBvTunUw", "latitude": 39.7865015, "longitude": -94.796022, "care_type": "Plastic Surgeon"}, {"name": "Midwest Medical Specialists PA", "address": "5330 N Oak Trafficway #201, Kansas City, MO 64118", "city": "Kansas City", "phone": "+1 816-454-0666", "website": "https://www.midwestmedicalspecialists.com/", "rating": 4.7, "reviews": 338, "place_id": "ChIJG3B-HIrswIcRE7ecaPF2SPM", "latitude": 39.1914071, "longitude": -94.5770634, "care_type": "Plastic Surgeon"}, {"name": "Medical Aid For Children", "address": "4444 N Belleview Ave, Kansas City, MO 64116", "city": "Kansas City", "phone": "+1 816-455-3062", "website": "", "rating": null, "reviews": 0, "place_id": "ChIJa-eZARH3wIcRNN7bZxRdD5s", "latitude": 39.1761681, "longitude": -94.5909001, "care_type": "Plastic Surgeon"}, {"name": "Head & Neck Surgery of Kansas City", "address": "7201 E 147th St Ste 120, Grandview, MO 64030", "city": "Grandview", "phone": "+1 913-599-4800", "website": "https://hnskc.com/location/grandview/%3Futm_source%3Dgbp%26utm_medium%3Dorganic", "rating": 4.8, "reviews": 48, "place_id": "ChIJU350zEbdwIcRWTCRgel7swo", "latitude": 38.8563185, "longitude": -94.5124477, "care_type": "Plastic Surgeon"}, {"name": "Dr. Richard W. Maack, MD, FACS: Synergi Facial Surgery", "address": "17000 Baxter Rd # 102, Chesterfield, MO 63005", "city": "Chesterfield", "phone": "+1 314-523-5330", "website": "http://synergifacialsurgery.com/", "rating": 4.9, "reviews": 162, "place_id": "ChIJTVfTycYq34cR0qwfgg-1uwE", "latitude": 38.6667627, "longitude": -90.5791785, "care_type": "Plastic Surgeon"}, {"name": "Robert Cristel, MD FACS: Synergi Facial Surgery", "address": "17000 Baxter Rd # 102, Chesterfield, MO 63005", "city": "Chesterfield", "phone": "+1 314-523-5738", "website": "https://www.robcristelmd.com/", "rating": 4.9, "reviews": 97, "place_id": "ChIJ_6bjBZUr34cRobHu43tg1OA", "latitude": 38.6667978, "longitude": -90.5791899, "care_type": "Plastic Surgeon"},