[{"name": "Lincoln Plastic Surgery Mitchell J. Henry, M.D.", "address": "2222 S 16th St Suite 300, Lincoln, NE 68502", "city": "Lincoln", "phone": "+1 402-435-0044", "website": "https://lincolnplasticsurgery.com/", "rating": 4.8, "reviews": 123, "place_id": "ChIJTR1-qk--locR2ClZf_BPGB0", "latitude": 40.7898403, "longitude": -96.69905039999999, "care_type": "Plastic Surgeon"}, {"name": "The Plastics Atelier", "address": "17021 Lakeside Hills Plaza #101, Omaha, NE 68130", "city": "Omaha", "phone": "+1 402-603-0080", "website": "https://www.theplasticsatelier.com/", "rating": 5.0, "reviews": 62, "place_id": "ChIJ2Yctr_Txk4cRoltbBa1V0nI", "latitude": 41.2354445, "longitude": -96.18132899999999, "care_type": "Plastic Surgeon"}, {"name": "Westfield Plastic Surgery Center", "address": "9900 Nicholas St #300, Omaha, NE 68114", "city": "Omaha", "phone": "+1 402-810-8904", "website": "https://ayoubplasticsurgery.com/%3Futm_source%3Dgoogle%26utm_medium%3Dorganic%26utm_campaign%3Dgoogle_business_profile", "rating": 4.8, "reviews": 258, "place_id": "ChIJfU9DK02Nk4cRBAR1KtqRwEk", "latitude": 41.2695315, "longitude": -96.0678861, "care_type": "Plastic Surgeon"}, {"name": "Omaha Face & Body", "address": "1130 N 204th Ave, Omaha, NE 68022", "city": "Omaha", "phone": "+1 402-685-3722", "website": "https://www.omahaface.com/%3Futm_source%3DGMBlisting%26utm_medium%3Dorganic%26utm_campaign%3Dgmb", "rating": 4.9, "reviews": 191, "place_id": "ChIJtQYgLsnxk4cRVRxNCwYd4y8", "latitude": 41.2693607, "longitude": -96.23592579999999, "care_type": "Plastic Surgeon"}, {"name": "Nebraska Medicine Village Pointe Aesthetic Surgery | Dreams MedSpa", "address": "17617 Burke St, Omaha, NE 68118", "city": "Omaha", "phone": "+1 402-596-4000", "website": "https://www.surgeryvp.com/", "rating": 4.2, "reviews": 83, "place_id": "ChIJgb4VrMvxk4cRUDDEi9t1gC8", "latitude": 41.25743019999999, "longitude": -96.1914013, "care_type": "Plastic Surgeon"}, {"name": "Popp Cosmetic Surgery PC", "address": "11919 Grant St Ste 100, Omaha, NE 68164", "city": "Omaha", "phone": "+1 402-391-4558", "website": "https://poppcosmeticsurgery.com/", "rating": 4.8, "reviews": 91, "place_id": "ChIJR9V8qoLyk4cRKvygCmvP3Tg", "latitude": 41.2800099, "longitude": -96.09979609999999, "care_type": "Plastic Surgeon"}, {"name": "Aesthetic Surgical Images", "address": "8900 W Dodge Rd, Omaha, NE 68114", "city": "Omaha", "phone": "+1 402-390-0100", "website": "https://www.surgicalimages.com/%3Futm_source%3DGMB%26utm_medium%3Dorganic%26utm_campaign%3DGMB", "rating": 4.0, "reviews": 133, "place_id": "ChIJna0zvkCNk4cR5sV9az90GbI", "latitude": 41.2638604, "longitude": -96.0506016, "care_type": "Plastic Surgeon"}, {"name": "Nebraska Medicine Facial Plastic and Reconstructive Surgery at Village Pointe Health Center", "address": "110 N 175th St, Omaha, NE 68118", "city": "Omaha", "phone": "+1 402-559-5700", "website": "https://www.nebraskamed.com/village-pointe/facial-plastic-reconstructive-surgery", "rating": 2.9, "reviews": 16, "place_id": "ChIJW4zHdsnxk4cRsUSD3l4fclA", "latitude": 41.2573583, "longitude": -96.18992519999999, "care_type": "Plastic Surgeon"}, {"name": "Sono Bello Omaha", "address": "8008 W Dodge Rd Suite 200, Omaha, NE 68114", "city": "Omaha", "phone": "+1 531-777-7594", "website": "https://www.sonobello.com/locations/omaha", "rating": 4.8, "reviews": 336, "place_id": "ChIJezsV-YONk4cR_wF00k99b6E", "latitude": 41.2610736, "longitude": -96.0400234, "care_type": "Plastic Surgeon"}, {"name": "Nebraska Medicine Facial Plastic and Reconstructive Surgery at Lauritzen Outpatient Center", "address": "4014 Leavenworth St, Omaha, NE 68105", "city": "Omaha", "phone": "+1 402-559-5700", "website": "https://www.nebraskamed.com/facial-plastic-reconstructive-surgery", "rating": 1.0, "reviews": 1, "place_id": "ChIJv6veKeyPk4cR-HdeFCnCDUc", "latitude": 41.2533999, "longitude": -95.97403469999999, "care_type": "Plastic Surgeon"}, {"name": "Nagi Ayoub", "address": "9900 Nicholas St, Omaha, NE 68114", "city": "Omaha", "phone": "+1 402-829-6384", "website": "https://ayoubplasticsurgery.com/dr-ayoub/", "rating": 4.8, "reviews": 37, "place_id": "ChIJk-fQLE2Nk4cRlKnmmr6ExaA", "latitude": 41.2695315, "longitude": -96.0678861, "care_type": "Plastic Surgeon"}, {"name": "Elysian Plastic Surgery Omaha", "address": "11902 W Center Rd Suite 101, Omaha, NE 68144", "city": "Omaha", "phone": "+1 402-884-8836", "website": "https://elysianomaha.com/", "rating": 4.7, "reviews": 15, "place_id": "ChIJBz0n2aXzk4cR_gV8c9qgvrU", "latitude": 41.2349823, "longitude": -96.09883239999999, "care_type": "Plastic Surgeon"}, {"name": "Metropolitan Plastic & Reconstructive Surgery", "address": "17030 Lakeside Hills Plaza, Omaha, NE 68130", "city": "Omaha", "phone": "+1 402-758-5500", "website": "", "rating": 4.0, "reviews": 18, "place_id": "ChIJgXEUcKfxk4cRU3pH0jYik9I", "latitude": 41.2364007, "longitude": -96.1797134, "care_type": "Plastic Surgeon"}, {"name": "CHI Health Clinic Plastic & Reconstructive Surgery (Lakeside)", "address": "Medical Office Building One, 16909 Lakeside Hills Ct Ste 300, Omaha, NE 68130", "city": "Omaha", "phone": "+1 402-717-0833", "website": "https://www.chihealth.com/en/services/ear-nose-throat/omaha-metro-ent/facial-plastics-reconstructive-surgery.html", "rating": 3.7, "reviews": 3, "place_id": "ChIJ3TXqUafxk4cRBC0efp4IqcI", "latitude": 41.236882, "longitude": -96.1806063, "care_type": "Plastic Surgeon"}, {"name": "Dr. Jeffrey C. Popp, MD", "address": "11919 Grant St ste 100, Omaha, NE 68164", "city": "Omaha", "phone": "+1 402-391-4558", "website": "https://www.poppcosmeticsurgery.com/", "rating": 4.6, "reviews": 28, "place_id": "ChIJR9V8qoLyk4cRh_svWxBqzNY", "latitude": 41.2800188, "longitude": -96.09993999999999, "care_type": "Plastic Surgeon"}, {"name": "Jordan T. Blough, MD", "address": "7710 Mercy Rd suite 2000, Omaha, NE 68124", "city": "Omaha", "phone": "+1 402-717-0833", "website": "https://www.chihealth.com/en/services/ear-nose-throat/omaha-metro-ent/facial-plastics-reconstructive-surgery.html", "rating": null, "reviews": 0, "place_id": "ChIJ7SNsOqSNk4cR1wd3w_nZO0A", "latitude": 41.2393066, "longitude": -96.0321299, "care_type": "Plastic Surgeon"}, {"name": "CHI Health Clinic Plastic & Reconstructive Surgery (CUMC - Bergan Mercy)", "address": "7710 Mercy Rd Ste 2000, Omaha, NE 68124", "city": "Omaha", "phone": "+1 402-717-0833", "website": "https://www.chihealth.com/en/services/ear-nose-throat/omaha-metro-ent/facial-plastics-reconstructive-surgery.html", "rating": null, "reviews": 0, "place_id": "ChIJq6p6ekiOk4cRYhtFm3zguHI", "latitude": 41.2391192, "longitude": -96.0312754, "care_type": "Plastic Surgeon"}, {"name": "Jason Miller, MD", "address": "17617 Burke St, Omaha, NE 68118", "city": "Omaha", "phone": "+1 402-596-4000", "website": "", "rating": 5.0, "reviews": 8, "place_id": "ChIJgb4VrMvxk4cRYAX1pm0IZxc", "latitude": 41.25743019999999, "longitude": -96.1914013, "care_type": "Plastic Surgeon"}, {"name": "Amanda J Dawson, MD", "address": "717 N 190th Plaza, Elkhorn, NE 68022", "city": "Elkhorn", "phone": "+1 402-815-2300", "website": "https://providers.bestcare.org/provider/Amanda%2BJ.%2BDawson/1895879", "rating": 4.9, "reviews": 23, "place_id": "ChIJqbnwBs3xk4cRBAdZ4GGlhsk", "latitude": 41.264578, "longitude": -96.21252299999999, "care_type": "Plastic Surgeon"}, {"name": "Imagen Body Sculpting & Cosmetic Center", "address": "10404 Essex Ct Suite 100-300, Omaha, NE 68114", "city": "Omaha", "phone": "+1 402-509-8473", "website": "https://www.imagenomaha.com/", "rating": 4.8, "reviews": 289, "place_id": "ChIJkSYwPcnyk4cRQFvwe-1EG-E", "latitude": 41.257093, "longitude": -96.0751451, "care_type": "Plastic Surgeon"}, {"name": "Nagi Tanios Ayoub", "address": "9900 Nicholas St #300, Omaha, NE 68114", "city": "Omaha", "phone": "+1 402-829-6384", "website": "https://ayoubplasticsurgery.com/dr-ayoub/", "rating": 5.0, "reviews": 3, "place_id": "ChIJk-fQLE2Nk4cR7R5X-BVyftk", "latitude": 41.2695315, "longitude": -96.0678861, "care_type": "Plastic Surgeon"}, {"name": "William W Heckman, MD", "address": "110 N 175th St, Omaha, NE 68118", "city": "Omaha", "phone": "+1 402-559-5700", "website": "https://www.nebraskamed.com/village-pointe/facial-plastic-reconstructive-surgery", "rating": 4.0, "reviews": 23, "place_id": "ChIJvxdHDVjxk4cRVE9utU3Vf9c", "latitude": 41.2573583, "longitude": -96.18992519999999, "care_type": "Plastic Surgeon"}, {"name": "Ronald R. Hollins, MD", "address": "17617 Burke St, Omaha, NE 68118", "city": "Omaha", "phone": "+1 402-596-4000", "website": "https://surgeryvp.com/about-us/dr-ron-hollins/", "rating": 5.0, "reviews": 0, "place_id": "ChIJgb4VrMvxk4cRPmzIm99cbvg", "latitude": 41.25743019999999, "longitude": -96.1914013, "care_type": "Plastic Surgeon"}, {"name": "Dr Eric Nagengast", "address": "17617 Burke St, Omaha, NE 68118", "city": "Omaha", "phone": "+1 402-596-4000", "website": "https://surgeryvp.com/", "rating": 5.0, "reviews": 3, "place_id": "ChIJQXLfNwDxk4cRh7g6OGL6-ew", "latitude": 41.2574085, "longitude": -96.1913151, "care_type": "Plastic Surgeon"}, {"name": "Jacobson Cosmetic Surgery", "address": "1630 S 70th St Suite 202, Lincoln, NE 68506", "city": "Lincoln", "phone": "+1 531-251-2115", "website": "https://jacobsoncosmeticsurgery.com/", "rating": 4.8, "reviews": 94, "place_id": "ChIJ1X0CUAa9locRnYCiPcdgYXs", "latitude": 40.7955613, "longitude": -96.62385739999999, "care_type": "Plastic Surgeon"}, {"name": "Shannon Wong", "address": "17617 Burke St Ste 200, Omaha, NE 68118", "city": "Omaha", "phone": "+1 402-596-4000", "website": "https://surgeryvp.com/about-us/dr-shannon-wong/", "rating": 5.0, "reviews": 11, "place_id": "ChIJVVUVS8rxk4cR9YSZkg8Ttxs", "latitude": 41.25743019999999, "longitude": -96.1914013, "care_type": "Plastic Surgeon"}, {"name": "Plastic Surgical Arts", "address": "4400 Lucile Dr #103, Lincoln, NE 68516", "city": "Lincoln", "phone": "+1 402-483-2572", "website": "https://plasticsurgicalarts.net/", "rating": 4.5, "reviews": 24, "place_id": "ChIJFxyE1qa9locROijonpC0Rcg", "latitude": 40.7686415, "longitude": -96.61491819999999, "care_type": "Plastic Surgeon"}, {"name": "Dr. Brian Biggerstaff", "address": "11902 W Center Rd Suite 101, Omaha, NE 68144", "city": "Omaha", "phone": "+1 402-884-8836", "website": "http://www.elysianomaha.com/", "rating": null, "reviews": 0, "place_id": "ChIJA6D0dm7zk4cR-W3xfT_pCPo", "latitude": 41.2349823, "longitude": -96.09883239999999, "care_type": "Plastic Surgeon"}, {"name": "Denenberg Facial Plastic Surgery: Denenberg Steven M MD", "address": "7640 Pacific St, Omaha, NE 68114", "city": "Omaha", "phone": "+1 402-391-7640", "website": "http://www.facialsurgery.com/", "rating": 4.8, "reviews": 8, "place_id": "ChIJeSCXZASNk4cR5bz93DDpfDw", "latitude": 41.24915, "longitude": -96.03303299999999, "care_type": "Plastic Surgeon"}, {"name": "Plastic Surgical Center", "address": "2727 S 144th St, Omaha, NE 68144", "city": "Omaha", "phone": "+1 402-778-5252", "website": "", "rating": null, "reviews": 0, "place_id": "ChIJHc2NO8zzk4cRQzCBtiOROVs", "latitude": 41.2328322, "longitude": -96.137152, "care_type": "Plastic Surgeon"}, {"name": "James Vargo, MD", "address": "8200 Dodge St, Omaha, NE 68114", "city": "Omaha", "phone": "+1 402-955-7450", "website": "https://www.childrensnebraska.org/provider/3215618/james-d-vargo-md%3Futm_campaign%3Dgmb%26utm_medium%3Dorganic%26utm_source%3Dlocal", "rating": 5.0, "reviews": 24, "place_id": "ChIJoaXMZViNk4cRoCVWTvccmJc", "latitude": 41.260315, "longitude": -96.0413444, "care_type": "Plastic Surgeon"}, {"name": "Nagi Ayoub", "address": "7500 Mercy Rd, Omaha, NE 68124", "city": "Omaha", "phone": "", "website": "", "rating": null, "reviews": 0, "place_id": "ChIJH1gkHvyMk4cR_ue-LEgab5c", "latitude": 41.2395474, "longitude": -96.03089609999999, "care_type": "Plastic Surgeon"}, {"name": "Cosmetic Surgery Forum", "address": "2802 Oak View Dr, Omaha, NE 68144", "city": "Omaha", "phone": "+1 402-697-6564", "website": "https://www.cosmeticsurgeryforum.com/", "rating": null, "reviews": 0, "place_id": "ChIJF4VKnMnzk4cRdzlzL8zhqDA", "latitude": 41.2323252, "longitude": -96.1337614, "care_type": "Plastic Surgeon"}, {"name": "Steven B. Black, M.D.", "address": "2727 S 144th St #285, Omaha, NE 68144", "city": "Omaha", "phone": "+1 402-778-5252", "website": "", "rating": 3.0, "reviews": 2, "place_id": "ChIJHc2NO8zzk4cRtndbdy5FPY8", "latitude": 41.2328503, "longitude": -96.1370986, "care_type": "Plastic Surgeon"}, {"name": "Thompson Jr Chester Q MD", "address": "2727 S 144th St, Omaha, NE 68144", "city": "Omaha", "phone": "+1 402-778-5555", "website": "", "rating": null, "reviews": 0, "place_id": "ChIJHc2NO8zzk4cRzJ5Hg9zGZZM", "latitude": 41.2328322, "longitude": -96.137152, "care_type": "Plastic Surgeon"}, {"name": "Bellevue Aesthetic Surgery", "address": "2510 Bellevue Medical Center Dr #250, Bellevue, NE 68123", "city": "Bellevue", "phone": "+1 402-596-4000", "website": "https://surgeryvp.com/bellevue/", "rating": null, "reviews": 0, "place_id": "ChIJpR_rrcOJk4cR6JNmWpmh_H8", "latitude": 41.1372254, "longitude": -95.9478288, "care_type": "Plastic Surgeon"}, {"name": "Frank Soto Leon, MD", "address": "10404 Essex Ct #300, Omaha, NE 68114", "city": "Omaha", "phone": "+1 402-509-8473", "website": "https://www.imagenomaha.com/", "rating": 3.7, "reviews": 3, "place_id": "ChIJhcQOIqfxk4cRmzwpd-nxags", "latitude": 41.2571594, "longitude": -96.0749397, "care_type": "Plastic Surgeon"}, {"name": "Lincoln Aesthetic Surgical Institute", "address": "2222 S 16th St #340, Lincoln, NE 68502", "city": "Lincoln", "phone": "+1 402-483-8530", "website": "https://lincolnaesthetic.com/%3Futm_source%3Dlocal-listing%26utm_medium%3Dorganic%26utm_campaign%3Dwebsite-link", "rating": 2.6, "reviews": 5, "place_id": "ChIJTR1-qk--locRyKTLwT0h9QQ", "latitude": 40.7897647, "longitude": -96.6991177, "care_type": "Plastic Surgeon"}, {"name": "Todd Orchard", "address": "4400 Lucile Dr #103, Lincoln, NE 685164211", "city": "Lincoln", "phone": "+1 402-483-2572", "website": "https://www.plasticsurgicalarts.net/", "rating": 3.0, "reviews": 4, "place_id": "ChIJOzD7ENaXlocROW9w78Ua6gs", "latitude": 40.76857, "longitude": -96.614845, "care_type": "Plastic Surgeon"}, {"name": "Schlessinger MD Dermatology & Cosmetic Surgery", "address": "2802 Oak View Dr #100, Omaha, NE 68144", "city": "Omaha", "phone": "+1 402-625-6937", "website": "https://www.schlessingermd.com/%3Futm_campaign%3DGMB", "rating": 4.7, "reviews": 1820, "place_id": "ChIJ3yOOhMnzk4cREg1pctOPV18", "latitude": 41.23223489999999, "longitude": -96.1340103, "care_type": "Plastic Surgeon"}, {"name": "Mathieu L. Hinze, M.D.", "address": "4208, 4400 Lucile Dr #103, Lincoln, NE 68516", "city": "Lincoln", "phone": "+1 402-483-2572", "website": "http://plasticsurgicalarts.net/", "rating": 3.6, "reviews": 17, "place_id": "ChIJFxyE1qa9locRajmcxHqk_mI", "latitude": 40.7687045, "longitude": -96.61472359999999, "care_type": "Plastic Surgeon"}, {"name": "Platte Valley Specialty Clinic", "address": "3712 28th Ave, Kearney, NE 68845", "city": "Kearney", "phone": "+1 308-865-2737", "website": "https://www.bryanhealth.com/locations/physician-offices/profile/pvmc-specialty-clinic/%3Futm_source%3Dlocal-listing%26utm_medium%3Dorganic%26utm_campaign%3Dwebsite-link", "rating": 4.4, "reviews": 11, "place_id": "ChIJD6mduTZMmYcRq9oUqO_kS3Y", "latitude": 40.712969, "longitude": -99.11906069999999, "care_type": "Plastic Surgeon"}, {"name": "Dr. Stephen M. Nagengast, MD", "address": "1314 3rd Ave, Nebraska City, NE 68410", "city": "Nebraska City", "phone": "+1 402-873-3321", "website": "", "rating": null, "reviews": 0, "place_id": "ChIJ0USh9_lalIcRpVYz7TBIpa4", "latitude": 40.6799495, "longitude": -95.86225999999999, "care_type": "Plastic Surgeon"}, {"name": "Methodist Plastic and Reconstructive Surgery", "address": "717 N 190th Plaza # 2200, Elkhorn, NE 68022", "city": "Elkhorn", "phone": "+1 402-815-2300", "website": "https://bestcare.org/specialties/plastic-and-reconstructive-surgery", "rating": null, "reviews": 0, "place_id": "ChIJu8db24fxk4cRMBxLe7SgE4k", "latitude": 41.2645778, "longitude": -96.21252299999999, "care_type": "Plastic Surgeon"}, {"name": "Scottsbluff Plastic Surgery", "address": "2 W 42nd St # 3700, Scottsbluff, NE 69361", "city": "Scottsbluff", "phone": "+1 308-630-1600", "website": "", "rating": null, "reviews": 0, "place_id": "ChIJIZtBeN9RZYcR7tNihGTtPWQ", "latitude": 41.8884731, "longitude": -103.6624211, "care_type": "Plastic Surgeon"}, {"name": "Sean Figy, MD", "address": "500 W Leota St #120, North Platte, NE 69101", "city": "North Platte", "phone": "+1 308-568-3700", "website": "https://www.nebraskamed.com/doctors/sean-c-figy", "rating": null, "reviews": 0, "place_id": "ChIJ_7t4_GAjdocRliU8k3vp8_s", "latitude": 41.1204883, "longitude": -100.7684981, "care_type": "Plastic Surgeon"}, {"name": "Gustavo R. Machado, MD--South Location", "address": "4130 Pioneer Woods Dr Ste 1, Lincoln, NE 68506", "city": "Lincoln", "phone": "+1 402-489-4700", "website": "https://prairie-ortho.com/", "rating": 5.0, "reviews": 334, "place_id": "ChIJFxyE1qa9locRyMOSr4qCuqc", "latitude": 40.770972, "longitude": -96.62127, "care_type": "Plastic Surgeon"}, {"name": "Columbus Plastic Surgery", "address": "4600 38th St Suite 165, Columbus, NE 68601", "city": "Columbus", "phone": "+1 402-562-4760", "website": "https://www.columbushosp.org/our_clinics/columbus_plastic_surgery.aspx%3Futm_source%3DGMBSocialClimb%26utm_medium%3DColumbusPlasticSurgery", "rating": 3.0, "reviews": 2, "place_id": "ChIJb7eDlXPtkIcR9LtMBSg8Xko", "latitude": 41.453291, "longitude": -97.38372559999999, "care_type": "Plastic Surgeon"}, {"name": "Omaha Cosmetic Center by Imagen", "address": "10404 Essex Ct Suite 100-300, Omaha, NE 68114", "city": "Omaha", "phone": "+1 402-509-8473", "website": "http://omahacosmeticcenter.com/", "rating": 4.9, "reviews": 72, "place_id": "ChIJL11fe7Hzk4cRAhoDIgnpACA", "latitude": 41.257093, "longitude": -96.0751451, "care_type": "Plastic Surgeon"}, {"name": "JMISKO surgical design | md", "address": "3030 203rd St suite 102, Omaha, NE 68130", "city": "Omaha", "phone": "+1 402-484-5144", "website": "https://www.jmisko.com/", "rating": 4.9, "reviews": 740, "place_id": "ChIJH8oA983zk4cRZvQD2OgjRuY", "latitude": 41.2300262, "longitude": -96.2334518, "care_type": "Plastic Surgeon"}, {"name": "Kathryn Honz, MD", "address": "717 N 190th Plaza, Elkhorn, NE 68022", "city": "Elkhorn", "phone": "+1 402-815-2300", "website": "https://providers.bestcare.org/provider/Kathryn%2BN.%2BHonz/1493287", "rating": 4.5, "reviews": 17, "place_id": "ChIJJZE7PCPwk4cRp7rRYNp7UKs", "latitude": 41.264578, "longitude": -96.21252299999999, "care_type": "Plastic Surgeon"}, {"name": "Perry J. Johnson, MD", "address": "And, 17617 Burke St Ste 200, Omaha, NE 68118", "city": "Omaha", "phone": "+1 402-596-4000", "website": "https://surgeryvp.com/about-us/dr-perry-johnson/", "rating": 3.7, "reviews": 14, "place_id": "ChIJgb4VrMvxk4cRSGSTYrPsdfU", "latitude": 41.25743019999999, "longitude": -96.1914013, "care_type": "Plastic Surgeon"}, {"name": "Sean C. Figy, MD", "address": "110 N 175th St, Omaha, NE 68118", "city": "Omaha", "phone": "+1 402-552-6006", "website": "", "rating": 5.0, "reviews": 2, "place_id": "ChIJrxd9Ksrxk4cRklIHM_gPRc0", "latitude": 41.2573583, "longitude": -96.18992519999999, "care_type": "Plastic Surgeon"}, {"name": "Jason Miller", "address": "14080 Boys Town Hospital Rd, Boys Town, NE 68010", "city": "Boys Town", "phone": "+1 531-355-6900", "website": "https://www.boystownhospital.org/services/craniofacial-cleft-palate-clinic/craniofacial-team", "rating": 3.0, "reviews": 2, "place_id": "ChIJE0Kaujnyk4cRfQetNm4FNIk", "latitude": 41.2497997, "longitude": -96.1348417, "care_type": "Plastic Surgeon"}, {"name": "Daniel Schlessinger, MD", "address": "2802 Oak View Dr Suite 600, Omaha, NE 68144", "city": "Omaha", "phone": "+1 402-625-6937", "website": "https://www.schlessingermd.com/skin-specialists-omaha/dr-daniel-schlessinger/%3Futm_campaign%3DGMB-Daniel-Schlessinger-MD", "rating": 4.9, "reviews": 105, "place_id": "ChIJ7S0qBmzzk4cRyRdJbjFbcRw", "latitude": 41.2322011, "longitude": -96.13396929999999, "care_type": "Plastic Surgeon"}, {"name": "Dr. Keli Kolegraff @ Katniss Clinic", "address": "5757 S 34th St #300, Lincoln, NE 68516", "city": "Lincoln", "phone": "+1 402-405-4942", "website": "https://katnissclinic.janeapp.com/", "rating": 5.0, "reviews": 3, "place_id": "ChIJIcBLmcq_locR07tWmEhg2v8", "latitude": 40.754032, "longitude": -96.672055, "care_type": "Plastic Surgeon"}, {"name": "Absolute Medical & Aesthetics", "address": "2302 W, 8th Ave #4, Plattsmouth, NE 68048", "city": "Plattsmouth", "phone": "+1 402-298-4347", "website": "https://absolutemedicalandaesthetics.com/", "rating": 4.9, "reviews": 37, "place_id": "ChIJwwUFjYdwlIcRK99_vQx2yXI", "latitude": 41.0030174, "longitude": -95.90738669999999, "care_type": "Plastic Surgeon"}, {"name": "Jordan T. Blough, MD", "address": "Medical Office Building One, 16909 Lakeside Hills Ct Ste 300, Omaha, NE 68130", "city": "Omaha", "phone": "+1 402-717-0833", "website": "https://www.chihealth.com/en/services/ear-nose-throat/omaha-metro-ent/facial-plastics-reconstructive-surgery.html", "rating": 5.0, "reviews": 4, "place_id": "ChIJ3RlT0FPxk4cRFbUc5dxVLOk", "latitude": 41.2368124, "longitude": -96.18035479999999, "care_type": "Plastic Surgeon"}, {"name": "Elizabeth J Bradford Bell, MD", "address": "4014 Leavenworth St, Omaha, NE 68105", "city": "Omaha", "phone": "+1 402-559-5208", "website": "https://www.nebraskamed.com/nebraska-medical-center/lauritzen-outpatient-center/ear-nose-throat-audiology", "rating": 5.0, "reviews": 1, "place_id": "ChIJE1QAsRqPk4cRvDLSsVG3OsE", "latitude": 41.2533999, "longitude": -95.97403469999999, "care_type": "Plastic Surgeon"}, {"name": "Ronald Hollins", "address": "UNMC PHYSICIANS BUFFETT CANCER CENTER, 505 S 45th St, Omaha, NE 681980001", "city": "Omaha", "phone": "+1 402-559-5600", "website": "", "rating": 5.0, "reviews": 2, "place_id": "ChIJR6LGxHmOk4cRPj_y5y_kmNs", "latitude": 41.2555074, "longitude": -95.9797241, "care_type": "Plastic Surgeon"}, {"name": "Dr. Douglas J. Ramos, MD", "address": "1301 S 75th St #230, Omaha, NE 68124", "city": "Omaha", "phone": "+1 402-390-6060", "website": "", "rating": 3.8, "reviews": 6, "place_id": "ChIJeVvZx0eNk4cRU-revloJNJY", "latitude": 41.2465638, "longitude": -96.0280248, "care_type": "Plastic Surgeon"}, {"name": "Reilly Debra A MD", "address": "600 S 42nd St, Omaha, NE 68198", "city": "Omaha", "phone": "+1 402-559-8363", "website": "", "rating": null, "reviews": 0, "place_id": "ChIJQy0YF3qOk4cR5j1Sn6fa__Q", "latitude": 41.2552297, "longitude": -95.9763467, "care_type": "Plastic Surgeon"}, {"name": "Campbell James A MD", "address": "985582 Nebraska, Omaha, NE 68198", "city": "Omaha", "phone": "+1 402-345-7100", "website": "http://www.nebraskamed.com/", "rating": null, "reviews": 0, "place_id": "ChIJ7XwS7HmOk4cRNr-mm64m2LI", "latitude": 41.2554302, "longitude": -95.9787832, "care_type": "Plastic Surgeon"}, {"name": "Skin MD Laser & Aesthetics", "address": "908 N Howard Ave # 107, Grand Island, NE 68803", "city": "Grand Island", "phone": "+1 308-675-2225", "website": "http://giskinmd.com/", "rating": 4.7, "reviews": 14, "place_id": "ChIJZ9Q_4cWGmYcRommTT0DMutE", "latitude": 40.9271976, "longitude": -98.37040359999999, "care_type": "Plastic Surgeon"}, {"name": "Beatrice Aesthetics", "address": "4800 Hospital Pkwy, Beatrice, NE 68310", "city": "Beatrice", "phone": "+1 402-228-8512", "website": "https://beatricecommunityhospital.com/aesthetics", "rating": null, "reviews": 0, "place_id": "ChIJySRxVpddlocRs3GbgKQbWzU", "latitude": 40.3173294, "longitude": -96.7496084, "care_type": "Plastic Surgeon"}, {"name": "Infinite Medical Spa", "address": "1605 10th St Suite B, Gering, NE 69341", "city": "Gering", "phone": "+1 308-633-1610", "website": "http://infinitemedispa.com/", "rating": 5.0, "reviews": 30, "place_id": "ChIJldAz_9JRZYcRNBtLVsfUEW0", "latitude": 41.8249403, "longitude": -103.6607836, "care_type": "Plastic Surgeon"}, {"name": "Jordan Blough, MD - Plastic Surgery", "address": "16909 Lakeside Hills Ct Ste 300, Omaha, NE 68130", "city": "Omaha", "phone": "+1 402-717-0833", "website": "https://providers.chihealth.com/p/jordan-t-blough-md-1861885428", "rating": 5.0, "reviews": 1, "place_id": "ChIJix8xWBqPACIR_XrW_Z2usMQ", "latitude": 41.236882, "longitude": -96.1806063, "care_type": "Plastic Surgeon"}, {"name": "Jordan T. Blough, MD", "address": "16901 Lakeside Hills Ct, Omaha, NE 68130", "city": "Omaha", "phone": "+1 402-717-8505", "website": "https://www.chihealth.com/en/location-search/location-details.location.64e5226c-7868-44ea-950c-a2c73cdad4a0.html", "rating": null, "reviews": 0, "place_id": "ChIJidQzv_3xk4cRnTMfm6kBaJA", "latitude": 41.2377945, "longitude": -96.1808016, "care_type": "Plastic Surgeon"}, {"name": "The Look Aesthetics", "address": "17940 Welch Plaza, Omaha, NE 68135", "city": "Omaha", "phone": "+1 531-466-2645", "website": "https://www.thelookaestheticsomaha.com/", "rating": 5.0, "reviews": 17, "place_id": "ChIJseC9tcHxk4cRN7nOuLdQ7TU", "latitude": 41.2074982, "longitude": -96.19577559999999, "care_type": "Plastic Surgeon"}, {"name": "Joel Schlessinger, MD", "address": "2802 Oak View Dr Suite 500, Omaha, NE 68144", "city": "Omaha", "phone": "+1 402-625-6937", "website": "https://www.schlessingermd.com/skin-specialists-omaha/dr-joel-schlessinger-md/%3Futm_campaign%3DGMB-Joel-Schlessinger-MD", "rating": 4.9, "reviews": 136, "place_id": "ChIJw58nepHzk4cRF0MVD36aI6o", "latitude": 41.2322011, "longitude": -96.13396929999999, "care_type": "Plastic Surgeon"}, {"name": "Ella Rose Aesthetics", "address": "17725 Welch Plaza Bay #D, Omaha, NE 68135", "city": "Omaha", "phone": "+1 402-624-4376", "website": "http://ellaroseaesthetics.com/", "rating": 5.0, "reviews": 144, "place_id": "ChIJGwPdrws5JykR2War6q-oZj4", "latitude": 41.2056504, "longitude": -96.1920337, "care_type": "Plastic Surgeon"}, {"name": "Gangadasu Reddy", "address": "16909 Lakeside Hills Ct Ste 208, Omaha, NE 68130", "city": "Omaha", "phone": "+1 402-717-0820", "website": "https://providers.chihealth.com/p/gangadasu-sagar-reddy-1366739625", "rating": null, "reviews": 0, "place_id": "ChIJcxLDP6fxk4cRJcfUtB_qt1w", "latitude": 41.23692, "longitude": -96.18049309999999, "care_type": "Plastic Surgeon"}, {"name": "Cassidy D. Mitchell, MD", "address": "2222 S 16th St #340, Lincoln, NE 68502", "city": "Lincoln", "phone": "+1 402-483-8530", "website": "https://mychart.bryanhealth.org/MyChart/app/providers/CassidyMitchellMD/WP-24w1Bqnhlv5VFE-2Blh0kEYQhw-3D-3D-24Mx-2B1ZwvL1GnnYbI59NnEG-2BSjRQ0BAa5NFa2YZbxnsxY-3D%3Futm_campaign%3Dwebsite-link%26utm_medium%3Dorganic%26utm_source%3Dlocal-listing", "rating": 3.6, "reviews": 22, "place_id": "ChIJTR1-qk--locRGBazvP4bDr0", "latitude": 40.7897647, "longitude": -96.6991177, "care_type": "Plastic Surgeon"}, {"name": "Prairie Orthopaedic and Plastic Surgery, PC--South Location", "address": "4130 Pioneer Woods Dr Ste 1, Lincoln, NE 68506", "city": "Lincoln", "phone": "+1 402-489-4700", "website": "https://prairie-ortho.com/", "rating": 4.8, "reviews": 0, "place_id": "ChIJFxyE1qa9locRfCVTfX6eFGQ", "latitude": 40.7709676, "longitude": -96.6213279, "care_type": "Plastic Surgeon"}, {"name": "Plastic Surgery", "address": "84th St, Omaha, NE 68114", "city": "Omaha", "phone": "+1 402-955-4168", "website": "https://www.plasticsurgery.org/", "rating": null, "reviews": 0, "place_id": "ChIJC3TewBSNk4cRz4X3KBIORp4", "latitude": 41.26188519999999, "longitude": -96.04291909999999, "care_type": "Plastic Surgeon"}, {"name": "CHI Health Clinic Plastic & Reconstructive Surgery (Immanuel)", "address": "Medical Office Building One, 6829 N 72nd St #7500, Omaha, NE 68122", "city": "Omaha", "phone": "+1 402-717-0820", "website": "https://www.chihealth.com/en/services/general-surgery/plastic-surgery.html%3Futm_source%3DLocalSearch%26utm_medium%3DFacility%26utm_campaign%3DCHIHealthClinic%26utm_term%3DCHIHealthClinicPlastic%26ReconstructiveSurgery%2528Immanuel%2529%26y_source%3D1_MTQ1MjMwMzEtNzE1LWxvY2F0aW9uLndlYnNpdGU%253D", "rating": null, "reviews": 0, "place_id": "ChIJw39Z6_CTk4cRAIgcrWTijcY", "latitude": 41.3197571, "longitude": -96.02272169999999, "care_type": "Plastic Surgeon"}, {"name": "Athens Hair Transplants", "address": "7816 Dodge St, Omaha, NE 68114", "city": "Omaha", "phone": "+1 402-207-5853", "website": "https://athenshair.com/", "rating": 4.8, "reviews": 56, "place_id": "ChIJbRqIgjSNk4cRsXbJli3heKg", "latitude": 41.260333, "longitude": -96.0365803, "care_type": "Plastic Surgeon"}, {"name": "Allan J. Parungao, MD", "address": "7816 Dodge St, Omaha, NE 68114", "city": "Omaha", "phone": "+1 402-830-5324", "website": "https://athenshair.com/", "rating": null, "reviews": 0, "place_id": "ChIJcX61jDCNk4cRxTKw3T1sCvk", "latitude": 41.260333, "longitude": -96.0365803, "care_type": "Plastic Surgeon"}, {"name": "Gangadasu Reddy", "address": "601 N 30th St, Omaha, NE 68131", "city": "Omaha", "phone": "+1 402-717-0820", "website": "https://providers.chihealth.com/p/gangadasu-sagar-reddy-1366739625", "rating": null, "reviews": 0, "place_id": "ChIJf7Po4kaOk4cRMMrggqGGA1g", "latitude": 41.2648634, "longitude": -95.9549457, "care_type": "Plastic Surgeon"}, {"name": "Dr. Debra A. Reilly, MD", "address": "4239 Farnam St, Omaha, NE 68131", "city": "Omaha", "phone": "+1 402-559-4017", "website": "", "rating": 3.7, "reviews": 3, "place_id": "ChIJPYC1t3COk4cR7ahWH2nhd5o", "latitude": 41.2575344, "longitude": -95.977493, "care_type": "Plastic Surgeon"}, {"name": "DGMD Medical", "address": "1501 Jackson St #100, Omaha, NE 68102", "city": "Omaha", "phone": "+1 402-999-2329", "website": "https://dgmdmedical.com/", "rating": 5.0, "reviews": 34, "place_id": "ChIJ8RQqHz2Pk4cR6MVSL_4CPfU", "latitude": 41.2541907, "longitude": -95.93614889999999, "care_type": "Plastic Surgeon"}, {"name": "Rustad Dermatology PC - Omaha", "address": "4242 Farnam St Suite 150, Omaha, NE 68131", "city": "Omaha", "phone": "+1 402-391-7546", "website": "", "rating": 4.1, "reviews": 12, "place_id": "ChIJv4NHumqNk4cRb3XKPfB8MXA", "latitude": 41.2581186, "longitude": -95.9780104, "care_type": "Plastic Surgeon"}, {"name": "Oluwaseun (Seun) Adetayo, MD, FAAP, FACS", "address": "8200 Dodge St, Omaha, NE 68114", "city": "Omaha", "phone": "+1 402-955-7450", "website": "https://www.childrensnebraska.org/provider/oluwaseun-a-adetayo-md-faap-facs/%3Futm_campaign%3Dgmb%26utm_medium%3Dorganic%26utm_source%3Dlocal", "rating": null, "reviews": 0, "place_id": "ChIJ6XL2gBONk4cRpVRQpsbf1Nk", "latitude": 41.260315, "longitude": -96.0413444, "care_type": "Plastic Surgeon"}, {"name": "Clare E. Lookian, PA-C", "address": "8200 Dodge St, Omaha, NE 68114", "city": "Omaha", "phone": "+1 402-955-7450", "website": "https://www.childrensnebraska.org/provider/3215985/clare-e-lookian-pac%3Futm_campaign%3Dgmb%26utm_medium%3Dorganic%26utm_source%3Dlocal", "rating": null, "reviews": 0, "place_id": "ChIJWbyZTDKNk4cR4gT9QnjMxTI", "latitude": 41.260315, "longitude": -96.0413444, "care_type": "Plastic Surgeon"}, {"name": "Dr. Adam B. Smith, MD", "address": "601 N 30th St, Omaha, NE 68131", "city": "Omaha", "phone": "+1 402-449-4753", "website": "", "rating": null, "reviews": 0, "place_id": "ChIJ602x10aOk4cRpQG4PyMGXsQ", "latitude": 41.265087, "longitude": -95.95494099999999, "care_type": "Plastic Surgeon"}, {"name": "Dr. Brian Biggerstaff, M.D.", "address": "8900 W Dodge Rd, Omaha, NE 68114", "city": "Omaha", "phone": "", "website": "", "rating": 4.9, "reviews": 20, "place_id": "ChIJN0K_RciNk4cRZCwGRm-FCLc", "latitude": 41.2638252, "longitude": -96.0504373, "care_type": "Plastic Surgeon"}, {"name": "Sono Bello Lincoln", "address": "6940 O St Suite 105, Lincoln, NE 68510", "city": "Lincoln", "phone": "+1 531-600-0601", "website": "https://www.sonobello.com/", "rating": 5.0, "reviews": 32, "place_id": "ChIJDa9xgqm9locRihT7vG_uNBE", "latitude": 40.8141259, "longitude": -96.6256963, "care_type": "Plastic Surgeon"}, {"name": "Gustavo R. Machado, MD--North Location", "address": "5901 N 28th St, Lincoln, NE 68504", "city": "Lincoln", "phone": "+1 402-489-4700", "website": "https://www.prairie-ortho.com/", "rating": 5.0, "reviews": 175, "place_id": "ChIJaXr1E4a5locRVZojKaBAsNg", "latitude": 40.8732331, "longitude": -96.6801696, "care_type": "Plastic Surgeon"}, {"name": "JMISKO surgical design | md", "address": "8560 Foxtail Dr Suite 101, Lincoln, NE 68526", "city": "Lincoln", "phone": "+1 402-484-5144", "website": "https://www.jmisko.com/", "rating": 4.9, "reviews": 948, "place_id": "ChIJNfmn_kKWlocR0Ai6ofELJIs", "latitude": 40.7519582, "longitude": -96.6032147, "care_type": "Plastic Surgeon"}, {"name": "Prairie Orthopaedic and Plastic Surgery, PC--North Location", "address": "5901 N 28th St, Lincoln, NE 68504", "city": "Lincoln", "phone": "+1 402-489-4700", "website": "http://www.prairie-ortho.com/", "rating": 4.9, "reviews": 128, "place_id": "ChIJQQ7h_am5locRZsIrGNkM4Es", "latitude": 40.8732331, "longitude": -96.6801696, "care_type": "Plastic Surgeon"}, {"name": "Sutton Dermatology + Aesthetics - L Street Clinic", "address": "6900 L St, Lincoln, NE 68510", "city": "Lincoln", "phone": "+1 402-484-9009", "website": "https://suttonderm.com/%3Futm_source%3Dgoogle%26utm_medium%3Dlocal%26utm_campaign%3Dlstreet-practice-website", "rating": 4.9, "reviews": 1444, "place_id": "ChIJbQzG8OC9locRNJ9MW1iRki4", "latitude": 40.8103552, "longitude": -96.6270819, "care_type": "Plastic Surgeon"}, {"name": "Plastic Surgical Arts", "address": "1730 S 70th St, Lincoln, NE 68506", "city": "Lincoln", "phone": "+1 402-483-2572", "website": "https://www.plasticsurgicalarts.net/", "rating": null, "reviews": 0, "place_id": "ChIJZzsEl6-9locRGzb9hDXUVGA", "latitude": 40.7944213, "longitude": -96.6235918, "care_type": "Plastic Surgeon"}, {"name": "Sutton Dermatology + Aesthetics - North Clinic", "address": "5100 N 26th St, Lincoln, NE 68521", "city": "Lincoln", "phone": "+1 402-484-9009", "website": "https://suttonderm.com/%3Futm_source%3Dgoogle%26utm_medium%3Dlocal%26utm_campaign%3Dnorth-practice-website", "rating": 4.9, "reviews": 2059, "place_id": "ChIJuXTY00C5locRjqPBxaFTfhw", "latitude": 40.8626327, "longitude": -96.68325039999999, "care_type": "Plastic Surgeon"}, {"name": "Aesthetic Surgical Images", "address": "301 N 27th St, Norfolk, NE 68701", "city": "Norfolk", "phone": "+1 402-390-0100", "website": "https://www.surgicalimages.com/", "rating": null, "reviews": 0, "place_id": "ChIJS5JLn50VkIcR-trIr9_l0d0", "latitude": 42.03506429999999, "longitude": -97.45198099999999, "care_type": "Plastic Surgeon"}, {"name": "William J. Wyatt, MD", "address": "255 W 4th St, Kimball, NE 69145", "city": "Kimball", "phone": "", "website": "", "rating": 4.8, "reviews": 20, "place_id": "ChIJWzXkT-Y6b4cRu6eb577M944", "latitude": 41.2343358, "longitude": -103.6651152, "care_type": "Plastic Surgeon"}, {"name": "Precision Medical Aesthetics", "address": "322 W 39th St, Kearney, NE 68845", "city": "Kearney", "phone": "+1 308-293-3573", "website": "http://www.vagaro.com/precisionmedicalaesthetics", "rating": 5.0, "reviews": 26, "place_id": "ChIJz8w9GZ9PmYcR4qe0IbemFEo", "latitude": 40.7135702, "longitude": -99.0864105, "care_type": "Plastic Surgeon"}, {"name": "Sandhills Oral & Facial Surgery", "address": "504 W 42nd St, Kearney, NE 68845", "city": "Kearney", "phone": "+1 308-455-1944", "website": "http://www.sandhillsoralfacialsurgery.com/", "rating": 4.9, "reviews": 154, "place_id": "ChIJz0UsukdPmYcR0JfGeDbunjo", "latitude": 40.7159347, "longitude": -99.088478, "care_type": "Plastic Surgeon"}, {"name": "Contour Med + Aesthetics", "address": "2002 Central Ave, Kearney, NE 68847", "city": "Kearney", "phone": "+1 402-542-0722", "website": "http://www.contourne.com/", "rating": 5.0, "reviews": 36, "place_id": "ChIJZ2pAKalPmYcRw3bbtwObMHU", "latitude": 40.6954256, "longitude": -99.082138, "care_type": "Plastic Surgeon"}, {"name": "Simply Steele", "address": "4503 1st Ave Pl, Kearney, NE 68847", "city": "Kearney", "phone": "+1 308-224-6418", "website": "http://simplysteeleskin.net/", "rating": 5.0, "reviews": 203, "place_id": "ChIJuUD_6JVOmYcRIwpCVRVn1FI", "latitude": 40.7184705, "longitude": -99.08238019999999, "care_type": "Plastic Surgeon"}, {"name": "Joel Atchison", "address": "816 22nd Ave SUITE 100, Kearney, NE 688452226", "city": "Kearney", "phone": "", "website": "", "rating": null, "reviews": 0, "place_id": "ChIJ626KowhMmYcROL9AwNNK75Q", "latitude": 40.68316009999999, "longitude": -99.1128609, "care_type": "Plastic Surgeon"}, {"name": "Skin P.C.", "address": "410 E 22nd St #1, Fremont, NE 68025", "city": "Fremont", "phone": "+1 402-727-7979", "website": "http://skinpc.com/", "rating": 3.6, "reviews": 19, "place_id": "ChIJETUgdr5gkYcRQJn6rdJE0vA", "latitude": 41.4508148, "longitude": -96.4922514, "care_type": "Plastic Surgeon"}, {"name": "Natural U Aesthetics", "address": "2114 N Lincoln Ave # C, York, NE 68467", "city": "York", "phone": "+1 402-362-0220", "website": "http://naturaluyork.com/", "rating": 5.0, "reviews": 2, "place_id": "ChIJnxPrl01Pl4cRmno3MbWvOoA", "latitude": 40.8817498, "longitude": -97.5920843, "care_type": "Plastic Surgeon"}, {"name": "Central Nebraska General Surgery: Debra Reilly MD", "address": "715 N Kansas Ave Ste 205, Hastings, NE 68901", "city": "Hastings", "phone": "", "website": "", "rating": 5.0, "reviews": 1, "place_id": "ChIJ21IGWuajmYcRFsy4zIjeBDM", "latitude": 40.5902132, "longitude": -98.3878955, "care_type": "Plastic Surgeon"}, {"name": "Faith Health Reconstructive Surgery", "address": "2701 W Norfolk Ave Floor 2, Norfolk, NE 68701", "city": "Norfolk", "phone": "+1 402-844-8770", "website": "https://frpsclinics.org/specialties/plastic-reconstructive-surgery/", "rating": 5.0, "reviews": 1, "place_id": "ChIJYwnv7iYVkIcR4jojwS3iFas", "latitude": 42.0324015, "longitude": -97.45104719999999, "care_type": "Plastic Surgeon"}, {"name": "Mark Shashikant, MD, FACS", "address": "100 N 34th St Ste D, Norfolk, NE 68701", "city": "Norfolk", "phone": "+1 402-302-1061", "website": "http://www.shashikantmd.com/", "rating": 4.2, "reviews": 5, "place_id": "ChIJHdLjXasVkIcRdJeY9jJyU04", "latitude": 42.0330514, "longitude": -97.46137859999999, "care_type": "Plastic Surgeon"}, {"name": "Tristan Hartzell, MD", "address": "2701 W Norfolk Ave Floor 2, Norfolk, NE 68701", "city": "Norfolk", "phone": "+1 402-844-8291", "website": "https://frpsclinics.org/clinics/faith-regional-physician-services-hand-wrist-elbow-surgery/", "rating": 4.0, "reviews": 12, "place_id": "ChIJoUHuXmMVkIcRIO4oF4GFpAY", "latitude": 42.0324015, "longitude": -97.45104719999999, "care_type": "Plastic Surgeon"}, {"name": "Jesse Meaike, MD", "address": "2701 W Norfolk Ave Floor 2, Norfolk, NE 68701", "city": "Norfolk", "phone": "+1 402-844-8291", "website": "https://frpsclinics.org/clinics/faith-regional-physician-services-hand-wrist-elbow-surgery/", "rating": null, "reviews": 0, "place_id": "ChIJBWB_4gQVkIcRvTQAAoAbHu4", "latitude": 42.0324015, "longitude": -97.45104719999999, "care_type": "Plastic Surgeon"}]