[{"name": "Martin Plastic Surgery", "address": "141 Roadrunner Pkwy STE 129, Las Cruces, NM 88011", "city": "Las Cruces", "phone": "+1 575-577-7621", "website": "https://www.drscotmartin.com/%3Futm_source%3Dgoogle%26utm_medium%3Dlocalsearch%26utm_campaign%3Dgmb", "rating": 4.7, "reviews": 200, "place_id": "ChIJSzBEWU893oYROVIiPfrAHuA", "latitude": 32.3232198, "longitude": -106.7355664, "care_type": "Plastic Surgeon"}, {"name": "Plastic Surgery Institute of New Mexico", "address": "3830 Masthead St NE, Albuquerque, NM 87109", "city": "Albuquerque", "phone": "+1 505-842-8889", "website": "https://plasticsurgerynm.com/", "rating": 4.8, "reviews": 79, "place_id": "ChIJX7rxjEV0IocRmdfx0wynDYA", "latitude": 35.1652643, "longitude": -106.6007133, "care_type": "Plastic Surgeon"}, {"name": "Plastic Surgery Institute of New Mexico- Drs. Chen, Knotts, Wu", "address": "3830 Masthead St NE, Albuquerque, NM 87109", "city": "Albuquerque", "phone": "+1 505-842-8889", "website": "http://plasticsurgerynm.com/", "rating": 4.7, "reviews": 145, "place_id": "ChIJX7rxjEV0IocR1_CEOCbGBf0", "latitude": 35.1653216, "longitude": -106.6007344, "care_type": "Plastic Surgeon"}, {"name": "Reo Pugao, M.D., D.D.S., FACS", "address": "141 North Roadrunner Pkwy, Las Cruces, NM 88011", "city": "Las Cruces", "phone": "+1 575-521-7111", "website": "", "rating": 5.0, "reviews": 1, "place_id": "ChIJvemMLoY93oYRE1tUwbld9R4", "latitude": 32.3234137, "longitude": -106.7353967, "care_type": "Plastic Surgeon"}, {"name": "Portales Laser & Cosmetics", "address": "117 S Main Ave, Portales, NM 88130", "city": "Portales", "phone": "+1 575-226-3710", "website": "", "rating": null, "reviews": 0, "place_id": "ChIJ32cHHDjGAocRXr2M696k-ok", "latitude": 34.1862901, "longitude": -103.3365972, "care_type": "Plastic Surgeon"}, {"name": "Presbyterian Plastic Surgery and Cosmetic Surgery in Clovis at Plains Regional Medical Center", "address": "2421 W 21st St Suite B, Clovis, NM 88101", "city": "Clovis", "phone": "", "website": "https://www.phs.org/doctors-services/surgery/plastic-surgery/%3Futm_source%3Dgmb%26utm_medium%3Dorganic%26utm_campaign%3Dlisting%26utm_content%3D_loc_clovis_prmc_plasticsurgery__212", "rating": null, "reviews": 0, "place_id": "ChIJ17CBAZvfAocRs4gK007c5k8", "latitude": 34.4184504, "longitude": -103.2378148, "care_type": "Plastic Surgeon"}, {"name": "Glow Aesthetics Med Spa | Hobbs, NM", "address": "5419 N Lovington Hwy Suite 10, Hobbs, NM 88240", "city": "Hobbs", "phone": "+1 575-964-1814", "website": "https://www.glowaestheticsmedspa.com/", "rating": 4.9, "reviews": 115, "place_id": "ChIJh2aymujB_IYRQKdygkoFCCs", "latitude": 32.7610981, "longitude": -103.1839703, "care_type": "Plastic Surgeon"}, {"name": "Younique Medical Spa", "address": "201 E Sanger St, Hobbs, NM 88240", "city": "Hobbs", "phone": "+1 575-602-4054", "website": "https://www.youniquemedicalspa.me/", "rating": 4.8, "reviews": 53, "place_id": "ChIJETSH8wOV_IYRogJL7KRUAvE", "latitude": 32.7108971, "longitude": -103.1348179, "care_type": "Plastic Surgeon"}, {"name": "Revive Med Spa", "address": "1034 E Bender Blvd, Hobbs, NM 88240", "city": "Hobbs", "phone": "+1 575-993-8181", "website": "https://medspahobbs.com/", "rating": null, "reviews": 0, "place_id": "ChIJiSO88d6U_IYRMPasGao5OfA", "latitude": 32.7259055, "longitude": -103.1241061, "care_type": "Plastic Surgeon"}, {"name": "AMANI AESTHETICS", "address": "107 N 15th St, Artesia, NM 88210", "city": "Artesia", "phone": "+1 575-736-2511", "website": "https://amaniaesthetics.com/", "rating": 4.8, "reviews": 69, "place_id": "ChIJ2zwQWHGv44YRNqU7226t-ac", "latitude": 32.8432742, "longitude": -104.4156842, "care_type": "Plastic Surgeon"}, {"name": "William Dougherty", "address": "300 Paseo Del Pueblo Sur, Taos, NM 87571", "city": "Taos", "phone": "+1 575-758-1414", "website": "", "rating": 4.0, "reviews": 4, "place_id": "ChIJ9_lQwCNlF4cRP64hTizPyF4", "latitude": 36.4026498, "longitude": -105.5751333, "care_type": "Plastic Surgeon"}, {"name": "Mayberry Plastic Surgery", "address": "7115 Prospect Pl NE, Albuquerque, NM 87110", "city": "Albuquerque", "phone": "+1 505-888-3844", "website": "http://mayberryplasticsurgery.com/", "rating": 4.7, "reviews": 311, "place_id": "ChIJe5Ue1M0KIocR0msx2pVyUq8", "latitude": 35.1064024, "longitude": -106.5650186, "care_type": "Plastic Surgeon"}, {"name": "Hermosa Plastic Surgery", "address": "8004 Constitution Pl NE, Albuquerque, NM 87110", "city": "Albuquerque", "phone": "+1 505-924-2225", "website": "https://hermosaplasticsurgery.com/", "rating": 4.5, "reviews": 218, "place_id": "ChIJcXTTsb8KIocRnwqpFQHdj8U", "latitude": 35.094295, "longitude": -106.556109, "care_type": "Plastic Surgeon"}, {"name": "Sandia Cosmetic Facial Surgery", "address": "7009 Montgomery Blvd NE Suite A, Albuquerque, NM 87109", "city": "Albuquerque", "phone": "+1 505-291-9600", "website": "https://sandiacosmeticfacialsurgery.com/%3Futm_source%3DGBP%26utm_medium%3DGBP%26utm_campaign%3DGBP_Albuquerque%26utm_id%3DGBP_Albuquerque", "rating": 4.8, "reviews": 21, "place_id": "ChIJNU3LOeKfGIcRtomg9u0Y1O0", "latitude": 35.1310166, "longitude": -106.5680437, "care_type": "Plastic Surgeon"}, {"name": "Sono Bello Albuquerque", "address": "5601 Office Blvd NE #200, Albuquerque, NM 87109", "city": "Albuquerque", "phone": "+1 505-738-5722", "website": "https://www.sonobello.com/", "rating": 4.5, "reviews": 125, "place_id": "ChIJXSZg6vN1IocRpCKZEPI2c_c", "latitude": 35.1429966, "longitude": -106.599792, "care_type": "Plastic Surgeon"}, {"name": "New Mexico Plastic Surgery", "address": "1020 Tijeras Ave NE Machine Tool Technology Laboratory, Albuquerque, NM 87106", "city": "Albuquerque", "phone": "+1 505-842-6868", "website": "", "rating": 3.0, "reviews": 2, "place_id": "ChIJafFrfqEMIocRpzCPlMsvi18", "latitude": 35.0841514, "longitude": -106.6347164, "care_type": "Plastic Surgeon"}, {"name": "Albuquerque Center for Plastic Surgery, William G. Loutfy MD", "address": "5203 Juan Tabo Blvd NE, Albuquerque, NM 87111", "city": "Albuquerque", "phone": "+1 505-299-4900", "website": "https://acfps.com/", "rating": 4.4, "reviews": 36, "place_id": "ChIJd9N6C_OfGIcRvbeRX9s4LzU", "latitude": 35.1403375, "longitude": -106.5169427, "care_type": "Plastic Surgeon"}, {"name": "Elizabeth MD Facial Plastic Surgery", "address": "4100 Wolcott Ave NE STE A, Albuquerque, NM 87109", "city": "Albuquerque", "phone": "+1 505-855-5500", "website": "http://elizabeth-md.com/", "rating": 4.7, "reviews": 36, "place_id": "ChIJeUU-RUR0IocRb_qT2lbFbF0", "latitude": 35.164884, "longitude": -106.5976675, "care_type": "Plastic Surgeon"}, {"name": "New Mexico Plastic Surgeons, P.C.", "address": "801 Encino Pl NE D7, Albuquerque, NM 87102", "city": "Albuquerque", "phone": "+1 505-842-6868", "website": "", "rating": 1.0, "reviews": 3, "place_id": "ChIJK30tq6cMIocRSbTasePGJR4", "latitude": 35.0896586, "longitude": -106.631603, "care_type": "Plastic Surgeon"}, {"name": "Christopher D. Knotts, MD FACS", "address": "3830 Masthead St NE, Albuquerque, NM 87109", "city": "Albuquerque", "phone": "+1 505-842-8889", "website": "http://plasticsurgerynm.com/", "rating": 5.0, "reviews": 18, "place_id": "ChIJRbGCtcenVogR-QRNL7y07pg", "latitude": 35.1653061, "longitude": -106.60071, "care_type": "Plastic Surgeon"}, {"name": "Albuquerque Center For Plastic Surgery PC", "address": "5203 Juan Tabo Blvd NE, Albuquerque, NM 87111", "city": "Albuquerque", "phone": "+1 505-299-4900", "website": "https://acfps.com/", "rating": null, "reviews": 0, "place_id": "ChIJaQCa0NGfGIcRMLDEahO5oGo", "latitude": 35.1403228, "longitude": -106.5170007, "care_type": "Plastic Surgeon"}, {"name": "Dr. Miguel L. Gallegos, MD", "address": "8004 Constitution Pl NE, Albuquerque, NM 87110", "city": "Albuquerque", "phone": "+1 505-924-2225", "website": "http://www.hermosaplasticsurgery.com/", "rating": 3.5, "reviews": 87, "place_id": "ChIJcXTTsb8KIocRAFiV7TJycD4", "latitude": 35.0942494, "longitude": -106.5560975, "care_type": "Plastic Surgeon"}, {"name": "Jeffrey Morehouse, MD", "address": "6701 Jefferson St NE, Albuquerque, NM 87109", "city": "Albuquerque", "phone": "+1 505-727-6200", "website": "https://lovelace.com/find-a-provider/provider/1487687067%3Futm_source%3Dpg-google%26utm_medium%3Dorganic%26utm_campaign%3Dpg-listings", "rating": 4.7, "reviews": 61, "place_id": "ChIJ1bUTFO10IocRQPggEhmpeOo", "latitude": 35.157778, "longitude": -106.5939439, "care_type": "Plastic Surgeon"}, {"name": "Freya's Lair Medical Spa", "address": "6341 Riverside Plaza Ln Suite A, Albuquerque, NM 87120", "city": "Albuquerque", "phone": "+1 505-503-7381", "website": "https://www.freyaslair.com/", "rating": 4.8, "reviews": 374, "place_id": "ChIJMVpipUtyIocRdq8rLvKzpz4", "latitude": 35.157023, "longitude": -106.6798543, "care_type": "Plastic Surgeon"}, {"name": "Jeffrey Wu", "address": "2211 Lomas Blvd NE, Albuquerque, NM 87106", "city": "Albuquerque", "phone": "+1 505-272-1623", "website": "", "rating": 5.0, "reviews": 3, "place_id": "ChIJsdkus1wLIocRNwL3a8lG0AY", "latitude": 35.0881658, "longitude": -106.6173752, "care_type": "Plastic Surgeon"}, {"name": "Aaron Mayberry", "address": "7115 Prospect Pl NE, Albuquerque, NM 871104313", "city": "Albuquerque", "phone": "+1 505-888-3844", "website": "https://mayberryplasticsurgery.com/", "rating": 5.0, "reviews": 3, "place_id": "ChIJVVUWsM4KIocRjDY0ilq3CnM", "latitude": 35.1063537, "longitude": -106.5649558, "care_type": "Plastic Surgeon"}, {"name": "Sandia Skin and Face", "address": "7009 Montgomery Blvd NE, Albuquerque, NM 87109", "city": "Albuquerque", "phone": "+1 505-226-0999", "website": "https://sandiaskinface.com/", "rating": 4.8, "reviews": 321, "place_id": "ChIJexeXfz51IocRGU1HwTQNe0Q", "latitude": 35.13088949999999, "longitude": -106.5679598, "care_type": "Plastic Surgeon"}, {"name": "Albuquerque Laser Lipo", "address": "1820 Juan Tabo Blvd NE, Albuquerque, NM 87112", "city": "Albuquerque", "phone": "+1 505-435-5476", "website": "https://abqlaserlipo.com/", "rating": 4.0, "reviews": 25, "place_id": "ChIJn_hgMBSgGIcRLZpXCBtkt3U", "latitude": 35.102545, "longitude": -106.514871, "care_type": "Plastic Surgeon"}, {"name": "Dr. Gladys S. Tsao-Wu, MD", "address": "1020 Tijeras Ave NE STE 16, Albuquerque, NM 87106", "city": "Albuquerque", "phone": "+1 505-842-6868", "website": "", "rating": 5.0, "reviews": 5, "place_id": "ChIJafFrfqEMIocRTlEPreV3WS0", "latitude": 35.0841378, "longitude": -106.6347529, "care_type": "Plastic Surgeon"}, {"name": "Nars Aesthetics", "address": "5600 Coors Blvd NW Suite B2, Albuquerque, NM 87120", "city": "Albuquerque", "phone": "+1 505-207-2241", "website": "https://www.narsabq.com/", "rating": 5.0, "reviews": 141, "place_id": "ChIJVQK2jAl1IocRtteP9ll9E54", "latitude": 35.1460672, "longitude": -106.6876653, "care_type": "Plastic Surgeon"}, {"name": "Sandia Oral Surgery and Dental Implant Center: D. Eric Tuggle, D.D.S", "address": "7009 Montgomery Blvd NE, Albuquerque, NM 87109", "city": "Albuquerque", "phone": "+1 505-291-9600", "website": "https://www.sandiaoralsurgery.com/%3Futm_source%3DGBP%26utm_medium%3DGBP%26utm_campaign%3DGBP_Albuquerque%26utm_id%3DGBP_Albuquerque", "rating": 4.8, "reviews": 692, "place_id": "ChIJ4Q0yOOKfGIcReiMBcenAQto", "latitude": 35.13103, "longitude": -106.5680519, "care_type": "Plastic Surgeon"}, {"name": "Gladys S. Tsao-Wu, MD", "address": "801 Encino Pl NE D7, Albuquerque, NM 87102", "city": "Albuquerque", "phone": "+1 505-842-6868", "website": "", "rating": 3.0, "reviews": 10, "place_id": "ChIJK30tq6cMIocRiYpuxOITzto", "latitude": 35.0895043, "longitude": -106.632369, "care_type": "Plastic Surgeon"}, {"name": "Restore Medical Spa", "address": "3500 Constitution Ave NE, Albuquerque, NM 87106", "city": "Albuquerque", "phone": "+1 505-226-9136", "website": "http://restorebydukecity.com/", "rating": 5.0, "reviews": 80, "place_id": "ChIJYw3F3F4LIocROlURxFjYXrI", "latitude": 35.0944187, "longitude": -106.6048627, "care_type": "Plastic Surgeon"}, {"name": "Camille Aubin-Lemay", "address": "University of New Mexico, 2211, Albuquerque, NM 87131", "city": "Albuquerque", "phone": "+1 505-272-2231", "website": "https://hsc.unm.edu/directory/aubinlemay-camille.html", "rating": 1.0, "reviews": 1, "place_id": "ChIJySFLC1sLIocRJo1EJkXHUw8", "latitude": 35.09, "longitude": -106.62, "care_type": "Plastic Surgeon"}, {"name": "Aesthetic Boutique Medspa", "address": "4273 Montgomery Blvd NE Suite E260, Albuquerque, NM 87109", "city": "Albuquerque", "phone": "+1 505-401-5395", "website": "http://www.aestheticboutiquemedspa.com/", "rating": 4.8, "reviews": 148, "place_id": "ChIJF7h7Uuh0IocRcNrraBe6b44", "latitude": 35.131938, "longitude": -106.5969798, "care_type": "Plastic Surgeon"}, {"name": "Oasis Med Spa at WSNM", "address": "101 Hospital Loop NE #105, Albuquerque, NM 87109", "city": "Albuquerque", "phone": "+1 505-314-1444", "website": "http://wsnmmedspa.com/", "rating": 4.8, "reviews": 228, "place_id": "ChIJg1d8SeZ0IocR9WQtXYCn9k8", "latitude": 35.133126, "longitude": -106.592016, "care_type": "Plastic Surgeon"}, {"name": "Eric Minns, MD", "address": "1631 Hospital Dr Suite 150, Santa Fe, NM 87505", "city": "Santa Fe", "phone": "+1 505-913-4360", "website": "https://www.christushealth.org/find-a-doctor/Eric-Minns-38332%3Futm_source%3DGBP%26utm_medium%3Dorganic%26utm_campaign%3DGBP-listing", "rating": 4.8, "reviews": 66, "place_id": "ChIJSf14cfLIQIYRGp6xcKujmT8", "latitude": 35.6612838, "longitude": -105.9480085, "care_type": "Plastic Surgeon"}, {"name": "Aeris Medical Aesthetics", "address": "1700 Central Ave SW Suite D, Albuquerque, NM 87104", "city": "Albuquerque", "phone": "+1 505-433-4043", "website": "http://www.aerismedicalaesthetics.info/", "rating": 4.6, "reviews": 152, "place_id": "ChIJtTGVBNAKIocRpAyL6Lq4Ur4", "latitude": 35.0908167, "longitude": -106.6658824, "care_type": "Plastic Surgeon"}, {"name": "Anil Shetty", "address": "2211 Lomas Blvd NE Fl 2, Albuquerque, NM 87106", "city": "Albuquerque", "phone": "+1 505-272-1623", "website": "https://hsc.unm.edu/directory/shetty-anil.html", "rating": 1.0, "reviews": 1, "place_id": "ChIJD2u0TkMLIocRtyJxRZosLU0", "latitude": 35.0881045, "longitude": -106.6168993, "care_type": "Plastic Surgeon"}, {"name": "Dermatology of New Mexico", "address": "610 Broadway Blvd NE, Albuquerque, NM 87102", "city": "Albuquerque", "phone": "+1 505-225-2500", "website": "https://dermatologynm.com/", "rating": 3.4, "reviews": 62, "place_id": "ChIJHUipFt4NIocRBJyTIjVvUyo", "latitude": 35.08868, "longitude": -106.6432708, "care_type": "Plastic Surgeon"}, {"name": "Flawless Med Spa & Wellness", "address": "3301 Menaul Blvd NE Suite 30, Albuquerque, NM 87107", "city": "Albuquerque", "phone": "+1 505-560-8075", "website": "https://www.stayflawless.com/%3Futm_source%3DGBP%26utm_medium%3Dorganic%26utm_campaign%3Dgmb", "rating": 4.8, "reviews": 400, "place_id": "ChIJTWiPubV0IocRn5oakfhs7Qo", "latitude": 35.1101181, "longitude": -106.6070935, "care_type": "Plastic Surgeon"}, {"name": "CHRISTUS St. Vincent Plastic Surgery Specialists", "address": "1631 Hospital Dr Suite 150, Santa Fe, NM 87505", "city": "Santa Fe", "phone": "+1 505-913-4360", "website": "https://www.christushealth.org/locations/cosmetic-surgery-santa-fe%3Futm_source%3DGBP%26utm_medium%3Dorganic%26utm_campaign%3DGBP-listing", "rating": 3.8, "reviews": 10, "place_id": "ChIJRVUK7pJRGIcRDvvgt4TDW-A", "latitude": 35.6613767, "longitude": -105.9480479, "care_type": "Plastic Surgeon"}, {"name": "Gregory Borah", "address": "1021 Medical Arts Ave NE, Albuquerque, NM 87102", "city": "Albuquerque", "phone": "+1 505-272-0572", "website": "https://hsc.unm.edu/directory/borah-gregory.html", "rating": null, "reviews": 0, "place_id": "ChIJq6qau6cMIocRSzczuZR5oDY", "latitude": 35.0906674, "longitude": -106.6310289, "care_type": "Plastic Surgeon"}, {"name": "Dr. Garrett Wegerif", "address": "2211 Lomas Blvd NE, Albuquerque, NM 87106", "city": "Albuquerque", "phone": "+1 505-272-2111", "website": "https://www.pureplasticsurgery.com/", "rating": null, "reviews": 0, "place_id": "ChIJsdkus1wLIocRh8c1Eu4yqpU", "latitude": 35.0881658, "longitude": -106.6173752, "care_type": "Plastic Surgeon"}, {"name": "Baack Bret MD", "address": "1021 Medical Arts Ave NE, Albuquerque, NM 87102", "city": "Albuquerque", "phone": "+1 505-272-4264", "website": "", "rating": null, "reviews": 0, "place_id": "ChIJ49j70ZwMIocRmkYO-h7F6f8", "latitude": 35.0905938, "longitude": -106.6310109, "care_type": "Plastic Surgeon"}, {"name": "Albuquerque Dermatology Associates", "address": "5310 Homestead Rd NE, Albuquerque, NM 87110", "city": "Albuquerque", "phone": "+1 505-872-4700", "website": "http://www.albdermatology.com/", "rating": 2.9, "reviews": 95, "place_id": "ChIJm2WjQeZ0IocR7-qTjq6awhA", "latitude": 35.128374, "longitude": -106.5837852, "care_type": "Plastic Surgeon"}, {"name": "Fitshop Med Spa", "address": "5010 Cutler Ave NE, Albuquerque, NM 87110", "city": "Albuquerque", "phone": "+1 505-872-3348", "website": "https://fitshopnm.com/", "rating": 4.9, "reviews": 239, "place_id": "ChIJmU5naywLIocRs09WfAzFfOU", "latitude": 35.1051255, "longitude": -106.5885459, "care_type": "Plastic Surgeon"}, {"name": "Dr. Lorant Divald", "address": "University of New Mexico, 1, Albuquerque, NM 87131", "city": "Albuquerque", "phone": "+1 505-272-6225", "website": "", "rating": null, "reviews": 0, "place_id": "ChIJySFLC1sLIocRdBaVujV9hrI", "latitude": 35.09, "longitude": -106.62, "care_type": "Plastic Surgeon"}, {"name": "Milk and Honey Body Cosmetic Surgery", "address": "141 Roadrunner Pkwy STE 121, Las Cruces, NM 88011", "city": "Las Cruces", "phone": "+1 575-800-0876", "website": "https://milkandhoneybody.com/", "rating": 4.8, "reviews": 48, "place_id": "ChIJd-22Qk893oYRUkKMinmuxvk", "latitude": 32.3230415, "longitude": -106.7352967, "care_type": "Plastic Surgeon"}, {"name": "All Natural Aesthetics", "address": "2000 E Lohman Ave Ste C, Las Cruces, NM 88001", "city": "Las Cruces", "phone": "+1 575-644-3120", "website": "https://allnaturalaesthetics.glossgenius.com/", "rating": 4.9, "reviews": 167, "place_id": "ChIJO0irnRU93oYRRQPQ12B7hk8", "latitude": 32.3107834, "longitude": -106.7562957, "care_type": "Plastic Surgeon"}, {"name": "MountainView Plastic and Reconstructive Surgery", "address": "4351 E Lohman Ave # 204, Las Cruces, NM 88011", "city": "Las Cruces", "phone": "+1 575-532-1672", "website": "https://www.mountainviewdocs.com/our-locations/mountainview-medical-group-mountainview-plastic-re-1433%3Futm_campaign%3Dbiz-listings%26utm_source%3Dchs-web%26utm_medium%3Dgmb", "rating": 3.7, "reviews": 3, "place_id": "ChIJk0Kma0w93oYRmKanUHQbeCQ", "latitude": 32.3245143, "longitude": -106.7276103, "care_type": "Plastic Surgeon"}, {"name": "San Juan Plastic Surgery", "address": "2300 E 30th St, Farmington, NM 87401", "city": "Farmington", "phone": "+1 505-327-1754", "website": "https://www.sanjuanplasticsurgery.com/", "rating": 3.0, "reviews": 2, "place_id": "ChIJHYEEy_WPO4cRpPB6BWmCxpI", "latitude": 36.7572326, "longitude": -108.1764996, "care_type": "Plastic Surgeon"}, {"name": "Adams Plastic Surgery PC", "address": "2700 N Farmington Ave Bld i-a, Farmington, NM 87401", "city": "Farmington", "phone": "+1 505-675-7070", "website": "https://www.adamsplasticsurgery.com/", "rating": 3.7, "reviews": 13, "place_id": "ChIJBeBZGxKPO4cR8au5wUkRMio", "latitude": 36.7539693, "longitude": -108.1755314, "care_type": "Plastic Surgeon"}, {"name": "Jason P Adams DO", "address": "2700 N Farmington Ave Bldg i-A, Farmington, NM 87401", "city": "Farmington", "phone": "+1 505-675-7070", "website": "https://www.adamsplasticsurgery.com/", "rating": 5.0, "reviews": 1, "place_id": "ChIJBeBZGxKPO4cRbuEzbHtu7VI", "latitude": 36.7549523, "longitude": -108.1770108, "care_type": "Plastic Surgeon"}, {"name": "Todd Williams, MD", "address": "B, 2300 E 30th St #103, Farmington, NM 87401", "city": "Farmington", "phone": "+1 505-327-1754", "website": "http://www.sanjuanplasticsurgery.com/", "rating": 3.9, "reviews": 15, "place_id": "ChIJRQ0vShKPO4cRCVe8Zmq1nkk", "latitude": 36.7572326, "longitude": -108.1764996, "care_type": "Plastic Surgeon"}, {"name": "Epiphany Dermatology", "address": "5512 E Main St Ste A, Farmington, NM 87402", "city": "Farmington", "phone": "+1 505-787-2515", "website": "https://www.epiphanydermatology.com/location/farmington-nm/", "rating": 4.8, "reviews": 790, "place_id": "ChIJJ6MEVWmJO4cRh8gAD10zklg", "latitude": 36.7711275, "longitude": -108.141166, "care_type": "Plastic Surgeon"}, {"name": "Epiphany Dermatology", "address": "2240 Grande Blvd SE Ste 106, Rio Rancho, NM 87124", "city": "Rio Rancho", "phone": "+1 505-545-6741", "website": "https://www.epiphanydermatology.com/location/rio-rancho-nm/", "rating": 4.6, "reviews": 1234, "place_id": "ChIJq6raQxtxIocRBdkS6RbFjWc", "latitude": 35.2206159, "longitude": -106.6632571, "care_type": "Plastic Surgeon"}, {"name": "Joseph Gorvetzian, MD", "address": "6701 Jefferson St NE, Albuquerque, NM 87109", "city": "Albuquerque", "phone": "+1 505-727-1700", "website": "https://lovelace.com/find-a-provider/provider/1780245803/%3Futm_source%3Dpg-google%26utm_medium%3Dorganic%26utm_campaign%3Dpg-listings", "rating": 5.0, "reviews": 4, "place_id": "ChIJ-yLEk7Z1IocR2O9cmyLqb7w", "latitude": 35.1578755, "longitude": -106.5948412, "care_type": "Plastic Surgeon"}, {"name": "Lily Love, M.D.", "address": "530 Harkle Rd STE A, Santa Fe, NM 87505", "city": "Santa Fe", "phone": "+1 505-772-0564", "website": "https://www.santafeskin.com/%3Futm_source%3Dgmb_auth", "rating": 4.9, "reviews": 20, "place_id": "ChIJL3vZh3ZRGIcRirHq4P2gyfE", "latitude": 35.6597103, "longitude": -105.9494329, "care_type": "Plastic Surgeon"}, {"name": "Ageless MDSolutions", "address": "1012 Marquez Pl Unit 101, Santa Fe, NM 87505", "city": "Santa Fe", "phone": "+1 505-690-6333", "website": "http://agelessmdsolutions.com/", "rating": 5.0, "reviews": 45, "place_id": "ChIJM7Y57BJaGIcRaqHOOPvdimI", "latitude": 35.6755945, "longitude": -105.949676, "care_type": "Plastic Surgeon"}, {"name": "Santa Fe Skin Institute", "address": "530 Harkle Rd STE A, Santa Fe, NM 87505", "city": "Santa Fe", "phone": "+1 505-772-0564", "website": "https://www.santafeskin.com/%3Futm_source%3Dgmb_auth", "rating": 4.8, "reviews": 168, "place_id": "ChIJKaXuQdtRGIcR5Bo2gLGyV8o", "latitude": 35.6597842, "longitude": -105.9494481, "care_type": "Plastic Surgeon"}, {"name": "Santa Fe Skin Vitality", "address": "1223 S St Francis Dr STE B, Santa Fe, NM 87505", "city": "Santa Fe", "phone": "+1 505-336-1889", "website": "https://www.sfskinvitality.com/", "rating": 4.8, "reviews": 198, "place_id": "ChIJgdZRG2VRGIcRGkXbj2aeBWI", "latitude": 35.6692455, "longitude": -105.9544745, "care_type": "Plastic Surgeon"}, {"name": "Jared Seibert, M.D.", "address": "530 Harkle Rd STE A, Santa Fe, NM 87505", "city": "Santa Fe", "phone": "+1 505-772-0564", "website": "https://www.santafeskin.com/", "rating": 5.0, "reviews": 5, "place_id": "ChIJfe-CqgpRGIcRK-JqOZyiwc0", "latitude": 35.6597103, "longitude": -105.9494329, "care_type": "Plastic Surgeon"}, {"name": "William Dougherty", "address": "1631 Hospital Dr # 240, Santa Fe, NM 87505", "city": "Santa Fe", "phone": "+1 505-913-3975", "website": "", "rating": 5.0, "reviews": 2, "place_id": "ChIJbQWOmIxQGIcRT2EcaCK7EmA", "latitude": 35.6613362, "longitude": -105.9480226, "care_type": "Plastic Surgeon"}, {"name": "Sterling Aesthetics Santa Fe", "address": "1651 Galisteo St STE 6, Santa Fe, NM 87505", "city": "Santa Fe", "phone": "+1 505-428-0402", "website": "http://sterlingaestheticssantafe.com/", "rating": 3.8, "reviews": 9, "place_id": "ChIJxxhMaYxQGIcRiaCk68XC3Qw", "latitude": 35.6605297, "longitude": -105.9505608, "care_type": "Plastic Surgeon"}, {"name": "Epiphany Dermatology", "address": "5 Cll Medico # 5A, Santa Fe, NM 87505", "city": "Santa Fe", "phone": "+1 505-557-6300", "website": "https://www.epiphanydermatology.com/location/santa-fe-nm/", "rating": 4.7, "reviews": 1431, "place_id": "ChIJ00ShQfJQGIcRUcR4gFzDEPQ", "latitude": 35.6587165, "longitude": -105.9423523, "care_type": "Plastic Surgeon"}, {"name": "Haher Jane N MD", "address": "219 Cathedral Pl, Santa Fe, NM 87501", "city": "Santa Fe", "phone": "+1 505-983-8561", "website": "", "rating": null, "reviews": 0, "place_id": "ChIJ40vGGkZQGIcRAvavwwuCoSk", "latitude": 35.6857534, "longitude": -105.9355992, "care_type": "Plastic Surgeon"}, {"name": "Fancy Face Aesthetics", "address": "335 Hwy 314 SW, Los Lunas, NM 87031", "city": "Los Lunas", "phone": "+1 505-235-0769", "website": "http://www.fancyfaceaesthetics.com/", "rating": 4.9, "reviews": 15, "place_id": "ChIJPboeMsYcIocRGcSFxBIuIS8", "latitude": 34.8046318, "longitude": -106.7371241, "care_type": "Plastic Surgeon"}, {"name": "Facial Esthetics of New Mexico", "address": "1430 Bosque Farms Blvd, Bosque Farms, NM 87068", "city": "Bosque Farms", "phone": "+1 505-550-8614", "website": "https://facialestheticsnm.com/", "rating": 5.0, "reviews": 14, "place_id": "ChIJt5ezKpMFIocRJ_c591cl4CE", "latitude": 34.8537175, "longitude": -106.6906761, "care_type": "Plastic Surgeon"}, {"name": "One Complete Care & Aesthetics (1CC Aesthetics)", "address": "5290 McNutt Rd Suite 103, Santa Teresa, NM 88008", "city": "Santa Teresa", "phone": "+1 575-650-6883", "website": "http://1ccaesthetics.com/", "rating": 4.7, "reviews": 63, "place_id": "ChIJSSizaqf53YYRBcS7zCYKDxQ", "latitude": 31.848544, "longitude": -106.6251314, "care_type": "Plastic Surgeon"}, {"name": "Golden Aesthetics", "address": "1616 S 2nd St, Gallup, NM 87301", "city": "Gallup", "phone": "+1 505-207-3643", "website": "https://gallupmedspa.com/", "rating": 5.0, "reviews": 2, "place_id": "ChIJq6oaE-neJIcR1pbk_ePPYd8", "latitude": 35.5133893, "longitude": -108.7392999, "care_type": "Plastic Surgeon"}, {"name": "Absolute Aesthetics", "address": "1616 S 2nd St, Gallup, NM 87301", "city": "Gallup", "phone": "+1 701-590-4677", "website": "", "rating": 4.6, "reviews": 10, "place_id": "ChIJB8NQwmDfJIcRgZpX-PnD_p8", "latitude": 35.5133587, "longitude": -108.7392098, "care_type": "Plastic Surgeon"}, {"name": "Gregg Schmedes", "address": "1901 Redrock Dr, Gallup, NM 87301", "city": "Gallup", "phone": "+1 505-387-8201", "website": "", "rating": null, "reviews": 0, "place_id": "ChIJQ3DmC2PeJIcRC0lirtLxo9o", "latitude": 35.506743, "longitude": -108.7274389, "care_type": "Plastic Surgeon"}, {"name": "Beautify Medspa", "address": "122 S Gold Ave Suite D, Deming, NM 88030", "city": "Deming", "phone": "+1 575-642-3396", "website": "http://www.thebeautifymedspa.com/", "rating": 5.0, "reviews": 87, "place_id": "ChIJV8WjsI7D3oYRt55q93e5hBU", "latitude": 32.2677146, "longitude": -107.7587859, "care_type": "Plastic Surgeon"}, {"name": "Taylor Family and Aesthetic Medicine", "address": "208 Porr Dr, Ruidoso, NM 88345", "city": "Ruidoso", "phone": "+1 575-216-8031", "website": "https://taylorfamilymed.com/", "rating": 5.0, "reviews": 8, "place_id": "ChIJrej1jO3R4YYRknmWEhbfdkk", "latitude": 33.3446976, "longitude": -105.6759679, "care_type": "Plastic Surgeon"}, {"name": "Vita Nova Anti-Aging and Rejuvenation Center New Mexico", "address": "2323 W Pierce St, Carlsbad, NM 88220", "city": "Carlsbad", "phone": "+1 575-266-4606", "website": "https://vitanovaantiaging.com/%3Futm_source%3Dgoogle%26utm_medium%3Dlocalsearch%26utm_campaign%3Dgmb", "rating": 4.9, "reviews": 63, "place_id": "ChIJCb1KIK5544YRNwOuUBQVcNE", "latitude": 32.4394929, "longitude": -104.2562941, "care_type": "Plastic Surgeon"}, {"name": "Hermosa Plastic Surgery", "address": "400 N Pennsylvania Ave, Roswell, NM 88201", "city": "Roswell", "phone": "+1 505-924-2225", "website": "https://hermosaplasticsurgery.com/", "rating": 1.0, "reviews": 1, "place_id": "ChIJmSsiRhhv4oYRe1LivuTc8rQ", "latitude": 33.3970103, "longitude": -104.5266577, "care_type": "Plastic Surgeon"}, {"name": "Main Street Med Spa", "address": "500 N Main St, Clovis, NM 88101", "city": "Clovis", "phone": "+1 575-530-0468", "website": "https://www.mainstmedspa.com/%3Futm_source%3DGBP%26utm_medium%3Dwebsite_button", "rating": 4.9, "reviews": 67, "place_id": "ChIJMSL7EEHdAocRHTjPFPALpKo", "latitude": 34.4029811, "longitude": -103.2057372, "care_type": "Plastic Surgeon"}]