[{"name": "EF Esthetic & MediSpa", "address": "100 Water St, Campbellton, NB E3N 1A9", "city": "Campbellton", "phone": "+1 506-759-9869", "website": "http://efmedispa.net/", "rating": 4.8, "reviews": 20, "place_id": "ChIJ3WpisSkhmEwRMUQKIdmgdj8", "latitude": 48.0075717, "longitude": -66.6730036, "care_type": "Plastic Surgeon"}, {"name": "Medicalux Private Care", "address": "89 Roseberry St, Campbellton, NB E3N 2G6", "city": "Campbellton", "phone": "+1 506-377-4780", "website": "https://www.medicalux.ca/", "rating": 5.0, "reviews": 2, "place_id": "ChIJBTPtrLUhmEwR1jXZUCaZIUI", "latitude": 48.0042068, "longitude": -66.6798456, "care_type": "Plastic Surgeon"}, {"name": "Dr. Brent Howley, Plastic & Cosmetic Surgeon", "address": "585 Mapleton Rd Suite 100, Moncton, NB E1G 2K5", "city": "Moncton", "phone": "+1 506-853-5164", "website": "https://www.drhowley.com/", "rating": 4.2, "reviews": 41, "place_id": "ChIJBVjxiFe_oEwRkrE2AoIQx-U", "latitude": 46.1248732, "longitude": -64.829876, "care_type": "Plastic Surgeon"}, {"name": "Dr.SashAesthetics", "address": "at Diamond Beach Lifestyle Spa, 301 Main St, Shediac, NB E4P 2W2", "city": "Shediac", "phone": "+1 506-588-1794", "website": "https://www.drsashaesthetics.ca/", "rating": 5.0, "reviews": 9, "place_id": "ChIJGaIRjsCRoEwRNn5BJuPgVDI", "latitude": 46.2190234, "longitude": -64.5476355, "care_type": "Plastic Surgeon"}, {"name": "Dool Plastic Surgery, Dr. Jayson Dool", "address": "860 Main St, Moncton, NB E1C 0R9", "city": "Moncton", "phone": "+1 506-382-3665", "website": "http://www.doolplasticsurgery.ca/", "rating": 4.3, "reviews": 26, "place_id": "ChIJTfef0QK8oEwRi6odrGpypH8", "latitude": 46.08794899999999, "longitude": -64.7792475, "care_type": "Plastic Surgeon"}, {"name": "Allura Clinic", "address": "200 Champlain St #270, Dieppe, NB E1A 1P1", "city": "Dieppe", "phone": "+1 506-853-5154", "website": "https://alluraclinics.ca/", "rating": 4.1, "reviews": 35, "place_id": "ChIJZ-KiEk25oEwRTu574MmgG5s", "latitude": 46.09535349999999, "longitude": -64.7477912, "care_type": "Plastic Surgeon"}, {"name": "Ali Husain PC", "address": "200 Champlain St #270, Dieppe, NB E1A 1P1", "city": "Dieppe", "phone": "+1 506-853-5154", "website": "https://alluraclinics.ca/", "rating": 3.9, "reviews": 7, "place_id": "ChIJ95NEbU25oEwRgtNRfCYaelI", "latitude": 46.0954406, "longitude": -64.7476499, "care_type": "Plastic Surgeon"}, {"name": "Dr. Andrew Mulherin", "address": "400 University Ave 3DN Suite A, Saint John, NB E2L 4L2", "city": "Saint John", "phone": "+1 506-649-2811", "website": "http://www.drandrewmulherin.com/", "rating": 4.3, "reviews": 6, "place_id": "ChIJaXiSuT5NpkwRTmLraJHH1us", "latitude": 45.302386, "longitude": -66.0855669, "care_type": "Plastic Surgeon"}, {"name": "Dr. Wisam Menesi", "address": "457 Bishop Dr #103, Fredericton, NB E3C 2M6", "city": "Fredericton", "phone": "+1 506-455-1188", "website": "https://www.menesiplasticsurgery.com/", "rating": 2.7, "reviews": 17, "place_id": "ChIJs0GTEKcYpEwR_NJwmCZEYDA", "latitude": 45.942819, "longitude": -66.675718, "care_type": "Plastic Surgeon"}, {"name": "ALT Aesthetics", "address": "672 Main St, Woodstock, NB E7M 2C8", "city": "Woodstock", "phone": "+1 506-259-7384", "website": "http://www.altaesthetics.com/", "rating": 5.0, "reviews": 1, "place_id": "ChIJW38-KqLtpEwRvWUGDZVVHcA", "latitude": 46.1508571, "longitude": -67.5729178, "care_type": "Plastic Surgeon"}, {"name": "Clinique Phi. \u23ae Dr Marc-Andr\u00e9 Collin", "address": "bureau 4, 970 Rue Principale, Beresford, NB E8K 2H6", "city": "Beresford", "phone": "+1 506-350-5030", "website": "http://cliniquephi.ca/", "rating": 5.0, "reviews": 3, "place_id": "ChIJG7MiuQKTmEwR8zYI8zv0sTs", "latitude": 47.6916883, "longitude": -65.70111969999999, "care_type": "Plastic Surgeon"}, {"name": "La Belle Medical Aesthetic Clinic", "address": "208 Hampton Rd #1B, Quispamsis, NB E2E 4L8", "city": "Quispamsis", "phone": "+1 506-849-0271", "website": "https://www.labellemedicalclinic.com/", "rating": 5.0, "reviews": 91, "place_id": "ChIJ0bvgKhGtp0wRc9ec418wWpM", "latitude": 45.4067073, "longitude": -65.9665141, "care_type": "Plastic Surgeon"}, {"name": "BK Luxe Medical Aesthetics", "address": "65 Henry St, Miramichi, NB E1V 2N4", "city": "Miramichi", "phone": "+1 506-773-0119", "website": "http://www.luxemedicalaesthetics.ca/", "rating": 5.0, "reviews": 70, "place_id": "ChIJdW9fN12LoUwRymAYkH6XoYU", "latitude": 47.00000379999999, "longitude": -65.564858, "care_type": "Plastic Surgeon"}, {"name": "Ambrosia Cosmetic Clinic", "address": "1710 King George Hwy Unit 2, Miramichi, NB E1V 5L5", "city": "Miramichi", "phone": "+1 506-836-9100", "website": "", "rating": 5.0, "reviews": 3, "place_id": "ChIJMaRKCBr1oUwRfRXJv4RBkCs", "latitude": 47.0209793, "longitude": -65.5329477, "care_type": "Plastic Surgeon"}, {"name": "Glo Skin Care Quispamsis", "address": "15 Pettingill Rd Suite #160, Quispamsis, NB E2E 6B1", "city": "Quispamsis", "phone": "+1 506-849-0933", "website": "https://gloquispamsis.ca/", "rating": 5.0, "reviews": 42, "place_id": "ChIJx7Jo7K6tp0wRgzOXUkv0GVc", "latitude": 45.4069923, "longitude": -65.9735474, "care_type": "Plastic Surgeon"}, {"name": "Milan Medical Aesthetics Clinic", "address": "170 Hampton Rd, Quispamsis, NB E2E 4J8", "city": "Quispamsis", "phone": "+1 506-721-0205", "website": "", "rating": 4.4, "reviews": 5, "place_id": "ChIJ4cgkIF2tp0wRzoafPe3v_gQ", "latitude": 45.40356509999999, "longitude": -65.9714383, "care_type": "Plastic Surgeon"}, {"name": "Dermapure Dieppe - (Formerly Institut Figurra)", "address": "250 Champlain St #2A, Dieppe, NB E1A 1P3", "city": "Dieppe", "phone": "+1 506-404-2592", "website": "https://www.dermapure.com/en/locations/dieppe/%3Futm_source%3Dgoogle%26utm_medium%3Dorganic", "rating": 4.9, "reviews": 0, "place_id": "ChIJnxcmg0y5oEwRsu45iKJxFgs", "latitude": 46.0957149, "longitude": -64.7460061, "care_type": "Plastic Surgeon"}, {"name": "Lana Beauty Clinic", "address": "185 Acadie Ave Suite 106, Dieppe, NB E1A 1G6", "city": "Dieppe", "phone": "+1 506-988-0310", "website": "https://lana.clinic/en", "rating": 4.9, "reviews": 0, "place_id": "ChIJcXHTbK25oEwRK4pDyEtFKoo", "latitude": 46.0917393, "longitude": -64.7423664, "care_type": "Plastic Surgeon"}, {"name": "Nicole Burke Esthetics & Wellness", "address": "260 Main St, Sackville, NB E4L 3A8", "city": "Sackville", "phone": "", "website": "https://www.schedulicity.com/scheduling/NBESYQ%3Ffbclid%3DPAAaZ6OUeMzAUdhCfG5AsI8xc4cOCT9X6IXJPmHGOhppBnlfK_iwt4Os6Fdm0_aem_AXg4w54Tw5kx9XC6yNRC58Q64eKTvjvPwlkKlQ9_HLw4aDu19ZtDarUZZ-Tr_6NwevU", "rating": 5.0, "reviews": 0, "place_id": "ChIJYfH1ZvZQX0sRvN_Sk_ST0Xo", "latitude": 45.9146797, "longitude": -64.37211479999999, "care_type": "Plastic Surgeon"}, {"name": "Cosmedikat - Katherine Caissie Registered Nurse Injector", "address": "585 Mapleton Rd, Moncton, NB E1G 2K5", "city": "Moncton", "phone": "+1 506-853-5164", "website": "", "rating": 5.0, "reviews": 2, "place_id": "ChIJfc2kbPK_oEwRzDvuWM52IvM", "latitude": 46.1248624, "longitude": -64.8299486, "care_type": "Plastic Surgeon"}, {"name": "Opulence Med Spa", "address": "15 Brayson Blvd Suite F, Oromocto, NB E2V 0J2", "city": "Oromocto", "phone": "+1 506-208-0746", "website": "https://www.opulencemedspa.ca/", "rating": 5.0, "reviews": 13, "place_id": "ChIJE0ntT4GdpkwRdxTtlJ0NNSI", "latitude": 45.84068449999999, "longitude": -66.5092512, "care_type": "Plastic Surgeon"}, {"name": "Dr Andrea Hickey Medical Aesthetics", "address": "435 Regent St Suite 104, Fredericton, NB E3B 3X6", "city": "Fredericton", "phone": "+1 506-458-0444", "website": "http://www.drandreahickey.ca/", "rating": 4.7, "reviews": 49, "place_id": "ChIJX3T9vgsipEwRcK6z4MdhhqI", "latitude": 45.95432599999999, "longitude": -66.644892, "care_type": "Plastic Surgeon"}, {"name": "Resplendent - U Medical Aesthetics", "address": "429 Rusagonis Rd, Rusagonis, NB E3B 8Z1", "city": "Rusagonis", "phone": "+1 506-282-1968", "website": "", "rating": 5.0, "reviews": 3, "place_id": "ChIJ-5PoOiOdpkwRl1mtCAwYQeM", "latitude": 45.8010585, "longitude": -66.60565199999999, "care_type": "Plastic Surgeon"}, {"name": "Clinique Signature Spa-M\u00e9dic", "address": "464 -D Rue Victoria, Edmundston, NB E3V 2K5", "city": "Edmundston", "phone": "+1 581-309-4535", "website": "https://www.csspamedic.ca/", "rating": 5.0, "reviews": 30, "place_id": "ChIJI04uYLKpvUwRAvTJoNH-J4k", "latitude": 47.37749489999999, "longitude": -68.3328898, "care_type": "Plastic Surgeon"}, {"name": "Clinique Laser Jouvence Inc", "address": "56 Av. Bateman, Edmundston, NB E3V 4A4", "city": "Edmundston", "phone": "+1 506-739-1011", "website": "http://www.cliniquelaserjouvence.com/", "rating": 5.0, "reviews": 25, "place_id": "ChIJA4qqeJWpvUwRyi0f8aqr0wM", "latitude": 47.3790397, "longitude": -68.3133446, "care_type": "Plastic Surgeon"}, {"name": "Clinique de la Pointe", "address": "7496 NB-11, Pointe des Robichaud, NB E1X 1K9", "city": "Pointe des Robichaud", "phone": "+1 506-393-5000", "website": "", "rating": 5.0, "reviews": 9, "place_id": "ChIJgweN-MNIn0wRCVwF9LKmFrg", "latitude": 47.46810379999999, "longitude": -64.9103168, "care_type": "Plastic Surgeon"}, {"name": "Clinique Jouvence", "address": "3526 Rue Principale, Tracadie-Sheila, NB E1X 1G5", "city": "Tracadie-Sheila", "phone": "+1 506-218-0271", "website": "http://www.cliniquejouvence.com/", "rating": 4.7, "reviews": 13, "place_id": "ChIJnR80QQ1Jn0wRQc6hiownj0M", "latitude": 47.516179, "longitude": -64.911053, "care_type": "Plastic Surgeon"}, {"name": "Clinique VerSa Inc", "address": "3455 Rue Principale, Tracadie-Sheila, NB E1X 1C8", "city": "Tracadie-Sheila", "phone": "+1 506-394-5577", "website": "", "rating": 5.0, "reviews": 1, "place_id": "ChIJxcarsRNJn0wRajRoLJDxeQ0", "latitude": 47.5189351, "longitude": -64.9121719, "care_type": "Plastic Surgeon"}]