[{"name": "The Landings Surgical Centre", "address": "1477 Lower Water St #145, Halifax, NS B3J 3Z4", "city": "Halifax", "phone": "+1 902-707-2260", "website": "https://www.landingsurgery.ca/", "rating": 4.1, "reviews": 65, "place_id": "ChIJv_OtGDUiWksRGfp3Lgxm3VQ", "latitude": 44.6439445, "longitude": -63.5693727, "care_type": "Plastic Surgeon"}, {"name": "Dr. Richard Bendor-Samuel", "address": "1477 Lower Water St #7a, Halifax, NS B3J 3Z4", "city": "Halifax", "phone": "+1 902-492-2007", "website": "http://www.landingsurgery.ca/", "rating": 3.9, "reviews": 18, "place_id": "ChIJv-eEITUiWksRZo2jQb5KQiQ", "latitude": 44.64391, "longitude": -63.569443, "care_type": "Plastic Surgeon"}, {"name": "Dr Jason Williams", "address": "1796 Summer St #4447, Halifax, NS B3H 3A7", "city": "Halifax", "phone": "+1 902-473-6315", "website": "http://drjwilliams.com/", "rating": 4.8, "reviews": 6, "place_id": "ChIJ-UW1dCwiWksR0jBsGtp4Yq4", "latitude": 44.6456943, "longitude": -63.5873979, "care_type": "Plastic Surgeon"}, {"name": "Atlantic Plastic Surgery Associates", "address": "1477 Lower Water St, Halifax, NS B3J 3Z4", "city": "Halifax", "phone": "+1 902-492-2007", "website": "https://www.landingsurgery.ca/", "rating": null, "reviews": 0, "place_id": "ChIJv-eEITUiWksRIlWd2P6VUuw", "latitude": 44.6439372, "longitude": -63.5693108, "care_type": "Plastic Surgeon"}, {"name": "Dr. Justin Paletz", "address": "1796 Summer St, Halifax, NS B3H 3A6", "city": "Halifax", "phone": "+1 902-473-6300", "website": "https://medicine.dal.ca/departments/department-sites/surgery/divisions/plastic-reconstructive-surgery/our-people/our-faculty/justin-paletz.html", "rating": 4.0, "reviews": 4, "place_id": "ChIJXYsrZCwiWksRgS_Gj4ur78Q", "latitude": 44.6457221, "longitude": -63.58734, "care_type": "Plastic Surgeon"}, {"name": "Halifax Eyelid Surgery", "address": "1276 South Park St, Halifax, NS B3H 2Y9", "city": "Halifax", "phone": "+1 902-473-2307", "website": "http://www.halifaxeyelidsurgery.com/", "rating": null, "reviews": 0, "place_id": "ChIJXfzZnMsjWksROJ1I5GrLWvU", "latitude": 44.63869469999999, "longitude": -63.5804371, "care_type": "Plastic Surgeon"}, {"name": "Radiant Health Solutions Inc.", "address": "534 E River Rd Unit C, New Glasgow, NS B2H 3R6", "city": "New Glasgow", "phone": "+1 902-789-5453", "website": "https://www.iamradiant.ca/", "rating": 5.0, "reviews": 42, "place_id": "ChIJla-xWoHsQEQR9cV5B3EBJ_s", "latitude": 45.5797345, "longitude": -62.64298369999999, "care_type": "Plastic Surgeon"}, {"name": "Dr A. Atiyah Plastic Surgery", "address": "Dr. A. Atiyah Medical Arts, 336 Kings Rd Building Suite 208, Sydney, NS B1S 1A9", "city": "Sydney", "phone": "+1 902-270-5640", "website": "https://www.dratiyahplasticsurgery.com/", "rating": 4.3, "reviews": 11, "place_id": "ChIJGS1Nw_3mZ0sRKrRYB-k3KKc", "latitude": 46.1252724, "longitude": -60.2000178, "care_type": "Plastic Surgeon"}, {"name": "Dr. Lisa Dickson Plastic Surgeon", "address": "42 Glen Allan Dr #306, Bridgewater, NS B4V 3N2", "city": "Bridgewater", "phone": "+1 902-543-5900", "website": "", "rating": 5.0, "reviews": 2, "place_id": "ChIJiWAvA6NnV0sRJWwC7qTAol0", "latitude": 44.383771, "longitude": -64.5140064, "care_type": "Plastic Surgeon"}, {"name": "Dr M. Van Der Vyver", "address": "31 Riverside Dr, Sydney, NS B1S 3N1", "city": "Sydney", "phone": "+1 902-780-0505", "website": "", "rating": 5.0, "reviews": 5, "place_id": "ChIJCW5NTBX7Z0sR5sZroiVAvV0", "latitude": 46.1011213, "longitude": -60.2343201, "care_type": "Plastic Surgeon"}, {"name": "Aspire Esthetics", "address": "574 Main St, Yarmouth, NS B5A 1J4", "city": "Yarmouth", "phone": "+1 902-702-9722", "website": "https://aspireesthetics.square.site/", "rating": 5.0, "reviews": 16, "place_id": "ChIJVYPhweIQVksRAHwoBcehBak", "latitude": 43.8477991, "longitude": -66.11541369999999, "care_type": "Plastic Surgeon"}, {"name": "Valley Facial Plastic Surgery", "address": "318 Main St, Wolfville, NS B4P 2B8", "city": "Wolfville", "phone": "+1 902-678-9568", "website": "http://www.valleyfacialplastics.com/", "rating": 3.7, "reviews": 3, "place_id": "ChIJeR5tGPpXWEsRMRyQ3Prcu3c", "latitude": 45.0921917, "longitude": -64.3577255, "care_type": "Plastic Surgeon"}, {"name": "Bedford Skin Clinic", "address": "1083 Bedford Hwy Suite 201, Bedford, NS B4A 1B7", "city": "Bedford", "phone": "+1 902-876-8994", "website": "https://www.bedfordskinclinic.ca/", "rating": 4.7, "reviews": 83, "place_id": "ChIJfbDJq3QhWksR0oFVdGOSsDA", "latitude": 44.7191018, "longitude": -63.6733093, "care_type": "Plastic Surgeon"}, {"name": "Vista Plastic Surgery Centre", "address": "620 Nine Mile Dr #208, Bedford, NS B4A 0H4", "city": "Bedford", "phone": "+1 866-950-8180", "website": "", "rating": null, "reviews": 0, "place_id": "ChIJI897GduLWUsRyQI3RM-U0bM", "latitude": 44.7011069, "longitude": -63.6860928, "care_type": "Plastic Surgeon"}, {"name": "Bedford Skin Clinic-Halifax", "address": "397 Bedford Hwy Unit 301, Halifax, NS B3M 2C8", "city": "Halifax", "phone": "+1 902-876-8994", "website": "https://www.bedfordskinclinic.ca/", "rating": 5.0, "reviews": 2, "place_id": "ChIJCRvvBwYhWksR8LeeLW1lVRA", "latitude": 44.6842075, "longitude": -63.6603641, "care_type": "Plastic Surgeon"}, {"name": "First Impressions Medical Aesthetics & Rejuvenation Clinic", "address": "620 Nine Mile Dr, Bedford, NS B4A 0H4", "city": "Bedford", "phone": "+1 902-702-2727", "website": "http://www.firstimpressionsclinic.ca/", "rating": 4.6, "reviews": 50, "place_id": "ChIJ2UOnb7ZzhlQRUwAk3u6x4xM", "latitude": 44.7010501, "longitude": -63.6859958, "care_type": "Plastic Surgeon"}, {"name": "Sharief Aesthetics", "address": "660 Bedford Hwy #4, Halifax, NS B3M 0M5", "city": "Halifax", "phone": "+1 902-423-7919", "website": "https://shariefaesthetics.com/en/", "rating": 4.8, "reviews": 19, "place_id": "ChIJLwCpXuAjpEwRQJhuJkrb5F4", "latitude": 44.7014063, "longitude": -63.661485, "care_type": "Plastic Surgeon"}, {"name": "Valley Medical", "address": "Centennial Professional Centre, 81 Exhibition St, Kentville, NS B4N 1C2", "city": "Kentville", "phone": "+1 902-678-2121", "website": "http://www.vmedical.ca/", "rating": 4.9, "reviews": 41, "place_id": "ChIJeXWHpSZXWEsRcsjHhaEY8M0", "latitude": 45.0843456, "longitude": -64.4972828, "care_type": "Plastic Surgeon"}, {"name": "MARA Medical Aesthetics", "address": "318 Main St, Wolfville, NS B4P 1C4", "city": "Wolfville", "phone": "+1 902-678-9458", "website": "http://www.marawolfville.com/", "rating": 5.0, "reviews": 30, "place_id": "ChIJN86vFShXWEsR9FpohDAeQ0E", "latitude": 45.0921917, "longitude": -64.3577255, "care_type": "Plastic Surgeon"}, {"name": "The Treatment Room", "address": "33 Prince Arthur St, Amherst, NS B4H 1V7", "city": "Amherst", "phone": "", "website": "http://thetreatmentroomamherst.ca/", "rating": 4.9, "reviews": 34, "place_id": "ChIJ4ZDKwy5PX0sRWg1e3Y3-NHU", "latitude": 45.83331039999999, "longitude": -64.209456, "care_type": "Plastic Surgeon"}, {"name": "Dr. Louis Bourget", "address": "18 Acadia St, Dartmouth, NS B2Y 4H3", "city": "Dartmouth", "phone": "+1 902-334-0700", "website": "http://www.aosfrc.com/", "rating": 4.8, "reviews": 138, "place_id": "ChIJlTu4274jWksRdOsa8xkR8BE", "latitude": 44.656498, "longitude": -63.54593, "care_type": "Plastic Surgeon"}, {"name": "Atlantic Oral Surgery & Facial Reconstruction Centres", "address": "18 Acadia St, Dartmouth, NS B2Y 4H3", "city": "Dartmouth", "phone": "+1 902-334-0700", "website": "https://www.aosfrc.com/", "rating": 4.0, "reviews": 29, "place_id": "ChIJlTu4274jWksR_FZJPCKVs-o", "latitude": 44.6564369, "longitude": -63.5460739, "care_type": "Plastic Surgeon"}, {"name": "DerMedical Esthetics Inc", "address": "Millstone Square Floor 2, Door C, 250 Baker Dr suite 223, Dartmouth, NS B2W 6L4", "city": "Dartmouth", "phone": "+1 902-435-8614", "website": "http://dermedicalesthetics.ca/", "rating": 4.9, "reviews": 142, "place_id": "ChIJoY2tojQlWksRV-SkL4y6iZ4", "latitude": 44.6570846, "longitude": -63.530973, "care_type": "Plastic Surgeon"}, {"name": "The Skin Sanctum", "address": "300 Prince Albert Rd #202E, Dartmouth, NS B2Y 4J2", "city": "Dartmouth", "phone": "+1 778-385-9064", "website": "https://www.theskinsanctum.ca/", "rating": 5.0, "reviews": 40, "place_id": "ChIJ6ywVJp4jWksRn88kRTeogYA", "latitude": 44.6794216, "longitude": -63.5524504, "care_type": "Plastic Surgeon"}, {"name": "Petite Pastic", "address": "99 Wyse Rd Unit#1100, Dartmouth, NS B3A 4S5", "city": "Dartmouth", "phone": "+1 902-903-0627", "website": "", "rating": null, "reviews": 0, "place_id": "ChIJKbrjUn8hWksR-0cpVNYTI1c", "latitude": 44.6690534, "longitude": -63.5765902, "care_type": "Plastic Surgeon"}, {"name": "Laura Richey Esthetician", "address": "114 MacKay St, New Glasgow, NS B2H 3H7", "city": "New Glasgow", "phone": "+1 902-752-7312", "website": "http://lauraricheyesthetician.ca/", "rating": 5.0, "reviews": 8, "place_id": "ChIJAQA8Lk0ZXEsR9Gsc-Urp2Ng", "latitude": 45.5870538, "longitude": -62.6406462, "care_type": "Plastic Surgeon"}, {"name": "Truro Medi Spa", "address": "63 Queen St, Truro, NS B2N 2B2", "city": "Truro", "phone": "+1 902-893-7613", "website": "http://www.truromedispa.com/", "rating": 4.8, "reviews": 100, "place_id": "ChIJgyO6i8hPWUsRFBb-3QLrQHA", "latitude": 45.3668428, "longitude": -63.2833218, "care_type": "Plastic Surgeon"}, {"name": "ReDefined Aesthetics", "address": "911 Prince St, Truro, NS B2N 0E8", "city": "Truro", "phone": "+1 902-890-4326", "website": "https://www.redefinedaesthetics.ca/", "rating": 5.0, "reviews": 42, "place_id": "ChIJicjyZKZPWUsRShH0TE5dZWU", "latitude": 45.3645395, "longitude": -63.2739066, "care_type": "Plastic Surgeon"}]