[{"name": "Dr Bonnett Cosmetic Care", "address": "#301, 600 Princess St Unit 400, Woodstock, ON N4S 4H4", "city": "Woodstock", "phone": "+1 519-536-9709", "website": "https://www.drbonnettcosmetic.com/about-us/", "rating": 4.0, "reviews": 42, "place_id": "ChIJ81WYyhMfLIgRrqDhYgkV6y0", "latitude": 43.1321492, "longitude": -80.7522978, "care_type": "Plastic Surgeon"}, {"name": "Power Plastic Surgery", "address": "7 St Thomas St Suite 602, Toronto, ON M5S 2B7", "city": "Toronto", "phone": "+1 416-962-1010", "website": "http://www.powerplasticsurgery.com/", "rating": 4.6, "reviews": 234, "place_id": "ChIJIQDUzqY0K4gRtORlGldSU5s", "latitude": 43.6684867, "longitude": -79.3903733, "care_type": "Plastic Surgeon"}, {"name": "ICLS Plastic Surgery", "address": "1344 Cornwall Rd, Oakville, ON L6J 7W5", "city": "Oakville", "phone": "+1 905-842-2262", "website": "http://www.icls.ca/", "rating": 4.8, "reviews": 1058, "place_id": "ChIJjXif5LJcK4gRSpPIncd2Gzs", "latitude": 43.4735059, "longitude": -79.6631154, "care_type": "Plastic Surgeon"}, {"name": "Face Toronto", "address": "251 Davenport Rd, Toronto, ON M5R 1J6", "city": "Toronto", "phone": "+1 416-479-4244", "website": "https://www.facetoronto.com/", "rating": 4.4, "reviews": 193, "place_id": "ChIJcfumL700K4gRm5-R31KXFlQ", "latitude": 43.6743722, "longitude": -79.3976733, "care_type": "Plastic Surgeon"}, {"name": "Cosmedical Rejuvenation Clinic", "address": "10 York Mills Rd Suite 214, North York, ON M2P 2G4", "city": "CA", "phone": "+1 647-493-8177", "website": "https://cosmedical.ca/", "rating": 4.6, "reviews": 178, "place_id": "ChIJD8sAqJcyK4gRYK4mbTMNPzg", "latitude": 43.7446563, "longitude": -79.4061658, "care_type": "Plastic Surgeon"}, {"name": "Dr. Philip Solomon - Solomon Facial Plastic (Toronto Office)", "address": "305 Davenport Rd, Toronto, ON M5R 1K5", "city": "Toronto", "phone": "+1 416-864-6100", "website": "https://www.solomonfacialplastic.com/", "rating": 4.3, "reviews": 243, "place_id": "ChIJEcdAfTTL1IkR0HKK8ImcG94", "latitude": 43.6743545, "longitude": -79.4006325, "care_type": "Plastic Surgeon"}, {"name": "Visage Clinic", "address": "133 Hazelton Ave #101, Toronto, ON M5R 0A6", "city": "Toronto", "phone": "+1 416-929-9800", "website": "https://www.visageclinic.com/", "rating": 4.3, "reviews": 155, "place_id": "ChIJU2SE-c80K4gRVdu3N4qNGj0", "latitude": 43.6748915, "longitude": -79.3945742, "care_type": "Plastic Surgeon"}, {"name": "Dr. Cory Torgerson Facial Cosmetic Surgery & Laser Centre | Facelift \u2022 Blepharoplasty \u2022 Lip Filler \u2022 Rhinoplasty Toronto", "address": "59 Hayden St Suite 700, Toronto, ON M4Y 0E7", "city": "Toronto", "phone": "+1 647-343-0207", "website": "https://drtorgerson.com/", "rating": 4.8, "reviews": 447, "place_id": "ChIJlSz3d680K4gR54UMtX5a0SY", "latitude": 43.6698256, "longitude": -79.3838057, "care_type": "Plastic Surgeon"}, {"name": "La Fontaine Source De Jeunesse: Toronto Cosmetic Surgery Clinic", "address": "890A Yonge St, Toronto, ON M4W 3P4", "city": "Toronto", "phone": "+1 416-962-4444", "website": "https://torontocosmeticsurgeryclinic.com/", "rating": 3.9, "reviews": 101, "place_id": "ChIJC11mzq40K4gRLRXF_qPZ0JQ", "latitude": 43.6732952, "longitude": -79.3881696, "care_type": "Plastic Surgeon"}, {"name": "Dr. Ashlin Alexander", "address": "Lower Ground, 486 Front St W Unit 14, Toronto, ON M5V 0V2", "city": "Toronto", "phone": "+1 437-886-3828", "website": "https://www.ashlinalexander.com/%3Futm_source%3DGMBlisting%26utm_medium%3Dorganic%26utm_campaign%3Dgmb", "rating": 4.7, "reviews": 114, "place_id": "ChIJcfumL700K4gRIErEcH59QXs", "latitude": 43.6424635, "longitude": -79.39675319999999, "care_type": "Plastic Surgeon"}, {"name": "SpaMedica Plastic Surgery", "address": "66 Avenue Rd #4, Toronto, ON M5R 3N8", "city": "Toronto", "phone": "+1 647-490-6496", "website": "https://www.spamedica.com/", "rating": 3.8, "reviews": 31, "place_id": "ChIJsTQI86Q0K4gRtLv-1xldTR4", "latitude": 43.6713822, "longitude": -79.39568369999999, "care_type": "Plastic Surgeon"}, {"name": "SpaMedica Infinite Vitality Clinic Non-Surgical", "address": "66 Avenue Rd Lower Level, Toronto, ON M5R 3N8", "city": "Toronto", "phone": "+1 416-925-2561", "website": "https://www.spamedica.com/ns/about-us/", "rating": 4.3, "reviews": 210, "place_id": "ChIJARqs8aQ0K4gR-cWSPDdA_Dg", "latitude": 43.6714426, "longitude": -79.3956353, "care_type": "Plastic Surgeon"}, {"name": "Dr. Thomas Bell", "address": "66 Avenue Rd, Toronto, ON M5R 3N8", "city": "Toronto", "phone": "+1 647-490-6496", "website": "https://www.spamedica.com/doctor/dr-bell/", "rating": 4.4, "reviews": 13, "place_id": "ChIJIQDUzqY0K4gRk0oobwbF4Kk", "latitude": 43.6714372, "longitude": -79.3956082, "care_type": "Plastic Surgeon"}, {"name": "Snatched TO", "address": "500 Queens Quay W Unit #101, Toronto, ON M5V 3K8", "city": "Toronto", "phone": "+1 416-991-7098", "website": "https://snatchedto.com/%3Futm_source%3Dgoogle%26utm_medium%3Dorganic%26utm_campaign%3Dgmb", "rating": 4.9, "reviews": 90, "place_id": "ChIJ12h4u1I1K4gRmtArdadELqU", "latitude": 43.637639, "longitude": -79.395133, "care_type": "Plastic Surgeon"}, {"name": "The Plastic Surgery Clinic", "address": "67 Scollard St, Toronto, ON M5R 1G4", "city": "Toronto", "phone": "+1 833-460-0799", "website": "https://www.theplasticsurgeryclinic.ca/%3Futm_source%3DGoogle%2520My%2520Business%2520Toronto%26utm_medium%3Dorganic", "rating": 3.8, "reviews": 21, "place_id": "ChIJrxHvbq80K4gRk1kTN_wRPMM", "latitude": 43.6720158, "longitude": -79.3906822, "care_type": "Plastic Surgeon"}, {"name": "Eon Medical Spa", "address": "163 Sterling Rd Unit 117, Toronto, ON M6R 2B7", "city": "Toronto", "phone": "+1 416-723-5553", "website": "http://www.eonmedicalspa.com/", "rating": 4.7, "reviews": 128, "place_id": "ChIJIzrKapI0K4gRYTOyeWaZmqw", "latitude": 43.6543015, "longitude": -79.4442857, "care_type": "Plastic Surgeon"}, {"name": "Sovereign Male Wellness Clinic | TRT \u2022 Optimization & Enhancement \u2022 Sweating \u2022 Snoring Treatments \u2022 TRT Therapy Toronto", "address": "59 Hayden St Suite 705, Toronto, ON M4Y 0E7", "city": "Toronto", "phone": "+1 647-340-0061", "website": "https://sovereignmale.ca/", "rating": 4.8, "reviews": 38, "place_id": "ChIJTcgaLZY1K4gRc-uji5eMAMQ", "latitude": 43.6698256, "longitude": -79.3838057, "care_type": "Plastic Surgeon"}, {"name": "Baywood Clinic", "address": "1033 Bay St. suite 303, Toronto, ON M5S 3A5", "city": "Toronto", "phone": "+1 416-515-0007", "website": "https://baylaser.ca/", "rating": 4.6, "reviews": 112, "place_id": "ChIJg8Q6CrE0K4gRItiNOaDR3GY", "latitude": 43.666027, "longitude": -79.3874909, "care_type": "Plastic Surgeon"}, {"name": "Clinic 360", "address": "1131A Leslie St #300, North York, ON M3C 3L8", "city": "North York", "phone": "+1 416-360-7360", "website": "https://www.clinic360.com/%3Futm_source%3Dgmb%26utm_medium%3Dorganic%26utm_campaign%3Dlocal", "rating": 4.7, "reviews": 114, "place_id": "ChIJCa81nhHN1IkRHzkCSrLPA8k", "latitude": 43.7259809, "longitude": -79.3491129, "care_type": "Plastic Surgeon"}, {"name": "Dr. Colin Hong Plastic Surgeon", "address": "302 Sheppard Ave W, North York, ON M2N 1N5", "city": "North York", "phone": "+1 416-222-6986", "website": "https://www.drcolinhong.com/", "rating": 3.4, "reviews": 179, "place_id": "ChIJ9S6BHIAtK4gRrb38Vc0hnlw", "latitude": 43.7584737, "longitude": -79.4258351, "care_type": "Plastic Surgeon"}, {"name": "Toronto Dermatology Centre", "address": "4256 Bathurst St #400, Toronto, ON M3H 5Y8", "city": "Toronto", "phone": "+1 416-633-0001", "website": "http://www.torontodermatologycentre.com/", "rating": 4.0, "reviews": 0, "place_id": "ChIJGYLZZXAyK4gR75HAFtEWs9M", "latitude": 43.7511004, "longitude": -79.4377287, "care_type": "Plastic Surgeon"}, {"name": "Canadian Dermatology Centre", "address": "1390 Don Mills Rd. D101, Toronto, ON M3B 0A7", "city": "Toronto", "phone": "+1 416-244-8377", "website": "https://canadiandermatology.com/%3Futm_source%3Dgoogle%26utm_medium%3Dorganic%26utm_campaign%3Dgmb-site", "rating": 4.5, "reviews": 1429, "place_id": "ChIJRZwJ-sfN1IkRzvyUSGw05Yw", "latitude": 43.7484766, "longitude": -79.3468637, "care_type": "Plastic Surgeon"}, {"name": "North Medical Spa", "address": "569 King St E, Toronto, ON M5A 1M5", "city": "Toronto", "phone": "+1 416-901-6672", "website": "https://northmedicalspa.com/", "rating": 4.8, "reviews": 322, "place_id": "ChIJAQDQUBXL1IkR4H7IhpG2AA4", "latitude": 43.6558491, "longitude": -79.3574241, "care_type": "Plastic Surgeon"}, {"name": "Dr David Boudana | Toronto Plastic Surgeon | Breast Augmentation in Toronto, Abdominoplasty / Tummy Tuck | Cosmetic Surgery", "address": "1188 B Eglinton Ave W, Toronto, ON M6C 2E3", "city": "Toronto", "phone": "+1 416-785-7864", "website": "https://drdavidboudana.com/", "rating": 5.0, "reviews": 70, "place_id": "ChIJM6MsVIYlyUwR4U9bDmHpeAI", "latitude": 43.6995654, "longitude": -79.4335653, "care_type": "Plastic Surgeon"}, {"name": "Toronto Gynecomastia Center", "address": "2920 Dufferin St Suite 201, Toronto, ON M6B 3S8", "city": "Toronto", "phone": "+1 416-577-1746", "website": "https://torontogynecomastia.com/", "rating": 5.0, "reviews": 2, "place_id": "ChIJTTt3fO0zK4gR3tnp7cIkBM4", "latitude": 43.7085306, "longitude": -79.4540284, "care_type": "Plastic Surgeon"}, {"name": "Toronto Plastic Surgeons Wellness Centre", "address": "66 Avenue Rd #4, Toronto, ON M5R 3N8", "city": "Toronto", "phone": "+1 647-370-0563", "website": "https://torontoplasticsurgeon.com/", "rating": 5.0, "reviews": 9, "place_id": "ChIJY8qPeu81K4gR56ZMaYBmXH8", "latitude": 43.6713822, "longitude": -79.39568369999999, "care_type": "Plastic Surgeon"}, {"name": "Toronto Cosmetic Surgery Institute", "address": "100 Front St W, Toronto, ON M5J 1E6", "city": "Toronto", "phone": "+1 647-360-1975", "website": "https://torontosurgery.com/", "rating": 4.9, "reviews": 394, "place_id": "ChIJ8VgPP9M0K4gRqeBjp--aoQs", "latitude": 43.645981, "longitude": -79.38081199999999, "care_type": "Plastic Surgeon"}, {"name": "Dr. Lawrence Tong: Yorkville Institute of Plastic Surgery", "address": "7 St Thomas St Suite 507, Toronto, ON M5S 2B7", "city": "Toronto", "phone": "+1 416-972-0999", "website": "https://www.myplasticsurgerytoronto.com/%3Futm_source%3Dgooglemybusiness%26utm_medium%3Dorganic%26utm_campaign%3Dtoronto", "rating": 4.8, "reviews": 200, "place_id": "ChIJEwCmzqY0K4gRo8zmmkgmTfw", "latitude": 43.6684867, "longitude": -79.3903733, "care_type": "Plastic Surgeon"}, {"name": "FORM Face + Body Toronto Plastic Surgery, Med Spa & Hair Transplant", "address": "20 Wynford Dr Suite 316, Toronto, ON M3C 1J4", "city": "Toronto", "phone": "+1 647-424-0046", "website": "http://formfacebody.ca/%3Futm_source%3DGBP%26utm_medium%3DGBP%26utm_campaign%3DGBP_Toronto%26utm_id%3DGBP_Toronto", "rating": 4.9, "reviews": 460, "place_id": "ChIJ9b8KdrY0K4gRjfRVEJgpsCo", "latitude": 43.7239064, "longitude": -79.3362581, "care_type": "Plastic Surgeon"}, {"name": "Dr Chad Wu, Plastic Surgeon in Toronto | Breast Augmentation, Blepharoplasty, Tummy tuck, Labiaplasty", "address": "600 Sherbourne St Suite 802, Toronto, ON M4X 1W4", "city": "Toronto", "phone": "+1 647-957-7688", "website": "http://drwuplasticsurgery.com/", "rating": 4.7, "reviews": 87, "place_id": "ChIJ3VNgcBDd3IARMq1pLffKO3M", "latitude": 43.6716531, "longitude": -79.37684159999999, "care_type": "Plastic Surgeon"}, {"name": "Canadian Plastic Surgery Centre - Toronto Location", "address": "16 Mallard Rd Suite A301, North York, ON M3B 0A7", "city": "CA", "phone": "+1 437-523-4196", "website": "https://www.canadiansurgery.com/", "rating": 5.0, "reviews": 43, "place_id": "ChIJtcCjIfTN1IkRWJ2BdrrZN7g", "latitude": 43.7483048, "longitude": -79.3485798, "care_type": "Plastic Surgeon"}, {"name": "Grand Genesis Plastic Surgery", "address": "9080 Yonge St Unit 12, 2nd Floor, Richmond Hill, ON L4C 0Y7", "city": "Richmond Hill", "phone": "+1 437-833-1959", "website": "http://www.grandgenesisplasticsurgery.ca/", "rating": 4.2, "reviews": 35, "place_id": "ChIJ1d7zqLYrK4gRgdh9bVCOCz8", "latitude": 43.8486559, "longitude": -79.4322801, "care_type": "Plastic Surgeon"}, {"name": "Dr. Kreidstein Cosmetic Plastic Surgery", "address": "300 York Mills Rd #211, North York, ON M2L 2Y5", "city": "North York", "phone": "+1 416-391-4452", "website": "https://www.drkreidstein.com/contact/", "rating": 4.8, "reviews": 175, "place_id": "ChIJ4eArGKwyK4gR-nglxPUQGuI", "latitude": 43.7482935, "longitude": -79.3850653, "care_type": "Plastic Surgeon"}, {"name": "Yorkville Plastic Surgery Centre", "address": "66 Avenue Rd Suite #1, Toronto, ON M5R 3N8", "city": "Toronto", "phone": "+1 416-922-4513", "website": "http://www.yorkvilleplastisurgerycentre.com/", "rating": 5.0, "reviews": 4, "place_id": "ChIJm9OqQ0o1K4gR1wK7E6l_k_s", "latitude": 43.6713288, "longitude": -79.395608, "care_type": "Plastic Surgeon"}, {"name": "Stratford Plastic Surgery", "address": "342 Erie St #101, Stratford, ON N5A 2N4", "city": "Stratford", "phone": "+1 519-271-6711", "website": "http://www.stratfordplasticsurgery.ca/", "rating": 5.0, "reviews": 10, "place_id": "ChIJmcWlzyizLogRKx_Ed797g3c", "latitude": 43.3636602, "longitude": -80.989638, "care_type": "Plastic Surgeon"}, {"name": "Dr. Nicholas Stone MD, FRCSC (Hand & Reconstructive Surgery)", "address": "378 Huron St Unit B, Stratford, ON N5A 5T5", "city": "Stratford", "phone": "+1 519-513-4020", "website": "", "rating": 4.8, "reviews": 16, "place_id": "ChIJ-7xUa2GzLogRjcxsziMq6Es", "latitude": 43.3781987, "longitude": -80.99648409999999, "care_type": "Plastic Surgeon"}, {"name": "Dr Graham Heaton", "address": "378 Huron St, Stratford, ON N5A 5T5", "city": "Stratford", "phone": "+1 519-305-3550", "website": "http://www.heatonhealth.com/", "rating": 4.1, "reviews": 19, "place_id": "ChIJay9Ujw-yLogRY5uN1lfOkx0", "latitude": 43.3781987, "longitude": -80.99648409999999, "care_type": "Plastic Surgeon"}, {"name": "GraceMed Kitchener", "address": "150 Edna St, Kitchener, ON N2H 6S1", "city": "Kitchener", "phone": "+1 519-744-1533", "website": "https://www.gracemed.com/clinics/gracemed-kitchener/%3Futm_source%3Dgoogle-business-profile%26utm_medium%3Dorganic%26utm_campaign%3Dlocal-seo", "rating": 5.0, "reviews": 100, "place_id": "ChIJrwSTjLz0K4gRc8_DHNLzIzs", "latitude": 43.4578517, "longitude": -80.47212379999999, "care_type": "Plastic Surgeon"}, {"name": "Dr. Atiyah Plastic Surgery", "address": "535 Park St Suite 505, Kitchener, ON N2G 0C7", "city": "Kitchener", "phone": "+1 519-513-2722", "website": "https://dratiyahplasticsurgery.ca/", "rating": 4.4, "reviews": 7, "place_id": "ChIJbWniBV_1K4gR-szu3INmVCM", "latitude": 43.4562961, "longitude": -80.51566009999999, "care_type": "Plastic Surgeon"}, {"name": "The Cosmetic Surgery Clinic", "address": "50 Albert St, Waterloo, ON N2L 3S2", "city": "Waterloo", "phone": "+1 519-746-1132", "website": "https://www.thecosmeticsurgeryclinic.ca/%3Futm_source%3Dgoogle%26utm_medium%3Dlocal%26utm_campaign%3Dwaterloo-practice-website", "rating": 4.7, "reviews": 175, "place_id": "ChIJjX32qg30K4gRBLk-AeulzRY", "latitude": 43.4669234, "longitude": -80.5244317, "care_type": "Plastic Surgeon"}, {"name": "Dr Peter Evans", "address": "737 King St W, Kitchener, ON N2G 1E6", "city": "Kitchener", "phone": "+1 519-578-1320", "website": "", "rating": 4.3, "reviews": 31, "place_id": "ChIJ8534GGf0K4gRFE1MZ9ofiBU", "latitude": 43.4552499, "longitude": -80.506648, "care_type": "Plastic Surgeon"}, {"name": "Toronto Minor Surgery Center - TMSC", "address": "2920 Dufferin St Suite 202, North York, ON M6B 3S8", "city": "North York", "phone": "+1 647-614-1611", "website": "http://theminorsurgerycenter.com/", "rating": 4.8, "reviews": 510, "place_id": "ChIJKbKTTzAzK4gREkh66Zl4z5g", "latitude": 43.7085853, "longitude": -79.4539964, "care_type": "Plastic Surgeon"}, {"name": "Dr. Robert Shenker", "address": "50 Albert St, Waterloo, ON N2L 3S2", "city": "Waterloo", "phone": "+1 519-746-1132", "website": "https://www.thecosmeticsurgeryclinic.ca/about/dr-robert-shenker/%3Futm_source%3Dgoogle%26utm_medium%3Dlocal%26utm_campaign%3Dwaterloo-shenker-website", "rating": 4.3, "reviews": 34, "place_id": "ChIJb4raqw30K4gROtrQzCPR-XI", "latitude": 43.4669241, "longitude": -80.52442359999999, "care_type": "Plastic Surgeon"}, {"name": "SpaSurgica", "address": "135 Erb St E #100, Waterloo, ON N2J 1M3", "city": "Waterloo", "phone": "+1 226-909-0941", "website": "https://spasurgica.com/%3Futm_source%3DGMBlisting%26utm_medium%3Dorganic%26utm_campaign%3Dgmb", "rating": 3.9, "reviews": 84, "place_id": "ChIJ5Xn-bXH0K4gRH8R3VWuYfQs", "latitude": 43.4668212, "longitude": -80.51473039999999, "care_type": "Plastic Surgeon"}, {"name": "Dr. Stephanie Ma", "address": "50 Albert St, Waterloo, ON N2L 3S2", "city": "Waterloo", "phone": "+1 519-746-1132", "website": "https://www.thecosmeticsurgeryclinic.ca/about/dr-stephanie-ma/%3Futm_source%3Dgoogle%26utm_medium%3Dlocal%26utm_campaign%3Dwaterloo-ma-website", "rating": 4.4, "reviews": 21, "place_id": "ChIJjX32qg30K4gRmtnp5f-CyNs", "latitude": 43.4668961, "longitude": -80.52451479999999, "care_type": "Plastic Surgeon"}, {"name": "The Plastic Surgery Clinic", "address": "1421 Hurontario St, Mississauga, ON L5G 3H5", "city": "Mississauga", "phone": "+1 833-460-0799", "website": "https://www.theplasticsurgeryclinic.ca/%3Futm_source%3DGoogle%2520My%2520Business%2520Mississauga%26utm_medium%3Dorganic", "rating": 4.3, "reviews": 166, "place_id": "ChIJwYW_EGhGK4gRVZqj5tY2UIM", "latitude": 43.5638038, "longitude": -79.5927686, "care_type": "Plastic Surgeon"}, {"name": "Enhanced-KW", "address": "10 Tecumseh Crescent, Kitchener, ON N2B 2T4", "city": "Kitchener", "phone": "+1 905-325-9196", "website": "https://www.enhanced-kw.com/", "rating": 4.8, "reviews": 60, "place_id": "ChIJMZi3xc2LK4gRQ8KGBbdI5Tk", "latitude": 43.4577037, "longitude": -80.4421569, "care_type": "Plastic Surgeon"}, {"name": "Dr. Tola Overduin", "address": "944 Queen's Blvd, Kitchener, ON N2M 1B4", "city": "Kitchener", "phone": "+1 519-880-4485", "website": "https://drtolaoverduin.ca/", "rating": 2.8, "reviews": 20, "place_id": "ChIJZ9lUvdv1K4gROsSCpmPMK94", "latitude": 43.4384106, "longitude": -80.50214419999999, "care_type": "Plastic Surgeon"}, {"name": "Dr. Claudio DeLorenzi", "address": "150 Edna St, Kitchener, ON N2H 6S1", "city": "Kitchener", "phone": "+1 519-570-2811", "website": "http://delorenzi.ca/about/dr-delorenzi", "rating": 3.7, "reviews": 3, "place_id": "ChIJkwIMSWf0K4gR7nh0JTMUJ2o", "latitude": 43.4578984, "longitude": -80.4721519, "care_type": "Plastic Surgeon"}, {"name": "Windsor Plastic Surgery", "address": "2224 Walker Rd #202, Windsor, ON N8W 5L7", "city": "Windsor", "phone": "+1 519-254-2676", "website": "https://www.windsorplasticsurgery.ca/", "rating": 3.2, "reviews": 39, "place_id": "ChIJAfdyx61bXEAReSbBjEl5610", "latitude": 42.301373, "longitude": -82.9922327, "care_type": "Plastic Surgeon"}, {"name": "Bray Peter", "address": "66 Avenue Rd Upper level, Toronto, ON M5R 3N8", "city": "Toronto", "phone": "+1 416-323-1330", "website": "http://cosmeticplasticsurgerytoronto.ca/", "rating": 4.9, "reviews": 34, "place_id": "ChIJzw4pyqY0K4gRmDvzRqsXiLE", "latitude": 43.6714372, "longitude": -79.3956082, "care_type": "Plastic Surgeon"}, {"name": "Hackett Plastic Surgery", "address": "6160 Tecumseh Rd E #203, Windsor, ON N8T 1E6", "city": "Windsor", "phone": "+1 226-674-4120", "website": "https://hackettsurgery.ca/", "rating": 5.0, "reviews": 10, "place_id": "ChIJL_0zqYkrO4gRLY1nZohaT-A", "latitude": 42.3111369, "longitude": -82.95116709999999, "care_type": "Plastic Surgeon"}, {"name": "Dr. Bray Plastic Surgery and MedSpa", "address": "40 Amy Croft Dr, Tecumseh, ON N9K 1G4", "city": "Tecumseh", "phone": "+1 519-727-1010", "website": "http://cosmeticplasticsurgerytoronto.ca/", "rating": 4.7, "reviews": 3, "place_id": "ChIJ-VZvBzPUKogRHwT-iwMCh6o", "latitude": 42.3074535, "longitude": -82.8646512, "care_type": "Plastic Surgeon"}, {"name": "Dr. Matthew J. Laschuk MD, FRCSC, FACS", "address": "2425 Tecumseh Rd E #214, Windsor, ON N8W 1E6", "city": "Windsor", "phone": "+1 519-419-1746", "website": "", "rating": 5.0, "reviews": 18, "place_id": "ChIJVxjr7AorO4gRk0-Cgnxx5ao", "latitude": 42.3022285, "longitude": -82.9927819, "care_type": "Plastic Surgeon"}, {"name": "Dr. Mike Roskies", "address": "66 Avenue Rd #1, Toronto, ON M5R 3N8", "city": "Toronto", "phone": "+1 416-922-4513", "website": "https://drmikeroskies.com/%3Futm_source%3Dgoogle%26utm_medium%3Dorganic%26utm_campaign%3Dgbp", "rating": 4.7, "reviews": 130, "place_id": "ChIJd691U-01K4gRH22qCMUrpk8", "latitude": 43.6713288, "longitude": -79.395608, "care_type": "Plastic Surgeon"}, {"name": "Medical Cosmetics Patrick Xavier Smith, MD", "address": "7875 Riverside Dr E, Windsor, ON N8S 1E1", "city": "Windsor", "phone": "+1 519-819-1119", "website": "https://www.pxsmithmd.com/", "rating": 4.8, "reviews": 98, "place_id": "ChIJP92_W9MqO4gRrG_OMzZ-vxM", "latitude": 42.3394283, "longitude": -82.9481811, "care_type": "Plastic Surgeon"}, {"name": "Dr. Deans", "address": "1270 Walker Rd, Windsor, ON N8Y 4T4", "city": "Windsor", "phone": "+1 519-256-9333", "website": "http://robindeans.com/", "rating": 3.2, "reviews": 35, "place_id": "ChIJiy-8mpksO4gRRdLk64gQRx0", "latitude": 42.3145876, "longitude": -83.0017044, "care_type": "Plastic Surgeon"}, {"name": "Cicatrix Optima", "address": "1720 Howard Ave, Windsor, ON N8X 5A6", "city": "Windsor", "phone": "+1 519-971-0971", "website": "", "rating": 5.0, "reviews": 3, "place_id": "ChIJ-Z8peF8sO4gRzkZwVZRJqf8", "latitude": 42.298908, "longitude": -83.0168758, "care_type": "Plastic Surgeon"}, {"name": "Dr. Cory S. Goldberg", "address": "190 Sherway Dr #401, Etobicoke, ON M9C 5N2", "city": "CA", "phone": "+1 416-907-5810", "website": "https://www.corygoldbergmd.com/", "rating": 4.5, "reviews": 195, "place_id": "ChIJiRLw_wdIK4gRSiVSh9XW_Bo", "latitude": 43.60871789999999, "longitude": -79.56033649999999, "care_type": "Plastic Surgeon"}, {"name": "Joelle Aesthetics", "address": "2176 Marentette Ave, Windsor, ON N8X 4E7", "city": "Windsor", "phone": "+1 519-992-3703", "website": "https://www.facebook.com/Joelle.Aesthetics/", "rating": 5.0, "reviews": 13, "place_id": "ChIJA1VaA7MtO4gRSep_WNV6Uh0", "latitude": 42.2979352, "longitude": -83.01261579999999, "care_type": "Plastic Surgeon"}, {"name": "SKNN Med Spa", "address": "973 Erie St E, Windsor, ON N8Y 2K2", "city": "Windsor", "phone": "+1 226-547-2238", "website": "https://sknnmedspa.janeapp.com/", "rating": 4.9, "reviews": 43, "place_id": "ChIJ7a-h5LEtO4gRAEKki7NNhTc", "latitude": 42.3138142, "longitude": -83.0195749, "care_type": "Plastic Surgeon"}, {"name": "Art of San Beauty", "address": "122 Laird Dr unit 204, East York, ON M4G 3V3", "city": "East York", "phone": "+1 647-945-3654", "website": "http://www.artofsan.com/", "rating": 5.0, "reviews": 59, "place_id": "ChIJUX_avgLN1IkR0aR2eDVsBgs", "latitude": 43.7068755, "longitude": -79.3625222, "care_type": "Plastic Surgeon"}, {"name": "B at the Top Medical Aesthetics", "address": "1083 Ouellette Ave 4th Floor, Windsor, ON N9A 4J8", "city": "Windsor", "phone": "+1 519-915-4514", "website": "https://batthetop.com/", "rating": 4.8, "reviews": 64, "place_id": "ChIJmXBuLiMtO4gR_zBXsAeGJ-0", "latitude": 42.3072852, "longitude": -83.0328593, "care_type": "Plastic Surgeon"}, {"name": "Gleam Beauty Clinic", "address": "250 Tecumseh Rd E #130, Windsor, ON N8X 2R3", "city": "Windsor", "phone": "+1 226-246-7816", "website": "https://www.gleambeautyclinic.ca/", "rating": 4.9, "reviews": 104, "place_id": "ChIJZ6UTQWQtO4gRYnPEv-L-PKo", "latitude": 42.2977845, "longitude": -83.02237679999999, "care_type": "Plastic Surgeon"}, {"name": "Cosmetica Skincare", "address": "Jackson Park Health Center, 2475 McDougall St suite : 101, Windsor, ON N8X 3N9", "city": "Windsor", "phone": "+1 226-260-6183", "website": "http://www.cosmetica-skincare.com/", "rating": 4.9, "reviews": 100, "place_id": "ChIJu6OfIt0tO4gRTrjy6LXbwPE", "latitude": 42.2888301, "longitude": -83.0183337, "care_type": "Plastic Surgeon"}, {"name": "HealthLocal", "address": "At Summer Hill Subway, 1246 Yonge St #204, Toronto, ON M4T 1W5", "city": "Toronto", "phone": "+1 877-310-1426", "website": "http://www.health-local.com/", "rating": 5.0, "reviews": 1, "place_id": "ChIJOzxsD600K4gRkHb7oOBH3gQ", "latitude": 43.6831316, "longitude": -79.3922462, "care_type": "Plastic Surgeon"}, {"name": "Dr. Jerry K.L. Tan", "address": "2224 Walker Rd Suite 300, Windsor, ON N8W 5L7", "city": "Windsor", "phone": "+1 519-971-8874", "website": "http://healthyimage.ca/", "rating": 3.8, "reviews": 72, "place_id": "ChIJb2y80H8rO4gR3t90YzQ2JnM", "latitude": 42.30146389999999, "longitude": -82.9918452, "care_type": "Plastic Surgeon"}, {"name": "Laser Wrinkle Ctr", "address": "1270 Walker Rd, Windsor, ON N8Y 4T4", "city": "Windsor", "phone": "+1 519-256-2756", "website": "", "rating": null, "reviews": 0, "place_id": "ChIJjUK8mpksO4gRH-bw858_suU", "latitude": 42.3145539, "longitude": -83.0015447, "care_type": "Plastic Surgeon"}, {"name": "The Centre for Personal Surgery: Dr. Otto Weiglein", "address": "520 Locust St, Burlington, ON L7S 1V2", "city": "Burlington", "phone": "+1 905-634-5573", "website": "https://www.cosmedicasurgery.com/", "rating": 3.7, "reviews": 20, "place_id": "ChIJKyMyoiSeLIgRtXPn9uzAirg", "latitude": 43.3265728, "longitude": -79.8014317, "care_type": "Plastic Surgeon"}, {"name": "Eclipse Cosmetic & Laser Centre", "address": "380 Pelissier St, Windsor, ON N9A 6W8", "city": "Windsor", "phone": "+1 519-974-4358", "website": "http://eclipsecentre.ca/", "rating": 3.4, "reviews": 0, "place_id": "ChIJKUe0jB4tO4gRT7cL_Bt96eM", "latitude": 42.3164846, "longitude": -83.03920339999999, "care_type": "Plastic Surgeon"}, {"name": "Healthy Image", "address": "2224 Walker Rd Suite 300B, Windsor, ON N8W 5L7", "city": "Windsor", "phone": "+1 519-971-9542", "website": "http://www.healthyimage.ca/", "rating": 4.6, "reviews": 0, "place_id": "ChIJb2y80H8rO4gRYP6P-hHksJY", "latitude": 42.3012926, "longitude": -82.99230879999999, "care_type": "Plastic Surgeon"}, {"name": "Dr christopher Blue", "address": "1083 Ouellette Ave, Windsor, ON N9A 4J8", "city": "Windsor", "phone": "+1 519-915-7125", "website": "https://bmedicalcenter.com/about/dr-christopher-blue/", "rating": 3.2, "reviews": 9, "place_id": "ChIJbR_VUgstO4gRcN-MH_LRghA", "latitude": 42.3072852, "longitude": -83.0328593, "care_type": "Plastic Surgeon"}, {"name": "FOCUS ON HAIR AND SKIN CLINIC", "address": "525 Windsor Ave Suite 100, Windsor, ON N9A 1J4", "city": "Windsor", "phone": "+1 226-674-0555", "website": "http://focusclinic.ca/", "rating": 4.3, "reviews": 0, "place_id": "ChIJVb9ejGMtO4gR26am2BMcY8w", "latitude": 42.3157211, "longitude": -83.0347579, "care_type": "Plastic Surgeon"}, {"name": "Oakville Plastic Surgery & Medspa", "address": "1495 Cornwall Rd #31, Oakville, ON L6J 0B2", "city": "Oakville", "phone": "+1 905-901-9545", "website": "https://drdekleer.ca/", "rating": 4.1, "reviews": 99, "place_id": "ChIJc3RfQ1JDK4gR4XMGN-5StjA", "latitude": 43.4783786, "longitude": -79.659857, "care_type": "Plastic Surgeon"}, {"name": "Dr. Rodger Shortt (Plastic Surgeon, Frcsc)", "address": "406 North Service Rd E #1, Oakville, ON L6H 5R2", "city": "Oakville", "phone": "+1 905-849-4282", "website": "http://drshortt.com/", "rating": 4.9, "reviews": 98, "place_id": "ChIJixFowcRcK4gRUC4ynxo1Ghs", "latitude": 43.4643352, "longitude": -79.6828791, "care_type": "Plastic Surgeon"}, {"name": "GraceMed Midtown (Briarwood) Oakville", "address": "406 North Service Rd E #1, Oakville, ON L6H 5R2", "city": "Oakville", "phone": "+1 647-492-0503", "website": "https://www.gracemed.com/clinics/gracemed-midtown-brairwood-oakville/%3Futm_source%3Dgoogle-business-profile%26utm_medium%3Dorganic%26utm_campaign%3Dlocal-seo", "rating": 4.7, "reviews": 50, "place_id": "ChIJVXXT28RcK4gRZVj9jC7Fd6E", "latitude": 43.4643352, "longitude": -79.6828791, "care_type": "Plastic Surgeon"}, {"name": "Verso Surgery Centre | Toronto's Top Rated Plastic Surgery Centre", "address": "1148 Winston Churchill Blvd b4, Oakville, ON L6J 0A3", "city": "Oakville", "phone": "+1 905-849-7560", "website": "http://versosurgerycentre.com/", "rating": 4.7, "reviews": 135, "place_id": "ChIJv7i1e2JDK4gRmuy_Z2wLlP0", "latitude": 43.4993625, "longitude": -79.6514299, "care_type": "Plastic Surgeon"}, {"name": "The Minor Surgery Center - TMSC", "address": "3075 Hospital Gate Unit 109, Oakville, ON L6M 1M1", "city": "Oakville", "phone": "+1 647-614-1611", "website": "https://www.theminorsurgerycenter.com/", "rating": 4.9, "reviews": 250, "place_id": "ChIJYzUPB81nK4gR3SduI-hByy4", "latitude": 43.44955, "longitude": -79.76674, "care_type": "Plastic Surgeon"}, {"name": "Rejuvenation Dermatology Clinic Oakville", "address": "2295 Bristol Cir Unit 101, Oakville, ON L6H 6P8", "city": "Oakville", "phone": "+1 416-577-8359", "website": "https://oakville.rejuv.ca/", "rating": 4.7, "reviews": 1451, "place_id": "ChIJ2dzIdF9DK4gRsrBQtP43d0I", "latitude": 43.5163682, "longitude": -79.67432939999999, "care_type": "Plastic Surgeon"}, {"name": "Toronto Plastic Surgery Center: Dr. Asif Pirani / Breast Augmentation / Facelift / Tummy Tuck / Botox / Eyelid Surgery", "address": "2 Bloor St W Suite 2203, Toronto, ON M4W 3E2", "city": "Toronto", "phone": "+1 416-360-8772", "website": "https://www.drpirani.com/", "rating": 4.7, "reviews": 168, "place_id": "ChIJCVmfzqY0K4gRNxk0oAfoE6k", "latitude": 43.6703346, "longitude": -79.3872583, "care_type": "Plastic Surgeon"}, {"name": "Oakville Skin and Dermatology at ICLS", "address": "1344 Cornwall Rd, Oakville, ON L6J 7W5", "city": "Oakville", "phone": "+1 647-584-0143", "website": "https://www.oakvilleskin.com/%3Futm_campaign%3Dgmb", "rating": 4.7, "reviews": 51, "place_id": "ChIJtVUD8rJcK4gR6k-pwW9EB-8", "latitude": 43.4735287, "longitude": -79.6635034, "care_type": "Plastic Surgeon"}, {"name": "Dr. Lauren Willoughby, MD FRCSC", "address": "2525 Old Bronte Rd Suite 560, Oakville, ON L6M 0R4", "city": "Oakville", "phone": "+1 289-386-3625", "website": "http://www.drwilloughby.ca/", "rating": 4.5, "reviews": 40, "place_id": "ChIJN2V0zd5nK4gR5V5hs29qitk", "latitude": 43.4356555, "longitude": -79.7755931, "care_type": "Plastic Surgeon"}, {"name": "Dr. Serge Goekjian, MD, FRCSC", "address": "2525 Old Bronte Rd Suite 560, Oakville, ON L6M 0R4", "city": "Oakville", "phone": "+1 289-386-3636", "website": "http://www.drgoekjian.com/", "rating": 4.6, "reviews": 22, "place_id": "ChIJGV50ay1nK4gRlELAe8gPGak", "latitude": 43.4356555, "longitude": -79.7755931, "care_type": "Plastic Surgeon"}, {"name": "Chazah Cosmetic Clinic", "address": "710 Dorval Dr Suite 205, Oakville, ON L6K 3V7", "city": "Oakville", "phone": "+1 416-880-6692", "website": "https://chazahcosmeticclinic.com/", "rating": 4.9, "reviews": 59, "place_id": "ChIJGXA8o-pdK4gRYoZIJ0pgYw0", "latitude": 43.4436067, "longitude": -79.6978281, "care_type": "Plastic Surgeon"}, {"name": "Dr. Noor Alolabi, MD, FRCSC", "address": "2525 Old Bronte Rd Suite 560, Oakville, ON L6M 0R4", "city": "Oakville", "phone": "+1 289-386-3636", "website": "http://drnalolabi.com/", "rating": 5.0, "reviews": 18, "place_id": "ChIJCcWRe45nK4gRpS-h2HjAPog", "latitude": 43.4356555, "longitude": -79.7755931, "care_type": "Plastic Surgeon"}, {"name": "Dr. Jack Kolenda", "address": "1148 Winston Churchill Blvd b4, Oakville, ON L6J 0A3", "city": "Oakville", "phone": "+1 905-849-7560", "website": "http://www.versosurgery.ca/", "rating": 4.1, "reviews": 45, "place_id": "ChIJSfZB_pFcK4gRj6AvvgwVH0Y", "latitude": 43.4994017, "longitude": -79.6512717, "care_type": "Plastic Surgeon"}, {"name": "My Plastic Surgeon", "address": "1243 Islington Ave. #707, Etobicoke, ON M8X 1Y9", "city": "CA", "phone": "+1 416-639-5772", "website": "https://www.myplasticsurgeon.ca/", "rating": 4.2, "reviews": 57, "place_id": "ChIJzw4pyqY0K4gRxpX5uj4_nqw", "latitude": 43.6457576, "longitude": -79.5236171, "care_type": "Plastic Surgeon"}, {"name": "Dr. Roberto Tutino - Plastic & Reconstructive Surgeon", "address": "178 Burnhamthorpe Rd, Toronto, ON M9A 1H6", "city": "Toronto", "phone": "+1 416-577-1746", "website": "https://www.versosurgery.ca/", "rating": 4.8, "reviews": 32, "place_id": "ChIJG-OZNf1HK4gRT4_Et4NtFzg", "latitude": 43.65061, "longitude": -79.53777, "care_type": "Plastic Surgeon"}, {"name": "GraceMed Kerr Village Oakville", "address": "135 Brant St, Oakville, ON L6K 2Z8", "city": "Oakville", "phone": "+1 905-338-5777", "website": "https://www.gracemed.com/clinics/gracemed-kerr-village-oakville/%3Futm_source%3Dgoogle-business-profile%26utm_medium%3Dorganic%26utm_campaign%3Dlocal-seo", "rating": 5.0, "reviews": 106, "place_id": "ChIJL3H8cJFcK4gR6CI_NRDqT5c", "latitude": 43.4399099, "longitude": -79.6768748, "care_type": "Plastic Surgeon"}, {"name": "Richmond Hill Cosmetic Clinic", "address": "10376 Yonge St, Richmond Hill, ON L4C 3B8", "city": "Richmond Hill", "phone": "+1 416-890-0024", "website": "http://www.rhcosmeticclinic.ca/", "rating": 4.7, "reviews": 30, "place_id": "ChIJkbsCdE4qK4gRSvasIu_Xif0", "latitude": 43.8804148, "longitude": -79.4399645, "care_type": "Plastic Surgeon"}, {"name": "Valespring Cosmetic Surgery Institute", "address": "9955 Yonge St Unit 101, Richmond Hill, ON L4C 9M6", "city": "Richmond Hill", "phone": "+1 905-884-6998", "website": "https://valespring.ca/%3Futm_source%3Dgoogle%26utm_medium%3Dorganic%26utm_campaign%3Dlocal%26utm_content%3DRichmondHillON", "rating": 4.6, "reviews": 115, "place_id": "ChIJc_SCg7IrK4gRkcQKzTX_P3E", "latitude": 43.8700856, "longitude": -79.4364126, "care_type": "Plastic Surgeon"}, {"name": "Dr. Chad Wu, Plastic Surgeon in Toronto, Richmond Hill | Breast Augmentation, Blepharoplasty, Tummy tuck, Labiaplasty", "address": "10 Trench St, Richmond Hill, ON L4C 4Z3", "city": "Richmond Hill", "phone": "+1 647-957-7688", "website": "http://drwuplasticsurgery.com/", "rating": 4.1, "reviews": 9, "place_id": "ChIJad3RPoctK4gRyuAo1NxaenA", "latitude": 43.8704455, "longitude": -79.4508084, "care_type": "Plastic Surgeon"}, {"name": "Canadian Plastic Surgery Centre - Richmond Hill/Vaughan Hospital Site", "address": "10 Trench St, Richmond Hill, ON L4C 4Z3", "city": "Richmond Hill", "phone": "+1 416-244-8377", "website": "https://canadiansurgery.com/", "rating": null, "reviews": 0, "place_id": "ChIJS467CWcrK4gRlaxEusoKLOA", "latitude": 43.8704455, "longitude": -79.4508084, "care_type": "Plastic Surgeon"}, {"name": "Forest Hill Plastic Surgery and Medispa", "address": "1188 B Eglinton Ave W, Toronto, ON M6C 2E3", "city": "Toronto", "phone": "+1 416-785-7864", "website": "https://foresthillmedispa.com/", "rating": 4.8, "reviews": 40, "place_id": "ChIJaW_j-JgzK4gRaI4TXy08qvw", "latitude": 43.6994281, "longitude": -79.43349839999999, "care_type": "Plastic Surgeon"}, {"name": "Mackenzie Vaughan Plastic Surgery", "address": "955 Major MacKenzie Dr W Ste 205, Maple, ON L6A 4P9", "city": "Maple", "phone": "+1 905-417-3544", "website": "https://www.mvpsurgery.com/%3Futm_source%3Dgmb%26utm_medium%3Dlisting%26utm_campaign%3D2025", "rating": 4.3, "reviews": 56, "place_id": "ChIJUYO5adgrK4gR4uvmoH2ZTDk", "latitude": 43.864342, "longitude": -79.4688092, "care_type": "Plastic Surgeon"}, {"name": "U Sculpt Plastic Surgery", "address": "9080 Yonge St, Richmond Hill, ON L4C", "city": "Richmond Hill", "phone": "+1 905-966-0102", "website": "https://www.usculpt.ca/", "rating": 4.0, "reviews": 8, "place_id": "ChIJHdy18D8uK4gRCLpD-IpgUD4", "latitude": 43.8486559, "longitude": -79.4322801, "care_type": "Plastic Surgeon"}, {"name": "EyeFACE Institute", "address": "4789 Yonge St Suite #318, North York, ON M2N 0G3", "city": "CA", "phone": "+1 647-351-6501", "website": "https://eyefaceinstitute.com/", "rating": 4.8, "reviews": 254, "place_id": "ChIJo7btcWQtK4gRf2EfbLGi85g", "latitude": 43.761421, "longitude": -79.4102212, "care_type": "Plastic Surgeon"}, {"name": "Lux Cosmetic Mall", "address": "10594 Yonge St, Richmond Hill, ON L4C 3C8", "city": "Richmond Hill", "phone": "+1 905-737-4040", "website": "https://www.luxcosmeticmall.com/", "rating": 5.0, "reviews": 8, "place_id": "ChIJRS-PdYorK4gR1MW9PaI1wOI", "latitude": 43.8855735, "longitude": -79.4412262, "care_type": "Plastic Surgeon"}, {"name": "Unique Cosmetic Clinic", "address": "1650 Elgin Mills Rd E Unit 207, Richmond Hill, ON L4S 0B2", "city": "Richmond Hill", "phone": "+1 905-237-8647", "website": "https://ucclinic.ca/", "rating": 4.7, "reviews": 219, "place_id": "ChIJJUK49KUqK4gRXXpPyr9VSqE", "latitude": 43.899915, "longitude": -79.391797, "care_type": "Plastic Surgeon"}, {"name": "Dr. Philip Solomon", "address": "57 Centre St, Vaughan, ON L4J 1G2", "city": "Vaughan", "phone": "+1 905-764-7799", "website": "https://www.solomonfacialplastic.com/", "rating": 4.3, "reviews": 164, "place_id": "ChIJv2DxO2AsK4gRMSC3snNdANM", "latitude": 43.8156222, "longitude": -79.42649159999999, "care_type": "Plastic Surgeon"}, {"name": "Niagara Plastic Surgery Centre", "address": "5668 Main St, Niagara Falls, ON L2G 5Z4", "city": "Niagara Falls", "phone": "+1 905-357-2360", "website": "http://niagaraplasticsurgery.com/", "rating": 4.5, "reviews": 80, "place_id": "ChIJcagl_2tD04kRlrpR9UxkWzc", "latitude": 43.0924038, "longitude": -79.0920952, "care_type": "Plastic Surgeon"}, {"name": "Dr. Huq", "address": "5668 Main St, Niagara Falls, ON L2G 5Z4", "city": "Niagara Falls", "phone": "+1 905-357-2360", "website": "https://www.niagaraplasticsurgery.com/about-dr-huq", "rating": 4.7, "reviews": 80, "place_id": "ChIJvYgRl-JD04kRsrxtT6EoDEs", "latitude": 43.0924038, "longitude": -79.0920952, "care_type": "Plastic Surgeon"}, {"name": "Dr. Allan Eckhaus", "address": "95 Bayly St W #307, Ajax, ON L1S 7K8", "city": "Ajax", "phone": "+1 905-619-9600", "website": "http://www.eckhausplasticsurgery.com/", "rating": 5.0, "reviews": 45, "place_id": "ChIJbYVO5Nnf1IkR3hFckLGcdF8", "latitude": 43.84235049999999, "longitude": -79.02137239999999, "care_type": "Plastic Surgeon"}, {"name": "Edelstein Cosmetic", "address": "362 Fairlawn Ave, Toronto, ON M5M 1T6", "city": "Toronto", "phone": "+1 416-256-5614", "website": "https://edelsteincosmetics.com/", "rating": 4.8, "reviews": 180, "place_id": "ChIJw9eMcPoyK4gR0Ukza_OVFU4", "latitude": 43.7281762, "longitude": -79.4172727, "care_type": "Plastic Surgeon"}, {"name": "Ford Plastic Surgery: Dr. Derek Ford", "address": "7 St Thomas St #410, Toronto, ON M5S 2B7", "city": "Toronto", "phone": "+1 416-925-7337", "website": "https://www.fordplasticsurgery.com/%3Futm_source%3Dgoogle%26utm_medium%3Dlocal%26utm_campaign%3Dtoronto-practice-website", "rating": 4.8, "reviews": 230, "place_id": "ChIJIQDUzqY0K4gRtLkelOJlQQI", "latitude": 43.6685027, "longitude": -79.3905305, "care_type": "Plastic Surgeon"}, {"name": "Dr. Brett Beber - Toronto Plastic Surgeon", "address": "40 Holly St Suite 203, Toronto, ON M4S 3C3", "city": "Toronto", "phone": "+1 416-466-5023", "website": "https://www.torontoplasticcosmeticsurgeon.com/", "rating": 4.8, "reviews": 151, "place_id": "ChIJzUOYdbY0K4gR3vVC4vsbuJ8", "latitude": 43.7052895, "longitude": -79.3966346, "care_type": "Plastic Surgeon"}, {"name": "Lawrence Park Plastic Surgery - Dr. Mathew A. Plant, MD, FRCSC", "address": "2781 Yonge St, Toronto, ON M4N 2H8", "city": "Toronto", "phone": "+1 416-907-4704", "website": "https://www.lawrenceparkplasticsurgery.com/%3Futm_source%3DGBP%26utm_medium%3DGoogle%26utm_campaign%3DGBP", "rating": 4.9, "reviews": 97, "place_id": "ChIJFckQGIzN1IkRl9Bb4BQxV0w", "latitude": 43.7186685, "longitude": -79.4006163, "care_type": "Plastic Surgeon"}, {"name": "Avenue Plastic Surgery", "address": "1802 Avenue Rd, North York, ON M5M 3Z1", "city": "North York", "phone": "+1 416-789-9979", "website": "http://www.avenueplasticsurgery.ca/", "rating": 4.2, "reviews": 68, "place_id": "ChIJq7Kq0fAyK4gRj1rt6jBRDS8", "latitude": 43.730387, "longitude": -79.41934499999999, "care_type": "Plastic Surgeon"}, {"name": "TMB Cosmetic Surgery: Trevor M. Born, MD", "address": "199 Avenue Rd Suite B, Toronto, ON M5R 2J3", "city": "Toronto", "phone": "+1 416-921-7546", "website": "https://www.tmbcosmeticsurgery.com/", "rating": 4.9, "reviews": 209, "place_id": "ChIJCVmfzqY0K4gRJ5MuCgW6GoM", "latitude": 43.6757664, "longitude": -79.39675079999999, "care_type": "Plastic Surgeon"}, {"name": "Romy Plastic Surgery - Toronto Plastic Surgeon", "address": "1802 Avenue Rd, North York, ON M5M 3Z1", "city": "North York", "phone": "+1 416-789-9979", "website": "https://romyplasticsurgery.com/", "rating": 5.0, "reviews": 71, "place_id": "ChIJA3qT0fAyK4gR9fyQbTaH7TQ", "latitude": 43.7303892, "longitude": -79.4193252, "care_type": "Plastic Surgeon"}, {"name": "Dr. Mitchell Brown, Toronto Plastic Surgery", "address": "790 Bay St. #410, Toronto, ON M5G 1N8", "city": "Toronto", "phone": "+1 416-323-6336", "website": "http://www.torontoplasticsurgery.com/", "rating": 4.3, "reviews": 53, "place_id": "ChIJzUOYdbY0K4gRA-p_JhFOhFo", "latitude": 43.6604402, "longitude": -79.3862389, "care_type": "Plastic Surgeon"}, {"name": "Studio Plastic Surgery", "address": "7 Yonge Blvd, Toronto, ON M5M 3G6", "city": "Toronto", "phone": "+1 416-342-3950", "website": "https://www.studioplasticsurgery.com/%3Futm_source%3DGMBlisting%26utm_medium%3Dorganic%26utm_campaign%3Dgmb", "rating": 4.9, "reviews": 115, "place_id": "ChIJgx_3Cj0zK4gRFj64JyxAKJA", "latitude": 43.7341854, "longitude": -79.4054366, "care_type": "Plastic Surgeon"}, {"name": "Dr. Daniel Martin", "address": "2221 Keele St Suite 108, North York, ON M6M 3Z5", "city": "North York", "phone": "+1 416-244-5506", "website": "http://www.martinplasticsurgerytoronto.com/", "rating": 4.7, "reviews": 44, "place_id": "ChIJjVf5XVkxK4gRoqq-11XCEHM", "latitude": 43.6991103, "longitude": -79.4755299, "care_type": "Plastic Surgeon"}, {"name": "Aspect Plastic Surgery Toronto - Dr Jalil", "address": "7 St Thomas St Suite 208, Toronto, ON M5S 2B7", "city": "Toronto", "phone": "+1 416-219-8666", "website": "https://www.aspectplasticsurgery.com/", "rating": 5.0, "reviews": 18, "place_id": "ChIJNw5uTko1K4gR_LiY48c3I1k", "latitude": 43.6684867, "longitude": -79.3903733, "care_type": "Plastic Surgeon"}, {"name": "Elements Plastic Surgery Clinic", "address": "195 Avenue Rd, Toronto, ON M5R 2J3", "city": "Toronto", "phone": "+1 416-929-6609", "website": "http://www.elementstoronto.com/", "rating": 4.6, "reviews": 19, "place_id": "ChIJNaEvyqY0K4gRZag42upeL7w", "latitude": 43.6756681, "longitude": -79.3967516, "care_type": "Plastic Surgeon"}, {"name": "Harmony Cosmetic", "address": "1188 Eglinton Ave W, Toronto, ON M6C 2E3", "city": "Toronto", "phone": "+1 416-236-2581", "website": "https://www.harmonycosmetic.com/", "rating": 5.0, "reviews": 9, "place_id": "ChIJRd2C9q43K4gRdVg2WtMJSRg", "latitude": 43.6994544, "longitude": -79.43345579999999, "care_type": "Plastic Surgeon"}, {"name": "The Toronto Plastic Surgery Clinic", "address": "66 Avenue Rd #1, Toronto, ON M5R 3N8", "city": "Toronto", "phone": "+1 416-207-9090", "website": "https://www.mississaugacosmeticsurgeryclinic.com/%3Futm_source%3Dgoogle%26utm_medium%3Dlocal%26utm_campaign%3Dtoronto-practice-website", "rating": 4.0, "reviews": 26, "place_id": "ChIJZ5iu8aQ0K4gRamumgqJ_g_k", "latitude": 43.6713288, "longitude": -79.395608, "care_type": "Plastic Surgeon"}, {"name": "St. Clair Cosmetic Clinic", "address": "1223 St Clair Ave W Suite 205, Toronto, ON M6E 1B4", "city": "Toronto", "phone": "+1 416-652-1288", "website": "http://www.stclaircosmetic.com/", "rating": 4.9, "reviews": 25, "place_id": "ChIJqWWFoHM0K4gRyMdfV4eHTlA", "latitude": 43.6777849, "longitude": -79.4444855, "care_type": "Plastic Surgeon"}, {"name": "Dr. Dimitrios Motakis", "address": "160 Avenue Rd, Toronto, ON M5R 2H8", "city": "Toronto", "phone": "+1 416-925-5775", "website": "https://drmotakis.com/", "rating": 5.0, "reviews": 38, "place_id": "ChIJIQDUzqY0K4gRA6Cm8LMOVbc", "latitude": 43.6751948, "longitude": -79.397005, "care_type": "Plastic Surgeon"}, {"name": "Toronto Facial Plastic Surgery: Dr. Andres Gantous", "address": "Sunnyside Wing, 30 The Queensway West 230, Toronto, ON M6R 1B5", "city": "Toronto", "phone": "+1 416-530-6659", "website": "http://www.torontofacialplastic.com/", "rating": 2.8, "reviews": 13, "place_id": "ChIJdd2J0sk1K4gRji18l8lJYYo", "latitude": 43.639625, "longitude": -79.450323, "care_type": "Plastic Surgeon"}, {"name": "Dr. Richard Rival \u2013 Cedarvale Aesthetic Surgery | Rhinoplasty", "address": "950 Eglinton Ave W, Toronto, ON M6C 2C2", "city": "Toronto", "phone": "+1 866-229-3223", "website": "https://rhinoplastytoronto.ca/%3Futm_source%3Dgoogle%26utm_medium%3Dmaps%26utm_campaign%3Dgoogle_maps_profile", "rating": 4.5, "reviews": 88, "place_id": "ChIJ9XmDyz4zK4gRfmOjuaAiZEo", "latitude": 43.7005343, "longitude": -79.4287204, "care_type": "Plastic Surgeon"}, {"name": "Cosmetic Surgery Institute", "address": "325 Eglinton Ave E, Toronto, ON M4P 1L7", "city": "Toronto", "phone": "+1 416-322-7108", "website": "http://catalystsurgical.ca/", "rating": 5.0, "reviews": 22, "place_id": "ChIJH71_ii4zK4gRWCW_RGjRMaU", "latitude": 43.7088421, "longitude": -79.38717369999999, "care_type": "Plastic Surgeon"}, {"name": "Toronto Facial Plastic Surgery", "address": "150 Bloor St W M110, Toronto, ON M5S 2Y5", "city": "Toronto", "phone": "+1 416-323-3900", "website": "http://www.torontofacialplastic.com/", "rating": 5.0, "reviews": 5, "place_id": "ChIJoedJ0ro0K4gRU5JFdu5Lj5g", "latitude": 43.6693118, "longitude": -79.3935753, "care_type": "Plastic Surgeon"}, {"name": "McRae Plastic Surgery", "address": "30 Bond Street Martin Family Center, B1 (Ground Level), Donnelly Wing, Toronto, ON M5B 1W8", "city": "Toronto", "phone": "+1 416-638-3499", "website": "https://mcraeplasticsurgery.com/%3Futm_source%3Dgmb%26utm_medium%3Dorganic%26utm_campaign%3Dlocal_listing_Toronto", "rating": 5.0, "reviews": 110, "place_id": "ChIJMyQfdQjL1IkRR4ej7vVekIs", "latitude": 43.6539547, "longitude": -79.3775241, "care_type": "Plastic Surgeon"}, {"name": "Sovereign Cosmetic Surgery Clinic", "address": "59 Hayden St Suite 703, Toronto, ON M4Y 0E7", "city": "Toronto", "phone": "+1 416-362-9039", "website": "https://sovereigncosmeticsurgery.com/", "rating": 4.8, "reviews": 21, "place_id": "ChIJVy64NiU1K4gRyJBG0np1KpE", "latitude": 43.6698256, "longitude": -79.3838057, "care_type": "Plastic Surgeon"}, {"name": "Platt Plastic Surgery", "address": "1017 Wilson Ave Suite - 104, North York, ON M3K 1Z1", "city": "North York", "phone": "+1 647-946-5439", "website": "", "rating": 4.0, "reviews": 23, "place_id": "ChIJkRRHr4gxK4gRyNQvFdZAjOg", "latitude": 43.7277832, "longitude": -79.4779985, "care_type": "Plastic Surgeon"}, {"name": "Fresh Cosmetic Clinic", "address": "132 Atlantic Ave, Toronto, ON M6K 1X9", "city": "Toronto", "phone": "+1 416-732-2219", "website": "http://www.freshcosmeticclinic.com/", "rating": 4.9, "reviews": 828, "place_id": "ChIJhQYjsmI1K4gRphVbtIqziw0", "latitude": 43.639925, "longitude": -79.4214812, "care_type": "Plastic Surgeon"}, {"name": "Dr. Andrea Cosmetic MD", "address": "845 St Clair Ave W Suite 305, Toronto, ON M6C 1C3", "city": "Toronto", "phone": "+1 416-410-1818", "website": "http://www.doctorandrea.ca/", "rating": 4.8, "reviews": 51, "place_id": "ChIJdcRChpM1K4gRd2V_S6MYzXI", "latitude": 43.6800742, "longitude": -79.4321823, "care_type": "Plastic Surgeon"}, {"name": "Dr. Jeffrey Fialkov", "address": "362 Fairlawn Ave, Toronto, ON M5M 0A2", "city": "Toronto", "phone": "+1 416-256-5614", "website": "https://edelsteincosmetics.com/about/dr-jeffrey-fialkov/", "rating": 5.0, "reviews": 3, "place_id": "ChIJw9eMcPoyK4gROMOvi7BhG-0", "latitude": 43.7284868, "longitude": -79.4176332, "care_type": "Plastic Surgeon"}, {"name": "The Centre for Minor Surgery", "address": "4025 Yonge St Suite 205, North York, ON M2P 2E3", "city": "CA", "phone": "+1 416-663-9649", "website": "https://www.minorsurgery.ca/%3Futm_source%3Dgoogle%26utm_medium%3Dlocal%26utm_campaign%3Dtoronto-practice-website", "rating": 4.8, "reviews": 84, "place_id": "ChIJA9cVr-IvK4gRMmLmBDyy2F4", "latitude": 43.7448934, "longitude": -79.4064334, "care_type": "Plastic Surgeon"}, {"name": "Subtle Enhancements", "address": "1656 Queen St W, Toronto, ON M6R 1B2", "city": "Toronto", "phone": "+1 416-771-6996", "website": "http://www.subtleenhancements.com/", "rating": 5.0, "reviews": 282, "place_id": "ChIJFRJCtt01K4gRB6caE3tmmSA", "latitude": 43.6394433, "longitude": -79.4434419, "care_type": "Plastic Surgeon"}, {"name": "Verso Surgery", "address": "700 University Ave Unit B, Toronto, ON M7A 2S4", "city": "Toronto", "phone": "+1 905-849-7560", "website": "https://versosurgery.ca/", "rating": 5.0, "reviews": 9, "place_id": "ChIJc_-P6HA1K4gRv3gW9ISKb6w", "latitude": 43.6588089, "longitude": -79.39098919999999, "care_type": "Plastic Surgeon"}, {"name": "Skin Vitality Medical Clinic Toronto", "address": "351 Eglinton Ave W, Toronto, ON M5N 1A3", "city": "Toronto", "phone": "+1 416-969-9669", "website": "https://www.skinvitality.ca/toronto/%3Fsrc%3D7014X000001yGl0", "rating": 4.6, "reviews": 2008, "place_id": "ChIJtde65K40K4gRFOx15AnXdrA", "latitude": 43.7041595, "longitude": -79.40971429999999, "care_type": "Plastic Surgeon"}, {"name": "Andres Gantous, MD", "address": "150 Bloor St W M110, Toronto, ON M5S 2Y5", "city": "Toronto", "phone": "+1 416-323-3900", "website": "http://www.torontofacialplastic.com/", "rating": 4.6, "reviews": 42, "place_id": "ChIJr266zbo0K4gR1IIcldIWeds", "latitude": 43.6692125, "longitude": -79.3935626, "care_type": "Plastic Surgeon"}, {"name": "Steven A. Hanna, MD", "address": "7 St Thomas St #410, Toronto, ON M5S 2B7", "city": "Toronto", "phone": "+1 416-925-7337", "website": "https://www.fordplasticsurgery.com/about/about-dr-steven-hanna/%3Futm_source%3Dgoogle%26utm_medium%3Dlocal%26utm_campaign%3Dtoronto-hanna-website", "rating": 4.9, "reviews": 69, "place_id": "ChIJA990AOE1K4gR_hH-93WOqhA", "latitude": 43.6685027, "longitude": -79.3905305, "care_type": "Plastic Surgeon"}, {"name": "Skin6: Toronto Medical Spa", "address": "802 Dundas St W 2nd Floor, Toronto, ON M6J 1V3", "city": "Toronto", "phone": "+1 416-362-6266", "website": "https://www.skin6.com/%3Futm_source%3Dgmb%26utm_medium%3Dorganic", "rating": 4.9, "reviews": 263, "place_id": "ChIJo1LiJKU1K4gRyGq3pHXBbgo", "latitude": 43.6519447, "longitude": -79.40867659999999, "care_type": "Plastic Surgeon"}, {"name": "D N Kuzmar MD", "address": "1223 St Clair Ave W, Toronto, ON M6E 1B5", "city": "Toronto", "phone": "+1 416-652-7980", "website": "", "rating": 5.0, "reviews": 5, "place_id": "ChIJqWWFoHM0K4gRRzljJfRCZG4", "latitude": 43.6772279, "longitude": -79.44500599999999, "care_type": "Plastic Surgeon"}, {"name": "Dr. Laura Snell", "address": "7 St Thomas St #410, Toronto, ON M5S 2B7", "city": "Toronto", "phone": "+1 416-925-7337", "website": "https://www.fordplasticsurgery.com/about/about-dr-laura-snell/%3Futm_source%3Dgoogle%26utm_medium%3Dlocal%26utm_campaign%3Dtoronto-snell-website", "rating": 5.0, "reviews": 2, "place_id": "ChIJESJLD441K4gRr5ywc934KEI", "latitude": 43.6685027, "longitude": -79.3905305, "care_type": "Plastic Surgeon"}, {"name": "Toronto Cosmetic Clinic", "address": "1333 Sheppard Ave E Suite 345, North York, ON M2J 1V1", "city": "CA", "phone": "+1 416-221-5554", "website": "https://www.tcclinic.com/", "rating": 4.2, "reviews": 405, "place_id": "ChIJYTg_r3ItK4gRZQLm5Rh1bS0", "latitude": 43.77142629999999, "longitude": -79.36144569999999, "care_type": "Plastic Surgeon"}, {"name": "Studios Vis A Vis | Facial Spa", "address": "780 College St, Toronto, ON M6G 1C6", "city": "Toronto", "phone": "+1 416-537-3232", "website": "http://studiosvisavis.com/", "rating": 4.9, "reviews": 232, "place_id": "ChIJfbK2Jvc0K4gRP6TO5Bp4Oj0", "latitude": 43.6549154, "longitude": -79.42079009999999, "care_type": "Plastic Surgeon"}, {"name": "Beauty Room Liberty Village", "address": "17 Atlantic Ave Unit 2, Toronto, ON M6K 3E7", "city": "Toronto", "phone": "+1 416-889-9948", "website": "http://www.beautyroom.ca/", "rating": 4.9, "reviews": 243, "place_id": "ChIJh1igYwc1K4gRHmXCz9SVkSc", "latitude": 43.6369999, "longitude": -79.41988959999999, "care_type": "Plastic Surgeon"}, {"name": "Dr Sarah Wong, Female Asian Plastic Surgeon Toronto, Markham, Richmond Hill | Breast Augmentation, Liposuction, Labiaplasty", "address": "3030 Lawrence Ave E, Scarborough, ON M1P 2T7", "city": "Scarborough", "phone": "+1 416-357-3898", "website": "http://wplasticsurgerytoronto.com/", "rating": 3.3, "reviews": 30, "place_id": "ChIJyYmoZ8vR1IkR1rD-DWwHRPQ", "latitude": 43.7565097, "longitude": -79.24794639999999, "care_type": "Plastic Surgeon"}, {"name": "SFP Medispa", "address": "305 Davenport Rd Unit 2, Toronto, ON M5R 1K5", "city": "Toronto", "phone": "+1 416-864-6100", "website": "https://www.solomonfacialplastic.com/%3Futm_source%3Dgmb%26utm_medium%3Dorganic", "rating": null, "reviews": 0, "place_id": "ChIJO1RvDdM1K4gRv2xInZ1kc4I", "latitude": 43.6743409, "longitude": -79.4007144, "care_type": "Plastic Surgeon"}, {"name": "Ottawa Plastic Surgery", "address": "1750 Bank St, Ottawa, ON K1V 7Y6", "city": "Ottawa", "phone": "+1 613-792-4137", "website": "https://www.ottawaplasticsurgery.com/", "rating": 4.8, "reviews": 245, "place_id": "ChIJe4n16aIGzkwRGVU5qGJ833s", "latitude": 45.3734911, "longitude": -75.6654605, "care_type": "Plastic Surgeon"}, {"name": "Ottawa Plastic Surgery: Dr. Kirsty Boyd", "address": "1750 Bank St, Ottawa, ON K1V 7Y6", "city": "Ottawa", "phone": "+1 613-792-4137", "website": "http://www.ottawaplasticsurgery.com/", "rating": 4.8, "reviews": 18, "place_id": "ChIJ1ZiI7aIGzkwRBUbpnW9cupk", "latitude": 45.3734911, "longitude": -75.6654605, "care_type": "Plastic Surgeon"}, {"name": "Dr. Ali Adibfar", "address": "195 Avenue Rd, Toronto, ON M5R 2J3", "city": "Toronto", "phone": "+1 416-929-1618", "website": "http://dradibfar.com/", "rating": 4.9, "reviews": 289, "place_id": "ChIJzw4pyqY0K4gRPoUhVVjTYHY", "latitude": 43.67568379999999, "longitude": -79.3967864, "care_type": "Plastic Surgeon"}, {"name": "New Age Medical Aesthetics & Plastic Surgery", "address": "1050 Morrison Dr Suite 200, Nepean, ON K2H 8K7", "city": "Nepean", "phone": "+1 613-595-1880", "website": "https://newageaesthetics.com/", "rating": 4.9, "reviews": 197, "place_id": "ChIJP1dQu93_0UwRkvGfSudratg", "latitude": 45.3466641, "longitude": -75.7917787, "care_type": "Plastic Surgeon"}, {"name": "The Ottawa Clinic", "address": "2936 Baseline Rd Suite 102, Nepean, ON K2H 1B3", "city": "Nepean", "phone": "+1 613-232-7777", "website": "http://theottawaclinic.com/", "rating": 4.6, "reviews": 166, "place_id": "ChIJa9Z4TDQEzkwRkrhT6JKl3Pk", "latitude": 45.3359692, "longitude": -75.798237, "care_type": "Plastic Surgeon"}, {"name": "Dr. Sean Smith Plastic Surgery", "address": "2936 Baseline Rd Suite 102, Ottawa, ON K2H 1B3", "city": "Ottawa", "phone": "+1 613-232-7777", "website": "http://www.smithplasticsurgery.ca/", "rating": 4.6, "reviews": 34, "place_id": "ChIJC9q7OwEFzkwREp5sPn9eyb8", "latitude": 45.3359181, "longitude": -75.7982021, "care_type": "Plastic Surgeon"}, {"name": "Ottawa Institute of Plastic Surgery", "address": "150 Blanca St, Gloucester, ON K1V", "city": "Gloucester", "phone": "+1 613-702-5333", "website": "https://ottawasurgery.com/%3Futm_source%3Dgmb%26utm_medium%3Dmain%26utm_campaign%3Dorganic", "rating": 3.6, "reviews": 16, "place_id": "ChIJH-TnXvIFzkwREc0OhcwdI80", "latitude": 45.2812012, "longitude": -75.6689099, "care_type": "Plastic Surgeon"}, {"name": "Cosmetic Surgery Ottawa", "address": "100 Bayshore Dr, Nepean, ON K2B 8C1", "city": "Nepean", "phone": "+1 613-591-1093", "website": "http://www.cosmeticsurgeryottawa.com/", "rating": 4.2, "reviews": 18, "place_id": "ChIJtzCGkygEzkwRgL8W57r7spE", "latitude": 45.3469493, "longitude": -75.80655809999999, "care_type": "Plastic Surgeon"}, {"name": "Kanata Plastic and Cosmetic Surgery", "address": "895 March Rd, Kanata, ON K2K 1X7", "city": "Kanata", "phone": "+1 613-591-1099", "website": "http://www.kanataplasticsurgery.com/", "rating": 4.6, "reviews": 84, "place_id": "ChIJXTWkEAv_0UwRehwUUIhFaXQ", "latitude": 45.3587964, "longitude": -75.9376655, "care_type": "Plastic Surgeon"}, {"name": "Ottawa Rhinoplasty & Facial Surgery - Dr. James Bonaparte, MD, MSc, FRCSC", "address": "460 W Hunt Club Rd #105a, Ottawa, ON K2E 0B8", "city": "Ottawa", "phone": "+1 613-421-9929", "website": "https://www.ottawarhinoplasty.ca/", "rating": 4.4, "reviews": 25, "place_id": "ChIJISGMoLEHzkwR9J26AMiSDP0", "latitude": 45.3347734, "longitude": -75.7232472, "care_type": "Plastic Surgeon"}, {"name": "Dr. Hedyeh Javidnia Facial Cosmetic Surgery", "address": "230 Main St, Ottawa, ON K1S 1C7", "city": "Ottawa", "phone": "+1 613-867-6673", "website": "https://www.aesthetemd.ca/%3Futm_campaign%3Dgmb%26utm_medium%3Dorganic%26utm_source%3Dgmb", "rating": 4.6, "reviews": 112, "place_id": "ChIJbfw2R_IFzkwRtAiT3Qe9xHw", "latitude": 45.4072605, "longitude": -75.6771449, "care_type": "Plastic Surgeon"}, {"name": "Ottawa Hospital Civic Campus -Plastic and Reconstructive Centre", "address": "1053 Carling Ave, Ottawa, ON K1Y 4E9", "city": "Ottawa", "phone": "+1 613-798-5555", "website": "https://www.ottawahospital.on.ca/en/clinical-services/deptpgrmcs/programs/eye-institute/clinical-and-diagnostic-services/ophthalmic-plastic-and-reconstructive-surgery/", "rating": 4.8, "reviews": 5, "place_id": "ChIJtyA8_S4EzkwR-QphlPcj5oU", "latitude": 45.393699, "longitude": -75.7200459, "care_type": "Plastic Surgeon"}, {"name": "Dr. Peter Brownrigg", "address": "460 W Hunt Club Rd #105a, Ottawa, ON K2E 0B8", "city": "Ottawa", "phone": "+1 613-724-1214", "website": "https://www.drpbrownrigg.ca/", "rating": 3.8, "reviews": 41, "place_id": "ChIJe4n16aIGzkwRRrsBfr-brNY", "latitude": 45.3348275, "longitude": -75.7231664, "care_type": "Plastic Surgeon"}, {"name": "Gloria Rockwell MD", "address": "1967 Riverside Dr. Room A217K2, Ottawa, ON K1H 1A2", "city": "Ottawa", "phone": "+1 613-737-8388", "website": "http://www.plasticsurgerymd.ca/", "rating": 5.0, "reviews": 12, "place_id": "ChIJ_4s0R_IFzkwR-toKbcyxpLU", "latitude": 45.3962675, "longitude": -75.6689126, "care_type": "Plastic Surgeon"}, {"name": "Dr. Ronnie Borsuk", "address": "770 Broadview Ave Suite 306, Ottawa, ON K2A 3Z3", "city": "Ottawa", "phone": "+1 613-728-5807", "website": "http://ottawacosmeticsurgery.ca/", "rating": 5.0, "reviews": 15, "place_id": "ChIJq6paI7oGzkwRYlxmSVetFlo", "latitude": 45.3776967, "longitude": -75.7552106, "care_type": "Plastic Surgeon"}, {"name": "Toronto Eyelid Surgery", "address": "1033 Bay St. #309, Toronto, ON M5S 3A5", "city": "Toronto", "phone": "+1 416-962-5005", "website": "http://www.torontoeyelidsurgery.com/", "rating": 4.8, "reviews": 54, "place_id": "ChIJh6MhC7E0K4gRFO37VSrDtDw", "latitude": 43.6661015, "longitude": -79.3874615, "care_type": "Plastic Surgeon"}, {"name": "Jeffrey Abboud", "address": "770 Broadview Ave Suite 306, Ottawa, ON K2A 3Z3", "city": "Ottawa", "phone": "+1 613-321-8328", "website": "https://www.abboudplasticsurgery.ca/%3Futm_source%3Dgoogle%26utm_medium%3Dwix_google_business_profile%26utm_campaign%3D10199190533430848644", "rating": 4.7, "reviews": 12, "place_id": "ChIJG7JEO7oGzkwRbiNI73IFmCs", "latitude": 45.37766389999999, "longitude": -75.75513409999999, "care_type": "Plastic Surgeon"}, {"name": "Dr. Sachin Chitte MD, FRCSC", "address": "460 W Hunt Club Rd, Ottawa, ON K2E 0B8", "city": "Ottawa", "phone": "+1 613-369-8369", "website": "https://ottawadermcentre.com/team-member/dr-sachin-a-chitte/", "rating": 4.0, "reviews": 16, "place_id": "ChIJG7JEO7oGzkwRNrIGInV_5W4", "latitude": 45.3347734, "longitude": -75.7232472, "care_type": "Plastic Surgeon"}, {"name": "Dr. Michel Gallant MD, FRCSC", "address": "1400 Wellington St. W, Ottawa, ON K1Y 2X2", "city": "Ottawa", "phone": "+1 613-729-1616", "website": "http://www.westboroplasticsurgery.com/", "rating": 4.1, "reviews": 18, "place_id": "ChIJG7JEO7oGzkwRVch36klnlVE", "latitude": 45.3977836, "longitude": -75.7401627, "care_type": "Plastic Surgeon"}, {"name": "Trefor Nodwell, MD CM, FRCSC", "address": "2936 Baseline Rd Suite 102, Ottawa, ON K2H 1B3", "city": "Ottawa", "phone": "+1 613-232-7777", "website": "http://www.theottawaclinic.com/", "rating": 4.9, "reviews": 16, "place_id": "ChIJC1pz_zQEzkwR-YKS93cXoMQ", "latitude": 45.3358544, "longitude": -75.79827829999999, "care_type": "Plastic Surgeon"}, {"name": "Ottawa Derm Centre", "address": "460 W Hunt Club Rd Unit 105-A, Ottawa, ON K2E 0B8", "city": "Ottawa", "phone": "+1 613-369-8369", "website": "https://ottawadermcentre.com/", "rating": 4.8, "reviews": 849, "place_id": "ChIJex-s-3cHzkwRMnop5YbyNaM", "latitude": 45.3347734, "longitude": -75.7232472, "care_type": "Plastic Surgeon"}, {"name": "The Best You (Ottawa West) - Medical Cosmetics & Aesthetics Clinic", "address": "1525 Carling Ave suite 608, Ottawa, ON K1Z 8P9", "city": "Ottawa", "phone": "+1 613-728-1008", "website": "https://thebestyou.com/%3Futm_campaign%3Djl%26utm_medium%3Dorganic%26utm_source%3Dgoogle%26utm_term%3Dgmb", "rating": 4.9, "reviews": 75, "place_id": "ChIJF9ET4qIGzkwRSC9VsWLN2-A", "latitude": 45.3823076, "longitude": -75.7438556, "care_type": "Plastic Surgeon"}, {"name": "plastic surgery clinic", "address": "1053 Carling Ave, Ottawa, ON K1Y 1J8", "city": "Ottawa", "phone": "+1 613-738-5555", "website": "", "rating": null, "reviews": 0, "place_id": "ChIJMxv52TgFzkwRdZFoElQQPZ4", "latitude": 45.3926998, "longitude": -75.72088029999999, "care_type": "Plastic Surgeon"}, {"name": "Skin Worthy", "address": "523 The Queensway Unit 107, Etobicoke, ON M8Y 1J7", "city": "Etobicoke", "phone": "+1 647-350-7546", "website": "http://www.skinworthy.ca/", "rating": 4.8, "reviews": 229, "place_id": "ChIJxycDyrM3K4gR_GdnZ6CQMRs", "latitude": 43.6286077, "longitude": -79.4910027, "care_type": "Plastic Surgeon"}, {"name": "Sculpted Clinic", "address": "1320 Carling Ave #200, Ottawa, ON K1Z 6H2", "city": "Ottawa", "phone": "+1 613-729-9777", "website": "http://www.sculptedclinic.com/", "rating": 5.0, "reviews": 121, "place_id": "ChIJ6Wh9NlcFzkwRoRjtrmd8dyM", "latitude": 45.38532259999999, "longitude": -75.7350017, "care_type": "Plastic Surgeon"}, {"name": "Danesthetics Medical Design", "address": "55 Murray St #101, Ottawa, ON K1N 7B4", "city": "Ottawa", "phone": "+1 613-614-4466", "website": "http://www.danestheticsmedical.com/", "rating": 4.9, "reviews": 249, "place_id": "ChIJhee8tPQFzkwRdrU7h3tQI0A", "latitude": 45.4294958, "longitude": -75.69447269999999, "care_type": "Plastic Surgeon"}, {"name": "The Aesthetic Lounge", "address": "1079 Somerset St W, Ottawa, ON K1Y 3C6", "city": "Ottawa", "phone": "+1 613-729-8086", "website": "https://theaestheticlounge.ca/%3Futm_source%3Dbusiness.google.com%26utm_medium%3Dorganic%26utm_campaign%3Dottawa-on-website", "rating": 4.9, "reviews": 176, "place_id": "ChIJkaaJ2LkFzkwR44ZirEacylA", "latitude": 45.4064957, "longitude": -75.721136, "care_type": "Plastic Surgeon"}, {"name": "Dermapure Ottawa Downtown", "address": "22 York St, Ottawa, ON K1N 5S6", "city": "Ottawa", "phone": "+1 343-305-1995", "website": "https://www.dermapure.com/en/locations/ottawa/downtown/%3Futm_source%3Dgoogle%26utm_medium%3Dorganic", "rating": 4.9, "reviews": 369, "place_id": "ChIJBW87ggIFzkwR4Hdog8-agtY", "latitude": 45.4275424, "longitude": -75.6938514, "care_type": "Plastic Surgeon"}, {"name": "Dr. Callaghan", "address": "139 Greenbank Rd, Nepean, ON K2H 9A5", "city": "Nepean", "phone": "+1 613-721-6463", "website": "http://www.callaghanplasticsurgery.com/", "rating": 4.8, "reviews": 4, "place_id": "ChIJ19G8p_n_zUwRvX3utebYigs", "latitude": 45.3308987, "longitude": -75.78165609999999, "care_type": "Plastic Surgeon"}, {"name": "Dr. Jing Zhang MD, FRCSC", "address": "Carling Avenue Ottawa, Ottawa, ON K1Y 4E9", "city": "Ottawa", "phone": "+1 613-798-5555", "website": "", "rating": 3.1, "reviews": 12, "place_id": "ChIJVSkD_S4EzkwRXtff4dLDi2U", "latitude": 45.3935367, "longitude": -75.72019139999999, "care_type": "Plastic Surgeon"}, {"name": "Reforme Lab", "address": "164 Davenport Rd, Toronto, ON M5R 1J2", "city": "Toronto", "phone": "+1 416-901-3133", "website": "http://www.reformelab.com/", "rating": 5.0, "reviews": 81, "place_id": "ChIJraZWfmLL1IkRjFHywkT6cG4", "latitude": 43.6753225, "longitude": -79.3946783, "care_type": "Plastic Surgeon"}, {"name": "FCP Dermatology", "address": "Concourse Level, 100 King St W CN 0110, Toronto, ON M5X 1H3", "city": "Toronto", "phone": "+1 416-861-8600", "website": "https://fcpdermatology.com/", "rating": 4.8, "reviews": 474, "place_id": "ChIJw-F8B6U1K4gReeJqdlf7mYM", "latitude": 43.6486573, "longitude": -79.381671, "care_type": "Plastic Surgeon"}, {"name": "Project Skin MD Ottawa - Partner of Dermapure", "address": "349 St. Laurent Blvd, Ottawa, ON K1K 2Z7", "city": "Ottawa", "phone": "+1 613-902-1002", "website": "https://projectskinmd.com/location/ottawa/", "rating": 4.7, "reviews": 509, "place_id": "ChIJdVchZRgFzkwRbJwhhHb4naM", "latitude": 45.4492734, "longitude": -75.6508092, "care_type": "Plastic Surgeon"}, {"name": "Elite Body Sculpture", "address": "33 Hazelton Ave, Toronto, ON M5R 2E3", "city": "Toronto", "phone": "+1 437-800-1015", "website": "https://airsculpt.com/our-locations/toronto/%3Futm_source%3Dgoogle%26utm_medium%3Dyext%26utm_campaign%3DToronto%26utm_term%3Dorganictraffic", "rating": 3.8, "reviews": 41, "place_id": "ChIJr6Cxe2w1K4gRgsByan5OLTo", "latitude": 43.6716676, "longitude": -79.393292, "care_type": "Plastic Surgeon"}, {"name": "Kyle R. Wanzel, MD", "address": "1243 Islington Ave. #600, Etobicoke, ON M8X 1Y9", "city": "CA", "phone": "+1 416-236-2571", "website": "http://www.plasticcosmeticsurgery.ca/", "rating": 4.0, "reviews": 33, "place_id": "ChIJKZ84_q43K4gRZn2v0dsu6_c", "latitude": 43.6459346, "longitude": -79.5236821, "care_type": "Plastic Surgeon"}, {"name": "Dover Karen J MD", "address": "1081 Carling Ave suite 701, Ottawa, ON K1Y 4G2", "city": "Ottawa", "phone": "+1 613-715-9900", "website": "http://www.kjd-md.com/", "rating": 5.0, "reviews": 1, "place_id": "ChIJtzCGkygEzkwRDQmjPNsPHo0", "latitude": 45.3909112, "longitude": -75.72368139999999, "care_type": "Plastic Surgeon"}, {"name": "PearlMedica", "address": "1385 Bank St, Ottawa, ON K1H 8N4", "city": "Ottawa", "phone": "+1 613-235-9549", "website": "http://pearlmedica.ca/", "rating": 4.0, "reviews": 24, "place_id": "ChIJObSd7q4FzkwRK6N7pOhniiM", "latitude": 45.3841905, "longitude": -75.6716028, "care_type": "Plastic Surgeon"}, {"name": "Nodwell Plastic Surgery", "address": "770 Broadview Ave #108, Ottawa, ON K2A 3Z3", "city": "Ottawa", "phone": "+1 613-729-1616", "website": "http://theottawaplasticsurgeryinstitute.com/", "rating": null, "reviews": 0, "place_id": "ChIJwftPI7oGzkwRr3DJz7oQdUU", "latitude": 45.3776967, "longitude": -75.7552106, "care_type": "Plastic Surgeon"}, {"name": "IVONNE", "address": "320 Queen St #0116, Ottawa, ON K1A 0W8", "city": "Ottawa", "phone": "+1 613-695-6662", "website": "https://www.ivonne.ca/%3Futm_source%3Dgbp%26utm_medium%3Dreferral", "rating": 4.8, "reviews": 405, "place_id": "ChIJ02ORVFIEzkwRLYnDM_g7Ngo", "latitude": 45.4193139, "longitude": -75.7032097, "care_type": "Plastic Surgeon"}, {"name": "Inovo Medical", "address": "1328 Labrie Ave, Gloucester, ON K1B 3M1", "city": "Gloucester", "phone": "+1 613-749-4668", "website": "https://inovomedical.ca/%3Futm_campaign%3Dgmb", "rating": 4.2, "reviews": 185, "place_id": "ChIJLTS-rpkPzkwRalwRMAkQibc", "latitude": 45.4214333, "longitude": -75.6240122, "care_type": "Plastic Surgeon"}, {"name": "Laser Veins Treatment Centre of Ottawa", "address": "681 Montr\u00e9al Rd, Ottawa, ON K1K 0T1", "city": "Ottawa", "phone": "+1 613-227-8209", "website": "", "rating": null, "reviews": 0, "place_id": "ChIJ052D_1kFzkwR3qgypktX-94", "latitude": 45.4438659, "longitude": -75.6399217, "care_type": "Plastic Surgeon"}, {"name": "Ottawa mpus", "address": "190 Melrose Ave, Ottawa, ON K1Y 4K7", "city": "Ottawa", "phone": "", "website": "", "rating": null, "reviews": 0, "place_id": "ChIJh77RDwAFzkwRrv58S7PhhR0", "latitude": 45.39432, "longitude": -75.71992999999999, "care_type": "Plastic Surgeon"}, {"name": "cosmeticnurseinjectors", "address": "548 Rochester St, Ottawa, ON K1S 4M2", "city": "Ottawa", "phone": "+1 613-591-1099", "website": "http://cosmeticnurseinjectors.com/", "rating": null, "reviews": 0, "place_id": "ChIJ__-ooswFzkwRbX4jGvj_eNs", "latitude": 45.3991031, "longitude": -75.7062013, "care_type": "Plastic Surgeon"}, {"name": "Dermis Advanced Skin Care", "address": "116 Albert St #110, Ottawa, ON K1P 5G3", "city": "Ottawa", "phone": "+1 613-233-7546", "website": "https://www.dermisadvancedskincare.com/", "rating": 4.6, "reviews": 360, "place_id": "ChIJkzRnS1UEzkwRNh4p_uCv8y8", "latitude": 45.4213299, "longitude": -75.6965651, "care_type": "Plastic Surgeon"}, {"name": "S Bosiljcic-Stojanovic MD", "address": "1919 Riverside Dr. #211, Ottawa, ON K1H !A2", "city": "Ottawa", "phone": "+1 613-737-5675", "website": "", "rating": null, "reviews": 0, "place_id": "ChIJf0ojcpD_zUwRvH2js1fYm_M", "latitude": 45.3970294, "longitude": -75.6684229, "care_type": "Plastic Surgeon"}, {"name": "Sure Hair Transplants Ottawa", "address": "226, 1929 Russell Rd, Ottawa, ON K1G 4G3", "city": "Ottawa", "phone": "+1 343-303-4566", "website": "https://surehair.com/contact-us/our-locations/ottawa/", "rating": 5.0, "reviews": 1, "place_id": "ChIJk-391wEFzkwRRP2RyD98xho", "latitude": 45.40169299999999, "longitude": -75.625013, "care_type": "Plastic Surgeon"}, {"name": "Dr. Hedyeh Javidnia", "address": "1929 Russell Rd, Ottawa, ON K1G 4G3", "city": "Ottawa", "phone": "", "website": "", "rating": null, "reviews": 0, "place_id": "ChIJ08J6reYPzkwRXoSIc3kcPw4", "latitude": 45.4017087, "longitude": -75.6250141, "care_type": "Plastic Surgeon"}, {"name": "The York Plastic Surgery Centre", "address": "490 Harry Walker Pkwy S #4, Newmarket, ON L3Y 0B3", "city": "Newmarket", "phone": "+1 905-898-2519", "website": "https://yorkplasticsurgerycentre.com/%3Futm_source%3Dgooglemybusiness%26utm_medium%3Dorganic%26utm_campaign%3DGoogle%2520My%2520Business", "rating": 4.9, "reviews": 66, "place_id": "ChIJu3UWV_XNKogREYmSoN1YkF4", "latitude": 44.0497305, "longitude": -79.4232178, "care_type": "Plastic Surgeon"}, {"name": "Dr. William Andrade", "address": "490 Harry Walker Pkwy S, Newmarket, ON L3Y 0B3", "city": "Newmarket", "phone": "+1 905-898-2519", "website": "https://yorkplasticsurgerycentre.com/%3Futm_source%3Dgooglemybusiness%26utm_medium%3Dorganic%26utm_campaign%3DGoogle%2520SEO", "rating": 4.9, "reviews": 78, "place_id": "ChIJxTcNxAPSKogRx8pDvaf9wsc", "latitude": 44.0496391, "longitude": -79.4232718, "care_type": "Plastic Surgeon"}, {"name": "Ayeni Plastic Surgery Institute", "address": "581 Davis Dr Unit 611, Newmarket, ON L3Y 2P6", "city": "Newmarket", "phone": "+1 905-853-6644", "website": "https://www.drbimpe.com/", "rating": 4.5, "reviews": 37, "place_id": "ChIJG5S3pgTTKogRi1Gt6GJdy8M", "latitude": 44.0612056, "longitude": -79.45369199999999, "care_type": "Plastic Surgeon"}, {"name": "Plastic Surgery Skin Clinic", "address": "581 Davis Dr Suite 101, Newmarket, ON L3Y 2P6", "city": "Newmarket", "phone": "+1 905-898-1814", "website": "https://pssclinic.com/", "rating": 4.2, "reviews": 21, "place_id": "ChIJRT63cXLNKogR1Aa-6io61-A", "latitude": 44.0610698, "longitude": -79.4540403, "care_type": "Plastic Surgeon"}, {"name": "Aurora Plastic Surgery | Dr. Bimpe Ayeni", "address": "155 Addison Hall Cir Unit 11, Aurora, ON L4G 8A4", "city": "Aurora", "phone": "+1 905-853-6644", "website": "https://auroraplasticsurgery.ca/", "rating": 4.4, "reviews": 75, "place_id": "ChIJI_st8UjTKogRprJIhO-PX-o", "latitude": 44.0210904, "longitude": -79.4115291, "care_type": "Plastic Surgeon"}, {"name": "Dr. Richard Rival", "address": "581 Davis Dr Suite 101, Newmarket, ON L3Y 2P6", "city": "Newmarket", "phone": "+1 905-830-6711", "website": "https://www.rivalcosmeticsurgery.com/%3Futm_source%3Dgoogle%26utm_medium%3Dlocal%26utm_campaign%3Dnewmarket-practice-website", "rating": 4.5, "reviews": 42, "place_id": "ChIJheY9iwnSKogRCry9h8jicRs", "latitude": 44.0611791, "longitude": -79.4537805, "care_type": "Plastic Surgeon"}, {"name": "Tomas J. Saun, MD", "address": "20 Charles St #2, Newmarket, ON L3Y 3V8", "city": "Newmarket", "phone": "+1 365-337-0054", "website": "", "rating": 5.0, "reviews": 9, "place_id": "ChIJxbyiNRzRKogRPxZtlH9hC7Y", "latitude": 44.0594997, "longitude": -79.4558801, "care_type": "Plastic Surgeon"}, {"name": "Enriched Med Spa - Botox Fillers Facials - East Gwillimbury", "address": "18289 Yonge St building e5 unit 2, East Gwillimbury, ON L9N 0A2", "city": "East Gwillimbury", "phone": "+1 905-853-8787", "website": "https://enrichedmedspa.com/enriched-med-spa-east-gwillimbury-newmarket/", "rating": 5.0, "reviews": 9, "place_id": "ChIJuTKpKYLPKogRfplYv9fDu6w", "latitude": 44.0745456, "longitude": -79.48256049999999, "care_type": "Plastic Surgeon"}, {"name": "Dr. Rose Plastic Surgery", "address": "59 Hayden St Suite 703, Toronto, ON M4Y 0E7", "city": "Toronto", "phone": "+1 416-613-9336", "website": "https://www.drroseplasticsurgery.com/%3Futm_source%3Dgoogle%26utm_medium%3Dorganic%26utm_campaign%3Dgbp", "rating": 4.9, "reviews": 60, "place_id": "ChIJ518ZcPIVK4gRc7ptfWf6Q3Y", "latitude": 43.6698256, "longitude": -79.3838057, "care_type": "Plastic Surgeon"}, {"name": "Kawartha Plastic Surgery", "address": "1690 Dersan St Suite 250 2nd floor, Pickering, ON L1X 0E3", "city": "Pickering", "phone": "+1 705-876-9003", "website": "http://kawarthaplasticsurgery.ca/", "rating": 4.9, "reviews": 107, "place_id": "ChIJHbSOt4mN1YkRTY01yTEcWZw", "latitude": 43.8753356, "longitude": -79.0866372, "care_type": "Plastic Surgeon"}, {"name": "Dermapure Newmarket", "address": "490 Harry Walker Pkwy S #2, Newmarket, ON L3Y 0B3", "city": "Newmarket", "phone": "+1 289-768-6135", "website": "https://www.dermapure.com/en/locations/newmarket/%3Futm_source%3Dgoogle%26utm_medium%3Dorganic", "rating": 4.8, "reviews": 245, "place_id": "ChIJj75odH3SKogRaqNJLuEHGKw", "latitude": 44.0496557, "longitude": -79.4232944, "care_type": "Plastic Surgeon"}, {"name": "Piris Innovations", "address": "712 Davis Dr, Newmarket, ON L3Y 8C3", "city": "Newmarket", "phone": "+1 905-898-2519", "website": "", "rating": null, "reviews": 0, "place_id": "ChIJu3UWV_XNKogRGy6-vd9vQIE", "latitude": 44.061751, "longitude": -79.44789999999999, "care_type": "Plastic Surgeon"}, {"name": "Dr. Charlebois Aesthetics", "address": "102 B Second St W, Cornwall, ON K6J 1G5", "city": "Cornwall", "phone": "+1 613-261-7852", "website": "http://www.drcharlebois.com/", "rating": 4.6, "reviews": 0, "place_id": "ChIJpz9k-FIXzEwRTmbLIIFGnmY", "latitude": 45.0170495, "longitude": -74.731259, "care_type": "Plastic Surgeon"}, {"name": "Be Beautiful Medical", "address": "20 Montreal Rd, Cornwall, ON K6H 1B1", "city": "Cornwall", "phone": "+1 613-935-3328", "website": "http://bebeautifulmedical.com/", "rating": 4.9, "reviews": 0, "place_id": "ChIJD9mYj3IRzEwRPC_cf3ZWw-c", "latitude": 45.0185731, "longitude": -74.715576, "care_type": "Plastic Surgeon"}, {"name": "Headwaters Plastic Surgery", "address": "19798 Main St unit 101, Alton, ON L7K 0C2", "city": "Alton", "phone": "+1 519-942-2222", "website": "http://headwatersplasticsurgery.ca/", "rating": 4.3, "reviews": 12, "place_id": "ChIJQ9i6HIIHK4gR-ZbFTDpMSh0", "latitude": 43.8601232, "longitude": -80.0688151, "care_type": "Plastic Surgeon"}, {"name": "A Wrinkle In Time Inc.", "address": "150 First St unit g6, Orangeville, ON L9W 3T7", "city": "Orangeville", "phone": "+1 519-941-0142", "website": "http://www.awrinkleintimeinc.ca/", "rating": 4.9, "reviews": 37, "place_id": "ChIJRdZRJIerK4gRS1ayCuelVPA", "latitude": 43.9316696, "longitude": -80.10236619999999, "care_type": "Plastic Surgeon"}, {"name": "Dr. Ashley Kim - Plastic Surgeon", "address": "19798 Main St unit 101, Alton, ON L7K 0C2", "city": "Alton", "phone": "+1 519-942-2222", "website": "https://www.headwatersplasticsurgery.ca/", "rating": 5.0, "reviews": 7, "place_id": "ChIJH74kuDAHK4gRQ7GyRK0x2rU", "latitude": 43.8602193, "longitude": -80.0687638, "care_type": "Plastic Surgeon"}, {"name": "Dr. Rebecca Greer-Bayramoglu", "address": "19798 Main St unit 101, Alton, ON L7K 0C2", "city": "Alton", "phone": "+1 519-942-2222", "website": "https://headwatersplasticsurgery.ca/", "rating": 3.3, "reviews": 8, "place_id": "ChIJC8LCNIgHK4gR6Juz7Yyno7E", "latitude": 43.8602003, "longitude": -80.0687768, "care_type": "Plastic Surgeon"}, {"name": "Skin Appeal", "address": "75 Broadway, Orangeville, ON L9W 1K1", "city": "Orangeville", "phone": "+1 519-307-7546", "website": "https://skinappeal.ca/", "rating": 5.0, "reviews": 15, "place_id": "ChIJedM8JXaqK4gR7hLXjXcEepQ", "latitude": 43.92045969999999, "longitude": -80.0929941, "care_type": "Plastic Surgeon"}, {"name": "Pamela's Place Skin Clinic", "address": "41 Broadway, Orangeville, ON L9W 1J7", "city": "Orangeville", "phone": "+1 519-215-3903", "website": "https://pamelasplace.ca/", "rating": 5.0, "reviews": 24, "place_id": "ChIJ7WUQfSSrK4gRqeCDsqGNPjQ", "latitude": 43.9217525, "longitude": -80.0894709, "care_type": "Plastic Surgeon"}, {"name": "Rachel Ruppel, MD - Laser Hair Removal Specialist", "address": "1243 Islington Ave. Unit 1000, Etobicoke, ON M8X 1Y9", "city": "Etobicoke", "phone": "+1 416-231-0100", "website": "https://kingswaydermatology.ca/dr-rachel-ruppel/%3Futm_source%3DGoogle%26utm_medium%3DGBP%26utm_id%3DProvider", "rating": 5.0, "reviews": 34, "place_id": "ChIJyYfXBCk3K4gRXCa1AequwHI", "latitude": 43.6459586, "longitude": -79.5235129, "care_type": "Plastic Surgeon"}, {"name": "Kingsway Dermatology & Cosmetic Centre", "address": "1243 Islington Ave. Unit 1000, Etobicoke, ON M8X 1Y9", "city": "Etobicoke", "phone": "+1 416-231-0100", "website": "https://kingswaydermatology.ca/%3Futm_source%3DOffSite%26utm_medium%3DGMBandOtherOffSiteDirectories", "rating": 4.4, "reviews": 454, "place_id": "ChIJKZ84_q43K4gRgTbzToOzgWM", "latitude": 43.6458704, "longitude": -79.5235419, "care_type": "Plastic Surgeon"}, {"name": "Dr. Schiller Petra", "address": "1100 Sheppard Ave E #406, North York, ON M2K 2V9", "city": "North York", "phone": "+1 416-492-3613", "website": "", "rating": 4.6, "reviews": 44, "place_id": "ChIJmafe4LfS1IkRVhLYQoujW8M", "latitude": 43.7712318, "longitude": -79.36902359999999, "care_type": "Plastic Surgeon"}, {"name": "The Cosmetic Clinic- North Bay", "address": "189 Wyld St unit 101, North Bay, ON P1B 1Z2", "city": "North Bay", "phone": "+1 705-478-8478", "website": "http://www.thecosmeticclinic.ca/", "rating": 5.0, "reviews": 77, "place_id": "ChIJaz8fOGCrKU0RvRtMs1pxluE", "latitude": 46.3085017, "longitude": -79.4634057, "care_type": "Plastic Surgeon"}, {"name": "Subtle Aesthetics", "address": "1350 Fisher St Unit 111, North Bay, ON P1B 2G9", "city": "North Bay", "phone": "+1 705-825-2520", "website": "https://www.subtleaesthetics.ca/", "rating": 5.0, "reviews": 154, "place_id": "ChIJW0EqWzmrKU0RVpG0j0xKqJU", "latitude": 46.3129333, "longitude": -79.44599199999999, "care_type": "Plastic Surgeon"}, {"name": "NewDermaMed Cosmetic and Advanced Laser Clinic", "address": "790 Bay St. #900, Toronto, ON M5G 1N8", "city": "Toronto", "phone": "+1 416-671-9766", "website": "https://www.newdermamedlaserclinic.com/%3Futm_source%3Dgoogle%26utm_medium%3Dorganic%26utm_campaign%3Dgmb", "rating": 4.2, "reviews": 240, "place_id": "ChIJzUOYdbY0K4gRZGKgan7DE2I", "latitude": 43.6604652, "longitude": -79.3859329, "care_type": "Plastic Surgeon"}, {"name": "Canadian Plastic Surgery Centre - Scarborough Location", "address": "Centenary Hospital, Main Atrium, 2863 Ellesmere Rd suite 201, Scarborough, ON M1E 5E9", "city": "CA", "phone": "+1 437-523-4196", "website": "https://www.canadiansurgery.com/", "rating": 4.5, "reviews": 44, "place_id": "ChIJq6qqfoTQ1IkRwRvx6gcw-5g", "latitude": 43.780713, "longitude": -79.2051778, "care_type": "Plastic Surgeon"}, {"name": "NORDA SKIN (Formerly Cusp Medical Aesthetics)", "address": "2650 Trout Lake Rd, North Bay, ON P1B 7S7", "city": "North Bay", "phone": "+1 705-492-2422", "website": "https://www.nordaskin.ca/", "rating": 4.9, "reviews": 18, "place_id": "ChIJHSjWLHMBKU0R48g4Y74eJ34", "latitude": 46.3242583, "longitude": -79.4309207, "care_type": "Plastic Surgeon"}, {"name": "Skinjectables", "address": "100 Front St W Level D, Toronto, ON M5J 1E3", "city": "Toronto", "phone": "+1 416-546-5200", "website": "https://skinjectables.ca/%3Futm_source%3Dlocalsearch%26utm_medium%3Dorganic%26utm_campaign%3Dgooglemybusiness", "rating": 4.7, "reviews": 187, "place_id": "ChIJWUABQNM0K4gRT1Jw7cZeEwY", "latitude": 43.645905, "longitude": -79.381464, "care_type": "Plastic Surgeon"}, {"name": "Perfecta Cosmetic Clinic", "address": "2275 Lake Shore Blvd W Unit 334, Etobicoke, ON M8V 3Y3", "city": "Etobicoke", "phone": "+1 416-419-4495", "website": "https://www.perfectacosmeticclinic.com/", "rating": 4.0, "reviews": 125, "place_id": "ChIJ6R-s4hI3K4gRtM-vO60kk54", "latitude": 43.6195575, "longitude": -79.48519859999999, "care_type": "Plastic Surgeon"}, {"name": "Mount Logan Rhinoplasty Clinic", "address": "106 Main St E, North Bay, ON P1B 1A9", "city": "North Bay", "phone": "", "website": "https://north-bay.elegantnoseenhance.com/", "rating": null, "reviews": 0, "place_id": "ChIJLVgPUVKrKU0R-w-kdQnVgzc", "latitude": 46.3103414, "longitude": -79.4637011, "care_type": "Plastic Surgeon"}, {"name": "Forever Youth Aesthetics Inc.", "address": "27 Wims Wy, Belleville, ON K8N 0H9", "city": "Belleville", "phone": "+1 613-661-4565", "website": "https://www.foreveryouthaesthetics.com/", "rating": 4.9, "reviews": 0, "place_id": "ChIJ5ylElXYl1okRfawr8qbkBE8", "latitude": 44.21518529999999, "longitude": -77.3960506, "care_type": "Plastic Surgeon"}, {"name": "HYACINTH Medical Aesthetics", "address": "25 Campbell St Unit 2, Belleville, ON K8N 1S6", "city": "Belleville", "phone": "", "website": "", "rating": 5.0, "reviews": 0, "place_id": "ChIJZ_a316kv1okRCVy49JjXgVM", "latitude": 44.1649657, "longitude": -77.3835483, "care_type": "Plastic Surgeon"}, {"name": "Aesthetics By The Bay", "address": "274 Dundas St E Unit 302, Belleville, ON K8N 5A9", "city": "Belleville", "phone": "+1 289-455-0271", "website": "http://www.aestheticsbythebay.ca/", "rating": 5.0, "reviews": 0, "place_id": "ChIJ5z08p5Qv1okRNZZC8Qes010", "latitude": 44.1642709, "longitude": -77.364254, "care_type": "Plastic Surgeon"}, {"name": "SkinBeautiful Medispa", "address": "106 Pinnacle St, Belleville, ON K8N 5P5", "city": "Belleville", "phone": "+1 613-707-7178", "website": "https://skinbeautiful.ca/%3Futm_source%3Dgoogle%26utm_medium%3Dorganic%26utm_campaign%3Dgbp-listing", "rating": 4.7, "reviews": 0, "place_id": "ChIJNYrggF4l1okRkDNezhqpKFA", "latitude": 44.1597733, "longitude": -77.380794, "care_type": "Plastic Surgeon"}, {"name": "The Beauty Collective", "address": "6835 ON-62, Belleville, ON K8N 0L9", "city": "Belleville", "phone": "+1 613-771-0880", "website": "http://www.beautycollective.ca/", "rating": 4.8, "reviews": 0, "place_id": "ChIJMYKdQuAl1okRDnS1RImPWtE", "latitude": 44.2093032, "longitude": -77.4085079, "care_type": "Plastic Surgeon"}, {"name": "NUYU Laser & Skin Rejuvenation", "address": "Komosis Hair Studio, 215 Herchimer Ave, Belleville, ON K8N 4G9", "city": "Belleville", "phone": "+1 613-968-1399", "website": "http://nuyulaserskin.ca/", "rating": 5.0, "reviews": 42, "place_id": "ChIJ9_FWS-Av1okRajds5k4wVUI", "latitude": 44.17055149999999, "longitude": -77.3573907, "care_type": "Plastic Surgeon"}, {"name": "Dr. Mark R Thibert", "address": "1265 Arthur St E, Thunder Bay, ON P7E 5H7", "city": "Thunder Bay", "phone": "+1 807-346-5939", "website": "http://plasticsurgerynw.ca/about-us/", "rating": 3.0, "reviews": 22, "place_id": "ChIJORYRjkMfWU0Rw-8fLvRz1Bg", "latitude": 48.3811896, "longitude": -89.25476359999999, "care_type": "Plastic Surgeon"}, {"name": "Young Peter Dr", "address": "211 Martindale Rd, St. Catharines, ON L2S 3V7", "city": "St. Catharines", "phone": "+1 905-988-6153", "website": "http://youngclinic.ca/", "rating": 4.4, "reviews": 20, "place_id": "ChIJBWbI3spR04kRi7WB2tlhL5c", "latitude": 43.17149999999999, "longitude": -79.2742518, "care_type": "Plastic Surgeon"}, {"name": "Perfect Reflections", "address": "211 Martindale Rd, St. Catharines, ON L2S 3H9", "city": "St. Catharines", "phone": "+1 905-988-6153", "website": "https://www.youngclinic.ca/", "rating": 4.4, "reviews": 17, "place_id": "ChIJZZcO_XVR04kRu-5jxl1Wmcg", "latitude": 43.1712543, "longitude": -79.27408199999999, "care_type": "Plastic Surgeon"}, {"name": "CAllen Cosmetic Centre, Inc", "address": "365 Vine St Unit #3, St. Catharines, ON L2M 4T9", "city": "St. Catharines", "phone": "+1 289-783-3393", "website": "https://callencosmetic.ca/", "rating": 5.0, "reviews": 32, "place_id": "ChIJOQd8vE5R04kRKJN2zMA7W4M", "latitude": 43.1856172, "longitude": -79.2314138, "care_type": "Plastic Surgeon"}, {"name": "Dr. Jane Burk-Vassallo - aspireMD", "address": "100 Fourth Ave, St. Catharines, ON L2S 3P1", "city": "St. Catharines", "phone": "+1 905-397-1122", "website": "http://www.aspiremd.ca/", "rating": 4.9, "reviews": 498, "place_id": "ChIJZR2LV7lR04kRx_1lXOxkDR0", "latitude": 43.155314, "longitude": -79.26264499999999, "care_type": "Plastic Surgeon"}, {"name": "Timeless by Tanya", "address": "350 Ontario St, St. Catharines, ON L2R 5L8", "city": "St. Catharines", "phone": "+1 905-933-1439", "website": "", "rating": 5.0, "reviews": 83, "place_id": "ChIJRYGRNmtR04kRTuzC0PkZzPc", "latitude": 43.1718331, "longitude": -79.2635039, "care_type": "Plastic Surgeon"}, {"name": "Dr. Jeff M Robichaud", "address": "23 Hannover Dr unit # 5, St. Catharines, ON L2W 1A3", "city": "St. Catharines", "phone": "+1 905-685-0267", "website": "http://www.niagararhinoplasty.com/", "rating": 4.2, "reviews": 75, "place_id": "ChIJw8iTcuoxWkARMjuIG-5RVoY", "latitude": 43.1726188, "longitude": -79.27519219999999, "care_type": "Plastic Surgeon"}, {"name": "Aegis MD - Medical Aesthetic Clinic in St. Catharines and Niagara - Partner of Group Dermapure Inc", "address": "300E Fourth Ave, St. Catharines, ON L2S 0E6", "city": "St. Catharines", "phone": "+1 289-277-4692", "website": "https://aegismd.ca/", "rating": 4.9, "reviews": 279, "place_id": "ChIJZR2LV7lR04kRf8Eiw3cETYg", "latitude": 43.1543321, "longitude": -79.27554719999999, "care_type": "Plastic Surgeon"}, {"name": "Brigitte Biller Cosmetic Medical Laser Clinic", "address": "43 Church St, St. Catharines, ON L2R 7E1", "city": "St. Catharines", "phone": "+1 365-880-8286", "website": "http://www.brigittebillercosmetic.com/", "rating": 4.9, "reviews": 83, "place_id": "ChIJ8Vo5IddD04kRWPmuNrO0gYs", "latitude": 43.1595854, "longitude": -79.24850219999999, "care_type": "Plastic Surgeon"}, {"name": "Affordable Laser Clinic", "address": "9 Court St, St. Catharines, ON L2R 4R3", "city": "St. Catharines", "phone": "+1 905-682-8935", "website": "", "rating": 3.5, "reviews": 2, "place_id": "ChIJYTX0eQlR04kRFMRuD37besw", "latitude": 43.161403, "longitude": -79.2415334, "care_type": "Plastic Surgeon"}, {"name": "Perfect Reflections Laser Skin", "address": "105 Queenston St #202A, St. Catharines, ON L2R 2Z5", "city": "St. Catharines", "phone": "+1 905-988-6153", "website": "", "rating": null, "reviews": 0, "place_id": "ChIJO269_FlQ04kRRSN_T_dlJEo", "latitude": 43.163633, "longitude": -79.2335366, "care_type": "Plastic Surgeon"}, {"name": "Vive MediSpa - Medical Aesthetics Clinic Cambridge", "address": "Total Hearing building, 667 Coronation Blvd, Cambridge, ON N1R 8L4", "city": "Cambridge", "phone": "+1 519-624-8877", "website": "https://vivemedispa.ca/%3Futm_source%3Dgoogle%26utm_medium%3Dorganic%26utm_campaign%3Dgmb", "rating": 4.4, "reviews": 36, "place_id": "ChIJj0o96R53LIgRrq_mw2gA_4k", "latitude": 43.3789096, "longitude": -80.32733759999999, "care_type": "Plastic Surgeon"}, {"name": "Dr Takhar's Cosmetic Clinic", "address": "1150 Franklin Blvd #103, Cambridge, ON N1R 7J2", "city": "Cambridge", "phone": "+1 519-621-4545", "website": "http://drtakhar.com/", "rating": 4.2, "reviews": 88, "place_id": "ChIJBcMBzDGIK4gRaSAsmeVmoTE", "latitude": 43.4002614, "longitude": -80.3057079, "care_type": "Plastic Surgeon"}, {"name": "Infinity Cosmetic Clinic", "address": "182 Pinebush Rd, Cambridge, ON N1R 7H8", "city": "Cambridge", "phone": "+1 519-740-7555", "website": "https://infinitycosmeticclinic.com/contact-us/", "rating": 4.9, "reviews": 148, "place_id": "ChIJW1ZvOPGJK4gR9_4gRECLOPY", "latitude": 43.4121786, "longitude": -80.312338, "care_type": "Plastic Surgeon"}, {"name": "Cambridge Skin and Wellness", "address": "697 Coronation Blvd #5, Cambridge, ON N1R 3G5", "city": "Cambridge", "phone": "+1 519-622-7546", "website": "https://www.cambridgeskinandwellness.com/", "rating": 5.0, "reviews": 167, "place_id": "ChIJ4RUHFnVtLIgRMqZ3mYp0D_I", "latitude": 43.3806082, "longitude": -80.3300544, "care_type": "Plastic Surgeon"}, {"name": "Guelph Facial Plastics", "address": "834 Gordon St, Guelph, ON N1G 1Y7", "city": "Guelph", "phone": "+1 226-702-8830", "website": "https://www.facialplastics.ca/%3Futm_source%3Dgooglemybusiness%26utm_medium%3Dorganic%26utm_campaign%3DGoogle%2520My%2520Business", "rating": 4.8, "reviews": 194, "place_id": "ChIJY4WHnIOaK4gRLW1D7OMHep0", "latitude": 43.5249243, "longitude": -80.2177964, "care_type": "Plastic Surgeon"}, {"name": "New Age Laser Clinic", "address": "136 St Andrews St, Cambridge, ON N1S 1M9", "city": "Cambridge", "phone": "+1 519-621-2242", "website": "https://newagelaser.com/%3Futm_source%3DGoogle%2520My%2520Business%26utm_medium%3DGoogle%2520My%2520Business%26utm_campaign%3DGoogle%2520My%2520Business", "rating": 4.1, "reviews": 119, "place_id": "ChIJFdzXfk12LIgRWre-3mlk5vM", "latitude": 43.352598, "longitude": -80.32388569999999, "care_type": "Plastic Surgeon"}, {"name": "North Toronto Laser Med Clinic", "address": "4646 Dufferin St Unit #5a, North York, ON M3H 5S4", "city": "North York", "phone": "+1 647-348-4363", "website": "https://www.torontolasermedclinic.com/", "rating": 4.9, "reviews": 87, "place_id": "ChIJCxn3ZOItK4gR_Op4hdXLIpc", "latitude": 43.7737458, "longitude": -79.4695583, "care_type": "Plastic Surgeon"}, {"name": "Skinsational Medical Clinic", "address": "29 Ainslie St N, Cambridge, ON N1R 3J3", "city": "Cambridge", "phone": "+1 519-717-8228", "website": "https://skinsational-medical-clinic.mailchimpsites.com/%3Ffbclid%3DPAAaa-pmW0xD80IcjKhYHkThHLx7Lmh6ZrFoyLVl7T_17TnHoOk4aKYGzs_7I_aem_Adm7qgKQd1EHd8_jo6G0Mg56yLyV5-qVrVCktIdo5hcVdZDqRzGiWyBk25up3fKCEY0", "rating": 5.0, "reviews": 17, "place_id": "ChIJWbXyi1OZLIgRx85I31A237I", "latitude": 43.3596698, "longitude": -80.31337649999999, "care_type": "Plastic Surgeon"}, {"name": "Skin Vitality Medical Clinic Kitchener", "address": "4281 King St E, Kitchener, ON N2P 2E9", "city": "Kitchener", "phone": "+1 519-650-4100", "website": "https://www.skinvitality.ca/kitchener/%3Fsrc%3D7014X000001yGl0", "rating": 4.4, "reviews": 1051, "place_id": "ChIJ4cMEIUOKK4gRs3HC2htSn6I", "latitude": 43.4089546, "longitude": -80.39969839999999, "care_type": "Plastic Surgeon"}, {"name": "Whitby Medspa", "address": "Whitby Mall, 1615 Dundas St E #16, Whitby, ON L1N 2L1", "city": "Whitby", "phone": "+1 905-245-0477", "website": "http://www.whitbymedspa.com/", "rating": 4.9, "reviews": 86, "place_id": "ChIJcbH158Yd1YkROzTI1gZoCX8", "latitude": 43.8840827, "longitude": -78.90942969999999, "care_type": "Plastic Surgeon"}, {"name": "Avenue Plastic Surgery", "address": "1533 Dundas St E, Whitby, ON L1N 2K6", "city": "Whitby", "phone": "+1 416-789-9979", "website": "https://avenueplasticsurgery.ca/", "rating": 4.5, "reviews": 22, "place_id": "ChIJ83d_lxsd1YkRUYWKSVffM9E", "latitude": 43.8857502, "longitude": -78.91464739999999, "care_type": "Plastic Surgeon"}, {"name": "Ford Plastic Surgery: Dr. Derek Ford", "address": "419 King St W #305, Oshawa, ON L1J 2K5", "city": "Oshawa", "phone": "+1 905-743-9888", "website": "https://www.fordplasticsurgery.com/contact/%3Futm_source%3Dgoogle%26utm_medium%3Dlocal%26utm_campaign%3Doshawa-practice-website", "rating": 4.4, "reviews": 38, "place_id": "ChIJ71ijPAEd1YkR8WNU4861MPI", "latitude": 43.89060509999999, "longitude": -78.8797613, "care_type": "Plastic Surgeon"}, {"name": "Dr. Vishal K. Sharma, Plastic Surgeon (Durham Plastic Surgery Centre)", "address": "of Jerry Coughlan Health & Wellness Centre, 1690 Dersan St Suite 250 2nd floor, Pickering, ON L1X 0E3", "city": "Pickering", "phone": "+1 905-426-2815", "website": "http://www.durhamplasticsurgery.ca/", "rating": 4.9, "reviews": 58, "place_id": "ChIJtdcNgNff1IkRRtRf6PLvSBw", "latitude": 43.8753568, "longitude": -79.0866451, "care_type": "Plastic Surgeon"}, {"name": "MD Aesthetics, COPELAND MD", "address": "728 Anderson St, Whitby, ON L1N 6Z3", "city": "Whitby", "phone": "+1 905-666-5117", "website": "http://www.mdaesthetics.ca/", "rating": 4.9, "reviews": 163, "place_id": "ChIJLSkT-9Ud1YkROsCf3HC8S3k", "latitude": 43.8945611, "longitude": -78.92834839999999, "care_type": "Plastic Surgeon"}, {"name": "Office of Dr. Jessica Truong", "address": "1300 Keith Ross Dr, Oshawa, ON L1L 0N9", "city": "Oshawa", "phone": "+1 905-721-7002", "website": "https://oshawaclinic.com/", "rating": 4.7, "reviews": 3, "place_id": "ChIJDeoaHw4d1YkR9NcKE24i5Oc", "latitude": 43.927152, "longitude": -78.9031456, "care_type": "Plastic Surgeon"}, {"name": "Dr. Phil Narini, MD, FRCS, FACS", "address": "1300 Keith Ross Dr, Oshawa, ON L1L 0N9", "city": "Oshawa", "phone": "+1 905-721-6188", "website": "", "rating": 4.0, "reviews": 21, "place_id": "ChIJd4L5N84d1YkRm0sxRC3DzKY", "latitude": 43.927152, "longitude": -78.9031456, "care_type": "Plastic Surgeon"}, {"name": "Brampton Cosmetic Surgery Centre & Medical Spa", "address": "111 Queen St E Unit 2-4, Brampton, ON L6W 0A8", "city": "Brampton", "phone": "+1 905-451-5855", "website": "https://www.bramptoncosmetic.com/", "rating": 4.0, "reviews": 86, "place_id": "ChIJfRNs4pIVK4gRbDgXF_j1WLs", "latitude": 43.68963, "longitude": -79.7554777, "care_type": "Plastic Surgeon"}, {"name": "Robert Sleightholm", "address": "111 Queen St E Unit 2-4, Brampton, ON L6W 0A8", "city": "Brampton", "phone": "+1 905-451-5855", "website": "http://robertsleightholm.com/", "rating": 4.7, "reviews": 13, "place_id": "ChIJAw6qN_IVK4gR0oIz1F5rRnQ", "latitude": 43.6895536, "longitude": -79.75558579999999, "care_type": "Plastic Surgeon"}, {"name": "Dr. Daniel Waltho - Plastic Surgery", "address": "5045 Mainway Unit 110, Burlington, ON L7L 5H9", "city": "Burlington", "phone": "+1 905-315-1711", "website": "https://www.walthoplasticsurgery.com/", "rating": 4.9, "reviews": 29, "place_id": "ChIJqxpehWtdK4gRh97x1kVvHB0", "latitude": 43.39014, "longitude": -79.77846, "care_type": "Plastic Surgeon"}, {"name": "McRae Plastic Surgery", "address": "4300 Upper Middle Rd, Burlington, ON L7M 4P6", "city": "Burlington", "phone": "+1 416-638-3499", "website": "https://mcraeplasticsurgery.com/%3Futm_source%3Dgmb%26utm_medium%3Dorganic%26utm_campaign%3Dlocal_listing_Burlington", "rating": 4.9, "reviews": 116, "place_id": "ChIJ6cs6pp-bLIgRjE8eH0UksGU", "latitude": 43.3889772, "longitude": -79.7941539, "care_type": "Plastic Surgeon"}, {"name": "Appleby Plastic Surgery", "address": "5045 Mainway, Burlington, ON L7L 5H9", "city": "Burlington", "phone": "+1 905-315-1711", "website": "http://www.applebyplasticsurgery.com/", "rating": 4.2, "reviews": 5, "place_id": "ChIJGUTHys9hK4gRerNeLidi-p0", "latitude": 43.39014, "longitude": -79.77846, "care_type": "Plastic Surgeon"}, {"name": "VIP MEDSPA - Aesthetic & Wellness Clinic", "address": "99 Sinclair Ave Suite 208, Halton Hills, ON L7G 1J4", "city": "Halton Hills", "phone": "+1 437-848-7546", "website": "http://www.vipmedspa.ca/", "rating": 4.8, "reviews": 56, "place_id": "ChIJi5wCcw0TK4gRXO0n3JAO2vg", "latitude": 43.6486802, "longitude": -79.8947951, "care_type": "Plastic Surgeon"}, {"name": "Med-Aesthetics Botox Clinic", "address": "247 Main St N second floor, Brampton, ON L6X 1N3", "city": "Brampton", "phone": "+1 905-451-7241", "website": "http://www.med-aesthetics.com/", "rating": 5.0, "reviews": 3, "place_id": "ChIJs8RqFTIUK4gRPz6gukygbCk", "latitude": 43.6923554, "longitude": -79.7696606, "care_type": "Plastic Surgeon"}, {"name": "Dr. Jessica Shih, MD, FRCS(C) - Burlington Plastic Surgery", "address": "895 Brant St Suite 6, Burlington, ON L7R 2J6", "city": "Burlington", "phone": "+1 905-333-9889", "website": "http://drshih.ca/", "rating": 4.8, "reviews": 17, "place_id": "ChIJ154gl9L3K4gRXelMIH2FGbg", "latitude": 43.3363833, "longitude": -79.812821, "care_type": "Plastic Surgeon"}, {"name": "The MedSpa at Burlington Plastic Surgery", "address": "895 Brant St Suite 6, Burlington, ON L7R 2J6", "city": "Burlington", "phone": "+1 905-333-9889", "website": "https://burlingtonplasticsurgery.ca//%3Futm_source%3Dgbp%26utm_medium%3Dorganic", "rating": 4.6, "reviews": 23, "place_id": "ChIJcxdSbAphK4gRvNis2zs1lyw", "latitude": 43.33639549999999, "longitude": -79.8128175, "care_type": "Plastic Surgeon"}, {"name": "Re-Juvenation Cosmedical Injectables & Laser", "address": "78 Main St S, Georgetown, ON L7G 3G3", "city": "Georgetown", "phone": "+1 905-877-8047", "website": "https://re-juvenation.ca/", "rating": 5.0, "reviews": 155, "place_id": "ChIJGWKFlyoXK4gRYlvazxeRB48", "latitude": 43.6493058, "longitude": -79.9264359, "care_type": "Plastic Surgeon"}, {"name": "Dr. Deniz - Burlington Plastic Surgery", "address": "895 Brant St Suite 6, Burlington, ON L7R 2J6", "city": "Burlington", "phone": "+1 905-333-9889", "website": "http://burlingtonplasticsurgery.ca/", "rating": 5.0, "reviews": 4, "place_id": "ChIJe4TSYFxhK4gRmKJ-uXO_NHY", "latitude": 43.33639549999999, "longitude": -79.8128175, "care_type": "Plastic Surgeon"}, {"name": "Skin Vitality Medical Clinic Milton", "address": "1250 Steeles Ave E Unit 5B, Milton, ON L9T 6R1", "city": "Milton", "phone": "+1 289-272-2422", "website": "https://www.skinvitality.ca/milton/%3Fsrc%3D7014X000001yGl0", "rating": 4.6, "reviews": 534, "place_id": "ChIJU5meCrhvK4gRWMPY-QiORe4", "latitude": 43.5433464, "longitude": -79.86876819999999, "care_type": "Plastic Surgeon"}, {"name": "Ace of Spades Aesthetics", "address": "97 Winners Cir, Brampton, ON L7A 1M2", "city": "Brampton", "phone": "+1 647-216-9662", "website": "http://www.aceofspadesaesthetics.com/", "rating": 4.7, "reviews": 29, "place_id": "ChIJW-QyU2MVK4gRtMFQ_KskFYg", "latitude": 43.7096676, "longitude": -79.8132368, "care_type": "Plastic Surgeon"}, {"name": "Dr. Nicolas Hynes", "address": "199 MacNab St S, Hamilton, ON L8P 3C8", "city": "Hamilton", "phone": "+1 866-645-5743", "website": "http://www.lotuscosmeticsurgery.com/", "rating": 3.9, "reviews": 64, "place_id": "ChIJZ3X3Cp6bLIgR2obe3uV6v98", "latitude": 43.2505056, "longitude": -79.87322449999999, "care_type": "Plastic Surgeon"}, {"name": "Dr. Jessica Shih, MD - Milton Office", "address": "44 Main St E 2nd Floor, Milton, ON L9T 1N3", "city": "Milton", "phone": "+1 905-333-3711", "website": "http://drshih.ca/", "rating": null, "reviews": 0, "place_id": "ChIJ8VCGPsFvK4gR3SXExSwm3Ew", "latitude": 43.5094293, "longitude": -79.88686369999999, "care_type": "Plastic Surgeon"}, {"name": "Vivid Cosmetic Clinic", "address": "430 The Queensway S, Keswick, ON L4P 2E1", "city": "Keswick", "phone": "+1 905-252-3130", "website": "https://vividcosmeticclinic.ca/", "rating": 5.0, "reviews": 85, "place_id": "ChIJEcjMs8PLKogRojLpfJaBTkY", "latitude": 44.2151871, "longitude": -79.4650482, "care_type": "Plastic Surgeon"}, {"name": "Zoe Plastic Surgery Clinic", "address": "Third floor, 15 Gallie Ct Suite 307, Barrie, ON L4M 7G1", "city": "Barrie", "phone": "+1 705-503-3223", "website": "http://www.zoeplastics.com/", "rating": 4.8, "reviews": 24, "place_id": "ChIJhV-PT-2jKogR4SxA9NHm6jY", "latitude": 44.4145102, "longitude": -79.6587186, "care_type": "Plastic Surgeon"},