[{"name": "Rachel A. Sullivan, MD", "address": "950 Warren Ave suite 301, East Providence, RI 02914", "city": "East Providence", "phone": "+1 401-444-7546", "website": "https://www.brownhealth.org/providers/rachel-sullivan-md", "rating": 4.2, "reviews": 30, "place_id": "ChIJnxZNF2ZF5IkRq763W2CGjms", "latitude": 41.808411, "longitude": -71.3455267, "care_type": "Plastic Surgeon"}, {"name": "Lauren Roussel, MD", "address": "950 Warren Ave suite 301, East Providence, RI 02914", "city": "East Providence", "phone": "+1 401-444-7546", "website": "https://www.brownhealth.org/providers/lauren-roussel-md", "rating": 4.5, "reviews": 15, "place_id": "ChIJf-x3QWhF5IkRnqc8GYCkt8s", "latitude": 41.808411, "longitude": -71.3455267, "care_type": "Plastic Surgeon"}, {"name": "Patrick K. Sullivan, M.D.", "address": "BAYSIDE MEDICAL BUILDING, 235 Plain St STE 502, Providence, RI 02905", "city": "Providence", "phone": "+1 401-831-8300", "website": "https://www.drsullivan.com/", "rating": 4.8, "reviews": 131, "place_id": "ChIJnxZNF2ZF5IkRhG5zcCMyhd0", "latitude": 41.809105, "longitude": -71.411106, "care_type": "Plastic Surgeon"}, {"name": "Rizzuto Eyelid and Facial Plastic Surgery", "address": "120 Dudley St # 301, Providence, RI 02905", "city": "Providence", "phone": "+1 401-274-6622", "website": "https://drrizzuto.com/", "rating": 4.9, "reviews": 514, "place_id": "ChIJBY5c_mVF5IkRVSp9HXfc1wY", "latitude": 41.8097845, "longitude": -71.4122641, "care_type": "Plastic Surgeon"}, {"name": "Andrea M Doyle MD Plastic Surgery & Aesthetics", "address": "1350 Division Rd Suite 303, West Warwick, RI 02893", "city": "West Warwick", "phone": "+1 401-336-3770", "website": "https://www.amdplasticsurgery.com/", "rating": 4.8, "reviews": 152, "place_id": "ChIJtz93Tre05YkRjJqPB6WP404", "latitude": 41.6653841, "longitude": -71.5006049, "care_type": "Plastic Surgeon"}, {"name": "Richard Zienowicz / bodybyZ Plastic Surgery", "address": "113 Wickenden St, Providence, RI 02903", "city": "Providence", "phone": "+1 401-453-0120", "website": "http://www.bodybyz.com/", "rating": 4.9, "reviews": 222, "place_id": "ChIJh6suamhF5IkRDzWCR3ET3fo", "latitude": 41.8181022, "longitude": -71.4018064, "care_type": "Plastic Surgeon"}, {"name": "Jonathan P. Brower, MD / Brower Plastic Surgery", "address": "235 Plain St STE 202, Providence, RI 02905", "city": "Providence", "phone": "+1 401-425-5232", "website": "http://www.browerplasticsurgery.com/%3Futm_source%3Dgoogle%26utm_medium%3Dorganic%26utm_campaign%3Dgbp", "rating": 4.9, "reviews": 88, "place_id": "ChIJhyKSYD9F5IkR9gDJoUYAm8w", "latitude": 41.809209, "longitude": -71.4110231, "care_type": "Plastic Surgeon"}, {"name": "Aspire Dermatology - Barrington Medical Center", "address": "1525 Wampanoag Trl #203, Riverside, RI 02915", "city": "Riverside", "phone": "+1 401-239-1800", "website": "https://www.aspiredermatology.com/", "rating": 4.9, "reviews": 874, "place_id": "ChIJJx--8I5Q5IkRtbxUSeQlNOo", "latitude": 41.7735262, "longitude": -71.3264452, "care_type": "Plastic Surgeon"}, {"name": "South County Dermatology - Barrington", "address": "338B County Rd, Barrington, RI 02806", "city": "Barrington", "phone": "+1 401-471-3376", "website": "http://www.southcountyriderm.com/", "rating": 5.0, "reviews": 338, "place_id": "ChIJV5AYSBpR5IkR4Klo3TcIW2U", "latitude": 41.7422294, "longitude": -71.3115005, "care_type": "Plastic Surgeon"}, {"name": "Enzer & Associates, PC", "address": "120 Dudley St Suite 104, Providence, RI 02905", "city": "Providence", "phone": "+1 401-274-4464", "website": "http://www.doctorenzer.com/", "rating": 4.8, "reviews": 110, "place_id": "ChIJBY5c_mVF5IkRhCHBSo_5UpQ", "latitude": 41.8097845, "longitude": -71.4122641, "care_type": "Plastic Surgeon"}, {"name": "Coastal Plastic Surgery Center: Dr. Leon Goldstein", "address": "235 Plain St STE 103, Providence, RI 02905", "city": "Providence", "phone": "+1 401-521-5700", "website": "http://www.cosmetic-surg.com/", "rating": 3.9, "reviews": 22, "place_id": "ChIJBY5c_mVF5IkREnExzuWtgRM", "latitude": 41.809209, "longitude": -71.4110231, "care_type": "Plastic Surgeon"}, {"name": "Reconstructive and Aesthetic Plastic Surgery, Providence", "address": "235 Plain St STE 501, Providence, RI 02903", "city": "Providence", "phone": "+1 401-444-5495", "website": "https://www.brownhealth.org/centers-services/plastic-surgery", "rating": 5.0, "reviews": 1, "place_id": "ChIJ4VBKZbJF5IkRi9LBP3F6wEU", "latitude": 41.8090973, "longitude": -71.4110975, "care_type": "Plastic Surgeon"}, {"name": "Polacek Center for Plastic Surgery: Lori G. Polacek, MD", "address": "2000 Chapel View Blvd #110, Cranston, RI 02920", "city": "Cranston", "phone": "+1 401-331-0202", "website": "https://www.polacekplasticsurgery.com/", "rating": 4.8, "reviews": 128, "place_id": "ChIJ_Vam4sNO5IkRJ2EAGpIh6W4", "latitude": 41.7571164, "longitude": -71.4597671, "care_type": "Plastic Surgeon"}, {"name": "Skinsational Laser and Liposculpture Center by Dr. Luciano", "address": "1 Randall Square Suite 405, Providence, RI 02904", "city": "Providence", "phone": "+1 401-237-4305", "website": "https://skinsationallasercenter.com/%3Futm_campaign%3Dgmb", "rating": 4.7, "reviews": 297, "place_id": "ChIJXXJQQh5F5IkRWbmYUyzRdpc", "latitude": 41.8369587, "longitude": -71.41045869999999, "care_type": "Plastic Surgeon"}, {"name": "Polacek Center for Plastic Surgery", "address": "2000 Chapel View Blvd #110, Cranston, RI 02920", "city": "Cranston", "phone": "+1 401-331-0202", "website": "http://www.polacekplasticsurgery.com/", "rating": 5.0, "reviews": 3, "place_id": "ChIJ_Vam4sNO5IkRnEzcNC9vark", "latitude": 41.7571581, "longitude": -71.4596901, "care_type": "Plastic Surgeon"}, {"name": "Plastic Surgery at Rhode Island Hospital", "address": "235 Plain Street Bayside Buidling, Providence, RI 02903", "city": "Providence", "phone": "+1 401-444-5495", "website": "https://www.lifespan.org/centers-services/plastic-surgery", "rating": null, "reviews": 0, "place_id": "ChIJdXAwEWZF5IkRJy_BmYmIcTA", "latitude": 41.8090499, "longitude": -71.4110556, "care_type": "Plastic Surgeon"}, {"name": "Pierre R. Michaud, MD", "address": "875 Centerville Rd building 2, Warwick, RI 02886", "city": "Warwick", "phone": "+1 401-828-4840", "website": "http://www.riplasticsurgery.com/", "rating": 4.6, "reviews": 67, "place_id": "ChIJgeRq13dL5IkRZU3BSbNqMLo", "latitude": 41.697993, "longitude": -71.492136, "care_type": "Plastic Surgeon"}, {"name": "Reconstructive and Aesthetic Plastic Surgery", "address": "950 Warren Ave suite 301, East Providence, RI 02914", "city": "East Providence", "phone": "+1 401-444-5495", "website": "https://www.brownhealth.org/centers-services/plastic-surgery", "rating": null, "reviews": 0, "place_id": "ChIJ15LK2X9F5IkRcgJTqUzciHQ", "latitude": 41.808411, "longitude": -71.3455267, "care_type": "Plastic Surgeon"}, {"name": "Brown Health Medical Group Laser and Aesthetic Surgery Center", "address": "950 Warren Ave suite 301, East Providence, RI 02914", "city": "East Providence", "phone": "+1 401-444-7546", "website": "https://www.brownhealth.org/centers-services/laser-and-aesthetic-surgery-center", "rating": null, "reviews": 0, "place_id": "ChIJ19whS41a5IkRNnUhRWtKksU", "latitude": 41.808411, "longitude": -71.3455267, "care_type": "Plastic Surgeon"}, {"name": "Spa No. 5", "address": "1525 Wampanoag Trl UNIT 206, Riverside, RI 02915", "city": "Riverside", "phone": "+1 401-240-0186", "website": "https://www.spa-five.com/", "rating": 4.9, "reviews": 93, "place_id": "ChIJa1ICwNxV5IkRt0ghiBoq7s4", "latitude": 41.7734204, "longitude": -71.326589, "care_type": "Plastic Surgeon"}, {"name": "La Vie En Rose Esthetics - Warren, RI Botox, Laser, Weight loss,Body Sculpting, Infusion, and AviClear Acne Treatment", "address": "585 Main St, Warren, RI 02885", "city": "Warren", "phone": "+1 401-256-5375", "website": "http://www.skinbyrose.com/", "rating": 5.0, "reviews": 61, "place_id": "ChIJp4ScwzIB5YkRQ8kbMN-QfTQ", "latitude": 41.7273565, "longitude": -71.28206399999999, "care_type": "Plastic Surgeon"}, {"name": "Daniel Kwan, MD", "address": "235 Plain St STE 501, Providence, RI 02905", "city": "Providence", "phone": "+1 401-444-5495", "website": "https://www.brownhealth.org/providers/daniel-kwan-md", "rating": 3.8, "reviews": 16, "place_id": "ChIJyyXdqodF5IkRA54eLiDBY_I", "latitude": 41.8090973, "longitude": -71.4110975, "care_type": "Plastic Surgeon"}, {"name": "Albert S. Woo, MD", "address": "2 Dudley St #180, Providence, RI 02903", "city": "Providence", "phone": "+1 401-444-2299", "website": "https://www.brownhealth.org/providers/albert-s-woo-md", "rating": 3.7, "reviews": 9, "place_id": "ChIJPeZscEdF5IkRUi-GzCW8u2Q", "latitude": 41.8103278, "longitude": -71.40816819999999, "care_type": "Plastic Surgeon"}, {"name": "Walter F. Roettinger, MD", "address": "294 Valley Rd Unit 2, Middletown, RI 02842", "city": "Middletown", "phone": "+1 401-849-2826", "website": "https://www.brownhealth.org/providers/walter-f-roettinger-ii-md", "rating": 5.0, "reviews": 1, "place_id": "ChIJs4f5AV2v5YkRp3wLmKVDvac", "latitude": 41.5110295, "longitude": -71.2899606, "care_type": "Plastic Surgeon"}, {"name": "Benjamin P. Christian, MD", "address": "101 Plain St, Providence, RI 02903", "city": "Providence", "phone": "+1 401-736-4592", "website": "", "rating": 4.9, "reviews": 41, "place_id": "ChIJNyC38JF544kR-4qn648ZoBc", "latitude": 41.8134817, "longitude": -71.4128207, "care_type": "Plastic Surgeon"}, {"name": "Brown Health Medical Group Plastic Surgery - Craniofacial", "address": "2 Dudley St Medical Office Center, 180, Providence, RI 02903", "city": "Providence", "phone": "+1 401-444-2299", "website": "https://www.brownhealth.org/centers-services/plastic-surgery", "rating": 5.0, "reviews": 1, "place_id": "ChIJZdi4k99F5IkRgIRyEeaGHRI", "latitude": 41.8103278, "longitude": -71.40816819999999, "care_type": "Plastic Surgeon"}, {"name": "Agape Medical Spa & Weight Loss Center", "address": "1526 Atwood Ave Suite 210, Johnston, RI 02919", "city": "Johnston", "phone": "+1 401-737-7546", "website": "http://agapemedical.com/", "rating": 4.7, "reviews": 115, "place_id": "ChIJFwf2SAhM5IkRuxipEA5sTaU", "latitude": 41.8278933, "longitude": -71.50247259999999, "care_type": "Plastic Surgeon"}, {"name": "Hasbro Children's Hospital Pediatric Plastic Surgery", "address": "BAYSIDE MEDICAL BUILDING, 235 Plain St, Providence, RI 02903", "city": "Providence", "phone": "+1 401-444-2299", "website": "https://www.lifespan.org/centers-services/pediatric-plastic-surgery", "rating": null, "reviews": 0, "place_id": "ChIJdXAwEWZF5IkRPisNy6f5iCQ", "latitude": 41.8090499, "longitude": -71.4110556, "care_type": "Plastic Surgeon"}, {"name": "Brian Temple, D.O.", "address": "101 Plain St, Providence, RI 02903", "city": "Providence", "phone": "+1 401-736-4592", "website": "", "rating": 5.0, "reviews": 2, "place_id": "ChIJZ33W_L9F5IkRD9TDdE-xmNU", "latitude": 41.8133627, "longitude": -71.41283299999999, "care_type": "Plastic Surgeon"}, {"name": "Reena Anjalie Bhatt, MD", "address": "235 Plain St STE 203, Providence, RI 02905", "city": "Providence", "phone": "+1 401-444-2701", "website": "https://www.brownhealth.org/providers/reena-anjalie-bhatt-md", "rating": 5.0, "reviews": 9, "place_id": "ChIJWx4ZEWZF5IkREy7kXTBWo7I", "latitude": 41.809209, "longitude": -71.4110231, "care_type": "Plastic Surgeon"}, {"name": "Beyond Beauty Medspa RI", "address": "96 Rolfe Square, Cranston, RI 02910", "city": "Cranston", "phone": "+1 401-236-7432", "website": "https://www.beyondbeautyri.com/", "rating": 5.0, "reviews": 215, "place_id": "ChIJIzl41uxF5IkRIAQt82hjNUA", "latitude": 41.775339, "longitude": -71.4367546, "care_type": "Plastic Surgeon"}, {"name": "Paul Y. Liu, MD", "address": "235 Plain St STE 501, Providence, RI 02905", "city": "Providence", "phone": "+1 401-444-5495", "website": "https://www.brownhealth.org/providers/paul-y-liu-md", "rating": 3.7, "reviews": 6, "place_id": "ChIJ7xUrq2lF5IkRwUHiWCT7ym8", "latitude": 41.8090973, "longitude": -71.4110975, "care_type": "Plastic Surgeon"}, {"name": "Amy Maselli", "address": "235 Plain St STE 501, Providence, RI 02903", "city": "Providence", "phone": "+1 401-444-5495", "website": "https://www.brownhealth.org/providers/amy-marie-maselli-md", "rating": 5.0, "reviews": 3, "place_id": "ChIJkwetEGZF5IkRjyleP6Lqop0", "latitude": 41.8090973, "longitude": -71.4110975, "care_type": "Plastic Surgeon"}, {"name": "Erik Hoy", "address": "101 Plain St # 4, Providence, RI 02903", "city": "Providence", "phone": "+1 401-274-1122", "website": "", "rating": 3.6, "reviews": 11, "place_id": "ChIJq6q6yG5F5IkRAv5VIPprEi0", "latitude": 41.8134817, "longitude": -71.4128207, "care_type": "Plastic Surgeon"}, {"name": "Reena Bhatt", "address": "Ambulatory Patient Center, 593 Eddy St, Providence, RI 02903", "city": "Providence", "phone": "+1 401-444-3327", "website": "https://www.brownhealth.org/providers/reena-anjalie-bhatt-md", "rating": 5.0, "reviews": 2, "place_id": "ChIJFf-Yw2hF5IkRey2OK4zae1w", "latitude": 41.8114158, "longitude": -71.410918, "care_type": "Plastic Surgeon"}, {"name": "Dardan Beqiri, MD", "address": "235 Plain St STE 501, Providence, RI 02903", "city": "Providence", "phone": "+1 401-444-5495", "website": "https://www.brownhealth.org/providers/dardan-beqiri-md", "rating": 5.0, "reviews": 8, "place_id": "ChIJ9a-paHBF5IkRyp8iQgUEHo8", "latitude": 41.8090973, "longitude": -71.4110975, "care_type": "Plastic Surgeon"}, {"name": "Amy Kite, MD", "address": "235 Plain St STE 203, Providence, RI 02903", "city": "Providence", "phone": "+1 401-444-2701", "website": "https://www.brownhealth.org/providers/amy-kite-md", "rating": 3.9, "reviews": 8, "place_id": "ChIJ-_z0vbFF5IkR1PVaJvvozL4", "latitude": 41.809209, "longitude": -71.4110231, "care_type": "Plastic Surgeon"}, {"name": "Brown Health Medical Group Plastic Surgery - Hand", "address": "235 Plain St STE 203, Providence, RI 02903", "city": "Providence", "phone": "+1 401-444-2701", "website": "https://www.brownhealth.org/centers-services/plastic-surgery", "rating": null, "reviews": 0, "place_id": "ChIJPSdKyfVF5IkR32GqpZP_-6g", "latitude": 41.809209, "longitude": -71.4110231, "care_type": "Plastic Surgeon"}, {"name": "Advanced Aesthetics Skin Care Studio", "address": "532 Putnam Pike, Greenville, RI 02828", "city": "Greenville", "phone": "+1 401-757-0488", "website": "http://www.advancedaestheticsskincarestudio.com/", "rating": 4.9, "reviews": 162, "place_id": "ChIJW8mgeBBH5IkRvj9PEwtscHs", "latitude": 41.870168, "longitude": -71.54567399999999, "care_type": "Plastic Surgeon"}, {"name": "Center for Medical Aesthetics", "address": "297 Promenade St 2nd Floor, Providence, RI 02908", "city": "Providence", "phone": "+1 401-490-0244", "website": "http://centerformedicalaestheticsri.com/", "rating": 4.9, "reviews": 48, "place_id": "ChIJz9m3Zg9F5IkRn2HNSUuM3i8", "latitude": 41.8306019, "longitude": -71.42223589999999, "care_type": "Plastic Surgeon"}, {"name": "Coastal Derm MediSpa", "address": "Spa suite- left entrance, 750 Reservoir Ave, Cranston, RI 02910", "city": "Cranston", "phone": "+1 401-944-7546", "website": "http://www.coastaldermmedispa.com/", "rating": 4.9, "reviews": 122, "place_id": "ChIJKVElUYlP5IkRRSwnhHCSc0o", "latitude": 41.7794018, "longitude": -71.4431018, "care_type": "Plastic Surgeon"}, {"name": "Franca S. Kraenzlin, MD", "address": "235 Plain St STE 501, Providence, RI 02905", "city": "Providence", "phone": "+1 401-444-5495", "website": "https://www.brownhealth.org/providers/franca-s-kraenzlin-md", "rating": null, "reviews": 0, "place_id": "ChIJxRELKHFF5IkRh51SYOUVCwA", "latitude": 41.8090973, "longitude": -71.4110975, "care_type": "Plastic Surgeon"}, {"name": "Brown Health Medical Group Plastic Surgery", "address": "235 Plain St STE 501, Providence, RI 02903", "city": "Providence", "phone": "+1 401-444-5495", "website": "https://www.brownhealth.org/locations/plastic-surgery", "rating": null, "reviews": 0, "place_id": "ChIJtdSnr2VF5IkRm1zSTnBEJYs", "latitude": 41.8090973, "longitude": -71.4110975, "care_type": "Plastic Surgeon"}, {"name": "David Chi, MD, PhD", "address": "235 Plain St STE 203, Providence, RI 02905", "city": "Providence", "phone": "+1 401-444-2701", "website": "https://www.brownhealth.org/providers/david-chi-md-phd", "rating": null, "reviews": 0, "place_id": "ChIJRyuWAgZF5IkREciEtYPb6Qk", "latitude": 41.809209, "longitude": -71.4110231, "care_type": "Plastic Surgeon"}, {"name": "Simply Aesthetics MedSpa, LLC", "address": "10 Cedar Swamp Rd Suite 1, Smithfield, RI 02917", "city": "Smithfield", "phone": "+1 401-744-3374", "website": "http://simplyaestheticsri.com/", "rating": 5.0, "reviews": 3, "place_id": "ChIJy-LFOX095IkRMkNt8cWxdaE", "latitude": 41.8724156, "longitude": -71.53175499999999, "care_type": "Plastic Surgeon"}, {"name": "Allure Aesthetics LLC", "address": "820 Tiogue Ave, Coventry, RI 02816", "city": "Coventry", "phone": "+1 401-749-0643", "website": "http://allureaestheticsspa.at/", "rating": 4.8, "reviews": 21, "place_id": "ChIJTzBKHc9L5IkRSvukzNTy_JI", "latitude": 41.6811618, "longitude": -71.5654212, "care_type": "Plastic Surgeon"}, {"name": "Sono Bello Providence", "address": "200 Crossings Blvd #350, Warwick, RI 02886", "city": "Warwick", "phone": "+1 401-250-0020", "website": "https://www.sonobello.com/locations/providence/", "rating": 4.7, "reviews": 80, "place_id": "ChIJpWl09YRL5IkR0Q6FWx2aris", "latitude": 41.7113161, "longitude": -71.4703787, "care_type": "Plastic Surgeon"}, {"name": "Dr. Mark Markarian - Plastic Surgeon", "address": "390 Toll Gate Rd Suite 205, Warwick, RI 02886", "city": "Warwick", "phone": "+1 401-496-9167", "website": "http://plasticsurgeryofboston.com/", "rating": null, "reviews": 0, "place_id": "ChIJ1fcbQ1dN5IkRk0GacCW1Ax0", "latitude": 41.7022223, "longitude": -71.4767442, "care_type": "Plastic Surgeon"}, {"name": "New England Cosmetic", "address": "300 Centerville Road South, Building, Suite 202A, Warwick, RI 02886", "city": "Warwick", "phone": "+1 401-922-2100", "website": "http://www.necosmetic.com/", "rating": 5.0, "reviews": 1, "place_id": "ChIJYzW9hN1N5IkR3tF0RQu_9fY", "latitude": 41.6944274, "longitude": -71.4705546, "care_type": "Plastic Surgeon"}, {"name": "Thomas Walek, MD", "address": "200 Toll Gate Rd Suite 102, Warwick, RI 02886", "city": "Warwick", "phone": "+1 401-738-7659", "website": "https://www.brownhealth.org/providers/thomas-walek-md", "rating": 3.7, "reviews": 3, "place_id": "ChIJVQNLlXtM5IkRwjrGrnzYUbM", "latitude": 41.700557, "longitude": -71.46998119999999, "care_type": "Plastic Surgeon"}, {"name": "Advanced Dermatology and Cosmetic Surgery", "address": "1598 S County Trl Ste 202, East Greenwich, RI 02818", "city": "East Greenwich", "phone": "+1 401-886-5663", "website": "https://www.advancedderm.com/locations/rhode-island/east-greenwich/1351-s-county-trl-ste-302", "rating": 4.8, "reviews": 218, "place_id": "ChIJKYYEBXu15YkRv0HkdwmgN-U", "latitude": 41.6529443, "longitude": -71.4957937, "care_type": "Plastic Surgeon"}, {"name": "Northeast Institute Plastic Sgy", "address": "875 Centerville Rd, Warwick, RI 02886", "city": "Warwick", "phone": "+1 401-828-4840", "website": "", "rating": null, "reviews": 0, "place_id": "ChIJgeRq13dL5IkR9kQ1MQxAjA4", "latitude": 41.6980004, "longitude": -71.4916664, "care_type": "Plastic Surgeon"}, {"name": "Facial Aesthetics Center of RI", "address": "2730 S County Trl, East Greenwich, RI 02818", "city": "East Greenwich", "phone": "+1 401-649-0320", "website": "http://www.drsarahlevy.com/", "rating": 4.9, "reviews": 113, "place_id": "ChIJZdibY0a55YkRH9iu_mwvFYQ", "latitude": 41.6221627, "longitude": -71.4912559, "care_type": "Plastic Surgeon"}, {"name": "Dr. David L. Lee, MD", "address": "1407 S County Trl, East Greenwich, RI 02818", "city": "East Greenwich", "phone": "+1 401-886-7910", "website": "http://www.rhodeislandhospital.org/", "rating": null, "reviews": 0, "place_id": "ChIJ-4tIn7W05YkRoqGTdmmYzp0", "latitude": 41.6582826, "longitude": -71.49976629999999, "care_type": "Plastic Surgeon"}, {"name": "University Medical Group: Liu Paul MD", "address": "1351 S County Trl #302, East Greenwich, RI 02818", "city": "East Greenwich", "phone": "+1 401-886-5663", "website": "", "rating": null, "reviews": 0, "place_id": "ChIJz29aIbW05YkRcNRnWXSOuIU", "latitude": 41.6598463, "longitude": -71.4985872, "care_type": "Plastic Surgeon"}, {"name": "Cosmetic Surgery of Ri", "address": "200 Toll Gate Rd Suite 102, Warwick, RI 02886", "city": "Warwick", "phone": "+1 401-738-7659", "website": "", "rating": null, "reviews": 0, "place_id": "ChIJVQNLlXtM5IkRl59p0JlaLYg", "latitude": 41.7005466, "longitude": -71.47, "care_type": "Plastic Surgeon"}, {"name": "Artistic Contours", "address": "243 Jefferson Blvd, Warwick, RI 02888", "city": "Warwick", "phone": "+1 401-732-1440", "website": "http://artisticcontourssurgery.com/", "rating": null, "reviews": 0, "place_id": "ChIJcxJZXo5O5IkReyqP2IIzJDs", "latitude": 41.7410438, "longitude": -71.4391564, "care_type": "Plastic Surgeon"}, {"name": "Citrine Aesthetics", "address": "25 Lambert Ave, Cumberland, RI 02864", "city": "Cumberland", "phone": "+1 401-347-6529", "website": "http://www.citrineaesthetics.com/", "rating": 5.0, "reviews": 73, "place_id": "ChIJATFnc51p5IkRnJvgXqN3IdM", "latitude": 41.95997029999999, "longitude": -71.44481429999999, "care_type": "Plastic Surgeon"}, {"name": "Ocean State Dermatology", "address": "175 Nate Whipple Hwy, Cumberland, RI 02864", "city": "Cumberland", "phone": "+1 401-658-2180", "website": "http://oceanstatedermatology.com/", "rating": null, "reviews": 0, "place_id": "ChIJRz4FsMBp5IkRW7jdZCrRLeY", "latitude": 41.9782844, "longitude": -71.4478519, "care_type": "Plastic Surgeon"}, {"name": "Advanced Aesthetics Skin Care Studio and Institute", "address": "83 Power Rd, Pawtucket, RI 02860", "city": "Pawtucket", "phone": "+1 401-376-9617", "website": "https://www.advancedaestheticsskincarestudio.com/", "rating": 5.0, "reviews": 81, "place_id": "ChIJ34Lrg8ZF5IkRbVnBtHqCElo", "latitude": 41.862097, "longitude": -71.4122641, "care_type": "Plastic Surgeon"}, {"name": "Thomas A. Pane", "address": "25 Thurber Blvd # 6, Smithfield, RI 02917", "city": "Smithfield", "phone": "+1 401-404-2975", "website": "http://www.newporthospital.org/", "rating": null, "reviews": 0, "place_id": "ChIJPXJfCiFB5IkRyhTDJcdbrSo", "latitude": 41.912059, "longitude": -71.5206539, "care_type": "Plastic Surgeon"}, {"name": "The Spa at RI Dermatology", "address": "3 Wake Robin Rd #4208, Lincoln, RI 02865", "city": "Lincoln", "phone": "+1 401-475-9140", "website": "https://ridermatologymedspa.com/", "rating": 5.0, "reviews": 1, "place_id": "ChIJ76TQ9yhC5IkRR7k3w3qwOMU", "latitude": 41.9339541, "longitude": -71.4744339, "care_type": "Plastic Surgeon"}, {"name": "Surgical & Cosmetic Dermatology of Rhode Island", "address": "1 Randall Square Suite 306, Providence, RI 02904", "city": "Providence", "phone": "+1 401-751-7546", "website": "http://www.rhodeislandmohs.com/", "rating": 4.6, "reviews": 8, "place_id": "ChIJXXJQQh5F5IkRzAKA4Eu-wzI", "latitude": 41.83694029999999, "longitude": -71.41052379999999, "care_type": "Plastic Surgeon"}, {"name": "R. Jeffrey Hofmann, MD", "address": "150 E Manning St, Providence, RI 02906", "city": "Providence", "phone": "+1 401-272-2020", "website": "https://www.brownhealth.org/providers/r-jeffrey-hofmann-md", "rating": 5.0, "reviews": 5, "place_id": "ChIJS1llMyxF5IkRaLVAgpqo8S0", "latitude": 41.8275981, "longitude": -71.387543, "care_type": "Plastic Surgeon"}, {"name": "Allura Medical Esthetics", "address": "13 S Angell St, Providence, RI 02906", "city": "Providence", "phone": "+1 401-309-8227", "website": "http://www.alluramedesthetics.com/", "rating": 5.0, "reviews": 238, "place_id": "ChIJh1ZaZNRF5IkRHCaHM8Ei0M0", "latitude": 41.8298113, "longitude": -71.3875908, "care_type": "Plastic Surgeon"}, {"name": "Simply Injectables", "address": "237 Wayland Ave, Providence, RI 02906", "city": "Providence", "phone": "+1 401-648-7475", "website": "http://www.simplyinjectables.com/", "rating": 4.9, "reviews": 150, "place_id": "ChIJBSQ2d2tF5IkRyIpnRpUjtak", "latitude": 41.8309416, "longitude": -71.3877679, "care_type": "Plastic Surgeon"}, {"name": "Aesthetic Beauty RI", "address": "970 Hope St Unit 3, Bristol, RI 02809", "city": "Bristol", "phone": "+1 401-742-9327", "website": "https://www.aestheticbeautyri.com/", "rating": 5.0, "reviews": 26, "place_id": "ChIJhwLyX5dV5IkRQ2cpbBANTbw", "latitude": 41.6837414, "longitude": -71.2785815, "care_type": "Plastic Surgeon"}, {"name": "Wells Fountain", "address": "46 Wells St, Westerly, RI 02891", "city": "Westerly", "phone": "+1 401-596-0174", "website": "http://wellsfountainri.com/", "rating": 5.0, "reviews": 3, "place_id": "ChIJVbydeajn5YkR08nlBeWhFN8", "latitude": 41.3634378, "longitude": -71.82268959999999, "care_type": "Plastic Surgeon"}, {"name": "Benjamin Phillips", "address": "268 Post Rd, Westerly, RI 02891", "city": "Westerly", "phone": "+1 401-777-7000", "website": "", "rating": null, "reviews": 0, "place_id": "ChIJq6o6FSrm5YkRlgckL_Pqvx4", "latitude": 41.3526031, "longitude": -71.7635919, "care_type": "Plastic Surgeon"}, {"name": "Benjamin Z. Phillips, MD, MPH", "address": "10 High St, Wakefield, RI 02879", "city": "Wakefield", "phone": "+1 401-777-7000", "website": "https://www.orthopedicsri.com/physicians/benjamin-phillips/%3Futm_source%3DGMBSocialClimb%26utm_medium%3DBenjaminZ.Phillips%252CMD%252CMPH", "rating": 4.9, "reviews": 162, "place_id": "ChIJhe1P0De55YkRx-nT_J0p-lU", "latitude": 41.4373758, "longitude": -71.5026388, "care_type": "Plastic Surgeon"}, {"name": "Facial Aesthetics Center of RI South County", "address": "71 S County Commons Way, South Kingstown, RI 02879", "city": "South Kingstown", "phone": "+1 401-786-3179", "website": "http://www.drsarahlevy.com/", "rating": null, "reviews": 0, "place_id": "ChIJbVP8NrK75YkRhwNqAaA1wIg", "latitude": 41.4560062, "longitude": -71.4716693, "care_type": "Plastic Surgeon"}, {"name": "Balencia- Botox, Coolsculpting Elite, Morpheus, Emsculpt Neo, laser Hair", "address": "36 S County Commons Way Suite C5, South Kingstown, RI 02879", "city": "South Kingstown", "phone": "+1 401-599-0202", "website": "https://www.balenciamd.com/", "rating": 5.0, "reviews": 49, "place_id": "ChIJ28S5m1O75YkR8J5NAs1aD8U", "latitude": 41.4557659, "longitude": -71.47013, "care_type": "Plastic Surgeon"}, {"name": "Subtle T Aesthetics", "address": "116 Main St Suite M8, Wakefield, RI 02879", "city": "Wakefield", "phone": "+1 401-358-5083", "website": "http://staesthetics.com/", "rating": 5.0, "reviews": 51, "place_id": "ChIJlfGs73-W0IoRyO8uYl5bzOM", "latitude": 41.4409067, "longitude": -71.4927098, "care_type": "Plastic Surgeon"}, {"name": "Enzer Yoash R MD", "address": "70 Kenyon Ave # 211, Wakefield, RI 02879", "city": "Wakefield", "phone": "+1 401-783-7009", "website": "http://www.doctorenzer.com/", "rating": null, "reviews": 0, "place_id": "ChIJ9S5Rd0y55YkRdA7Dgl0hMyg", "latitude": 41.4311431, "longitude": -71.4949358, "care_type": "Plastic Surgeon"}, {"name": "Anti-Aging & Laser Institute ( AALI )", "address": "117 Wickenden St, Providence, RI 02903", "city": "Providence", "phone": "+1 508-971-9803", "website": "http://aalinstitute.com/%3Futm_source%3Dgoogle%26utm_medium%3Dorganic%26utm_campaign%3Dgbp", "rating": 4.9, "reviews": 117, "place_id": "ChIJgUIpsJ9F5IkR8c9NNM55NvA", "latitude": 41.8181897, "longitude": -71.4016693, "care_type": "Plastic Surgeon"}, {"name": "Oceanside Medical Aesthetics and Wellness", "address": "300 Toll Gate Rd SUITE 203-205, Warwick, RI 02886", "city": "Warwick", "phone": "+1 401-384-7501", "website": "https://www.oceansidemedicalri.com/aesthetic-and-wellness/%3Futm_source%3Dgoogle%26utm_medium%3Dorganic%26utm_campaign%3Dgbp", "rating": 5.0, "reviews": 69, "place_id": "ChIJWTTnQURN5IkRFDvENnHldrA", "latitude": 41.7013013, "longitude": -71.4726089, "care_type": "Plastic Surgeon"}, {"name": "Erik Hoy", "address": "455 Toll Gate Rd, Warwick, RI 028862759", "city": "Warwick", "phone": "+1 401-737-7010", "website": "", "rating": 1.0, "reviews": 1, "place_id": "ChIJ___I_XdM5IkRT6uI7auH4t4", "latitude": 41.70579499999999, "longitude": -71.4772784, "care_type": "Plastic Surgeon"}, {"name": "SeaMist MedSpa", "address": "155 Main St, Wakefield, RI 02879", "city": "Wakefield", "phone": "+1 401-217-2426", "website": "https://seamistmedspa.com/%3Futm_source%3Dgoogle%26utm_medium%3Dorganic%26utm_campaign%3Dgbp", "rating": 5.0, "reviews": 321, "place_id": "ChIJJcBFING75YkRHesZD4e18l8", "latitude": 41.4411986, "longitude": -71.4942402, "care_type": "Plastic Surgeon"}, {"name": "PureBeautyNP Aesthetics", "address": "1150 Stafford Rd, Tiverton, RI 02878", "city": "Tiverton", "phone": "+1 508-264-2122", "website": "https://www.purebeautynpaesthetics.com/", "rating": 5.0, "reviews": 96, "place_id": "ChIJoZKy0Mf95IkRygaxST5vpNY", "latitude": 41.631367, "longitude": -71.14589269999999, "care_type": "Plastic Surgeon"}, {"name": "Scientiphika Medical Spa", "address": "26 Valley Rd STE 203, Middletown, RI 02842", "city": "Middletown", "phone": "+1 508-364-3278", "website": "https://www.scientiphikamedspa.com/", "rating": 5.0, "reviews": 136, "place_id": "ChIJiaGfTMFV5IkRRGxD70h27F4", "latitude": 41.5237152, "longitude": -71.29620539999999, "care_type": "Plastic Surgeon"}, {"name": "Firm MD", "address": "130 Touro St, Newport, RI 02840", "city": "Newport", "phone": "+1 401-324-5356", "website": "http://firmmdnewport.com/", "rating": 5.0, "reviews": 125, "place_id": "ChIJn7gmRA2v5YkR_gxBC1CK5xw", "latitude": 41.4883302, "longitude": -71.310029, "care_type": "Plastic Surgeon"}, {"name": "Victory Medical Spa", "address": "30 Chapel View Blvd, Cranston, RI 02920", "city": "Cranston", "phone": "+1 401-458-0825", "website": "http://www.victorymedspa.com/", "rating": 5.0, "reviews": 36, "place_id": "ChIJw8BAuf_L5YkRpPSYfrkBQGE", "latitude": 41.7551598, "longitude": -71.45950619999999, "care_type": "Plastic Surgeon"}]