[{"name": "Dr. Dinakar Golla, MD", "address": "651 Colliers Way Suite 307, Weirton, WV 26062", "city": "Weirton", "phone": "+1 304-740-5026", "website": "https://gollaplasticsurgery.com/", "rating": 4.7, "reviews": 23, "place_id": "ChIJjekbr1w3NIgRb1Q7ayOqhe8", "latitude": 40.3931377, "longitude": -80.5280616, "care_type": "Plastic Surgeon"}, {"name": "Renew Liposuction and Cosmetic Center", "address": "51 Southland Dr Suite 1100, Fairmont, WV 26554", "city": "Fairmont", "phone": "+1 304-842-5476", "website": "https://renew-myself.com/", "rating": 4.9, "reviews": 87, "place_id": "ChIJmwtP3G_DcEARbYf_uEEQXvM", "latitude": 39.4334524, "longitude": -80.1828858, "care_type": "Plastic Surgeon"}, {"name": "West VA Plastic Surgery LLC", "address": "527 Medical Park Dr # 203, Bridgeport, WV 26330", "city": "Bridgeport", "phone": "+1 681-342-3190", "website": "", "rating": null, "reviews": 0, "place_id": "ChIJ2yre-dZlSogR4egU4FT3m1o", "latitude": 39.3271039, "longitude": -80.23986289999999, "care_type": "Plastic Surgeon"}, {"name": "Thaxton Plastic Surgery", "address": "505 Capitol St, Charleston, WV 25301", "city": "Charleston", "phone": "+1 304-925-8949", "website": "https://thaxtonplasticsurgery.com/", "rating": 4.8, "reviews": 117, "place_id": "ChIJxzI1WWwrT4gRDWSopgV5GUI", "latitude": 38.3523594, "longitude": -81.6305592, "care_type": "Plastic Surgeon"}, {"name": "Bandak Plastic Surgery", "address": "610 50th St SE, Charleston, WV 25304", "city": "Charleston", "phone": "+1 304-925-4665", "website": "http://www.abandakmd.com/", "rating": 4.9, "reviews": 58, "place_id": "ChIJtybjiRIrT4gRd_FLk-f-Znc", "latitude": 38.3170688, "longitude": -81.5792776, "care_type": "Plastic Surgeon"}, {"name": "CAMC Plastic Surgery Center", "address": "210 Brooks St Suite 200, Charleston, WV 25301", "city": "Charleston", "phone": "+1 304-388-1930", "website": "https://www.camc.org/cosmeticsurgery", "rating": 4.3, "reviews": 13, "place_id": "ChIJMUaEKMksT4gR1SidDN27tdQ", "latitude": 38.3466549, "longitude": -81.6297605, "care_type": "Plastic Surgeon"}, {"name": "Ultimate Plastic & Reconstructive Surgery", "address": "3075 US-60, Huntington, WV 25705", "city": "Huntington", "phone": "+1 304-399-4220", "website": "http://ultimateprs.com/", "rating": 4.8, "reviews": 35, "place_id": "ChIJ8Y-Z33cHRogRpJ7ACNkps9s", "latitude": 38.4151178, "longitude": -82.34502119999999, "care_type": "Plastic Surgeon"}, {"name": "Daniel J. Wood, MD", "address": "1306 Kanawha Blvd E # 100, Charleston, WV 25301", "city": "Charleston", "phone": "+1 304-342-1114", "website": "https://doctordanielwood.com/", "rating": 4.2, "reviews": 21, "place_id": "ChIJJUqHB8YsT4gRTpyOTj7Mr0w", "latitude": 38.3436574, "longitude": -81.63018009999999, "care_type": "Plastic Surgeon"}, {"name": "Healing Springs Medical Spa and Mountain State Cosmetic", "address": "78 Brookshire Ln, Beckley, WV 25801", "city": "Beckley", "phone": "+1 304-255-0330", "website": "http://healingspringswv.com/", "rating": 4.5, "reviews": 47, "place_id": "ChIJVW0hmdaMTogRk5FravQzPFI", "latitude": 37.7694537, "longitude": -81.1576826, "care_type": "Plastic Surgeon"}, {"name": "McClellan Plastic Surgery", "address": "5000 Coombs Farm Dr #102, Morgantown, WV 26508", "city": "Morgantown", "phone": "+1 304-777-4677", "website": "http://www.mtpsa.com/", "rating": 4.8, "reviews": 35, "place_id": "ChIJ5akz-gl7NYgRsCfisGW8tDw", "latitude": 39.6571615, "longitude": -79.89179879999999, "care_type": "Plastic Surgeon"}, {"name": "Benjamin Moosavi", "address": "5170 US-60, Huntington, WV 25705", "city": "Huntington", "phone": "+1 304-399-4220", "website": "https://www.ultimateprs.com/ben-moosavi-m.d", "rating": 5.0, "reviews": 1, "place_id": "ChIJAQAA33cHRogRs0Ye-NuscK4", "latitude": 38.4149876, "longitude": -82.34501949999999, "care_type": "Plastic Surgeon"}, {"name": "Sarah Cross, Your Plastics PA", "address": "60 Maclaine Way, Shepherdstown, WV 25443", "city": "Shepherdstown", "phone": "+1 304-350-3274", "website": "https://wvumedicine.org/berkeley/services/plastics", "rating": 5.0, "reviews": 6, "place_id": "ChIJmftxVqkDyokRerpp3vk4-0E", "latitude": 39.4327406, "longitude": -77.8155586, "care_type": "Plastic Surgeon"}, {"name": "WVU Medicine Plastic, Cosmetic, & Reconstructive Surgery", "address": "60 Maclaine Way Suite C, Shepherdstown, WV 25443", "city": "Shepherdstown", "phone": "+1 304-350-3274", "website": "https://wvumedicine.org/our-care/specialties-and-services/service/%3Fid%3D88", "rating": 4.8, "reviews": 21, "place_id": "ChIJg2hcuK4DyokRWrLSbP85JsY", "latitude": 39.4327406, "longitude": -77.8155586, "care_type": "Plastic Surgeon"}, {"name": "Dr. Theodore A. Jackson, MD", "address": "1306 Kanawha Blvd E # 100, Charleston, WV 25301", "city": "Charleston", "phone": "+1 304-342-1113", "website": "", "rating": 4.5, "reviews": 6, "place_id": "ChIJJUqHB8YsT4gRaDoLOLDfoyM", "latitude": 38.34326, "longitude": -81.63019659999999, "care_type": "Plastic Surgeon"}, {"name": "Leong Plastic Surgery - Dr. Paul Leong", "address": "1554 Mileground Rd # B, Morgantown, WV 26505", "city": "Morgantown", "phone": "+1 412-693-6475", "website": "https://www.leongplasticsurgery.com/%3Futm_source%3DGMBlisting%26utm_medium%3Dorganic%26utm_campaign%3Dgmb", "rating": 4.8, "reviews": 8, "place_id": "ChIJ5dgZEr97NYgRnXS_JVRLD08", "latitude": 39.6399363, "longitude": -79.9353558, "care_type": "Plastic Surgeon"}, {"name": "Dr. Jack Burns", "address": "210 Brooks St Suite 200, Charleston, WV 25301", "city": "Charleston", "phone": "+1 304-388-1930", "website": "https://www.camc.org/doctors/jack-charles-burns-ii-md", "rating": 5.0, "reviews": 6, "place_id": "ChIJFchCIMksT4gRDITVpSI-pRk", "latitude": 38.3462863, "longitude": -81.6296642, "care_type": "Plastic Surgeon"}, {"name": "Dr Jeff Thaxton, MD", "address": "505 Capitol St, Charleston, WV 25301", "city": "Charleston", "phone": "+1 304-925-8949", "website": "https://thaxtonplasticsurgery.com/", "rating": 3.2, "reviews": 9, "place_id": "ChIJo5d4ZMssT4gRbmkAfTK0PqI", "latitude": 38.3522535, "longitude": -81.6305235, "care_type": "Plastic Surgeon"}, {"name": "Dr. Ronald Luethke", "address": "527 Medical Park Dr # 203, Bridgeport, WV 26330", "city": "Bridgeport", "phone": "+1 681-342-3190", "website": "", "rating": 5.0, "reviews": 1, "place_id": "ChIJiQvu-dZlSogRLtp6bw0fwPk", "latitude": 39.3271039, "longitude": -80.23986289999999, "care_type": "Plastic Surgeon"}, {"name": "Beckley Surgery Center", "address": "84 Brookshire Ln, Beckley, WV 25801", "city": "Beckley", "phone": "+1 304-255-2724", "website": "https://beckleysurgerycenter.com/", "rating": 2.9, "reviews": 8, "place_id": "ChIJU8kCotaMTogRlOXYKWEnJgk", "latitude": 37.7692008, "longitude": -81.1580178, "care_type": "Plastic Surgeon"}, {"name": "Spindel Michael R MD", "address": "2860 3rd Ave Suite 220, Huntington, WV 25702", "city": "Huntington", "phone": "+1 304-697-5272", "website": "https://drmichaelspindel.com/", "rating": 4.5, "reviews": 33, "place_id": "ChIJF6ZnbW0IRogRKbdUH8-i8CU", "latitude": 38.430505, "longitude": -82.4007688, "care_type": "Plastic Surgeon"}, {"name": "CAMC Charleston Surgical Hospital", "address": "1306 Kanawha Blvd E, Charleston, WV 25301", "city": "Charleston", "phone": "+1 304-343-4371", "website": "https://www.camc.org/camc-charleston-surgical-hospital-0", "rating": 3.8, "reviews": 56, "place_id": "ChIJHbbwBcYsT4gRqi5lYDG6jtw", "latitude": 38.343356, "longitude": -81.629966, "care_type": "Plastic Surgeon"}, {"name": "Paul A Blair, M.D.", "address": "3667 Teays Valley Road, Hurricane, WV 25526", "city": "Hurricane", "phone": "+1 304-201-3223", "website": "http://www.drpaulblair.com/", "rating": 4.0, "reviews": 12, "place_id": "ChIJ37dAdeqzSIgRRybpd7Xdc8E", "latitude": 38.4450374, "longitude": -81.97209749999999, "care_type": "Plastic Surgeon"}, {"name": "The Firm Aesthetics", "address": "2731 Marmont Rd, Bluefield, WV 24701", "city": "Bluefield", "phone": "+1 304-396-9591", "website": "https://www.theskinfirmwv.com/", "rating": 4.9, "reviews": 44, "place_id": "ChIJ12xvSjc_TogRbI4X7Wj3GnE", "latitude": 37.2642275, "longitude": -81.18898999999999, "care_type": "Plastic Surgeon"}, {"name": "Derm One PLLC", "address": "296 New Hope Rd Ste 1, Princeton, WV 24740", "city": "Princeton", "phone": "+1 304-425-9448", "website": "http://www.dermoneva.com/", "rating": 4.8, "reviews": 223, "place_id": "ChIJo6bLN7ZrTogRKdU0l68nmZE", "latitude": 37.3673276, "longitude": -81.11296829999999, "care_type": "Plastic Surgeon"}, {"name": "Marshall Plastic & Reconstructive Surgery", "address": "3244 US-60 Suite 26, Huntington, WV 25705", "city": "Huntington", "phone": "+1 304-691-8910", "website": "http://www.marshallhealth.org/plastics", "rating": 4.9, "reviews": 40, "place_id": "ChIJN3wT4z8IRogRoS9eYofB9Mk", "latitude": 38.4106303, "longitude": -82.3427428, "care_type": "Plastic Surgeon"}, {"name": "Dr. Carlene D. Ashley, DO", "address": "34 New Hope Rd Ste 1, Princeton, WV 24740", "city": "Princeton", "phone": "+1 304-425-9448", "website": "", "rating": null, "reviews": 0, "place_id": "ChIJo6bLN7ZrTogRs1Tt5sKLjBw", "latitude": 37.36684, "longitude": -81.111862, "care_type": "Plastic Surgeon"}, {"name": "Plastic Surgery Inc", "address": "40 Medical Park Rd #200, Wheeling, WV 26003", "city": "Wheeling", "phone": "+1 304-242-0590", "website": "https://wvumedicine.org/wheeling/services/plastic-surgery/", "rating": 3.0, "reviews": 2, "place_id": "ChIJ17EvlFPaNYgRMItsyKNrmX4", "latitude": 40.0593193, "longitude": -80.6840936, "care_type": "Plastic Surgeon"}, {"name": "Dr. Edward P. Polack, MD", "address": "1 Medical Park Rd Ste 704, Wheeling, WV 26003", "city": "Wheeling", "phone": "+1 304-243-3134", "website": "http://plasticsurgery.org/", "rating": 3.3, "reviews": 3, "place_id": "ChIJqTrollPaNYgRH5gPqvsli-c", "latitude": 40.059072, "longitude": -80.685052, "care_type": "Plastic Surgeon"}, {"name": "Dr. Karl J. Mueller, MD", "address": "40 Medical Park Rd #200, Wheeling, WV 26003", "city": "Wheeling", "phone": "+1 304-242-0590", "website": "", "rating": 4.2, "reviews": 5, "place_id": "ChIJqTrollPaNYgRvz0cn-R5eeY", "latitude": 40.0592066, "longitude": -80.6837956, "care_type": "Plastic Surgeon"}, {"name": "Rejuvenation Center", "address": "1066 E Bethlehem Blvd, Wheeling, WV 26003", "city": "Wheeling", "phone": "+1 304-242-2639", "website": "http://www.rejuvenationcenter.info/", "rating": 4.9, "reviews": 161, "place_id": "ChIJc4BtKrvbNYgRxk_nh0Ugx4Q", "latitude": 40.0429764, "longitude": -80.68679949999999, "care_type": "Plastic Surgeon"}, {"name": "Dr. Charles A. Tracy, MD", "address": "40 Medical Park Rd #200, Wheeling, WV 26003", "city": "Wheeling", "phone": "+1 304-242-0590", "website": "", "rating": 4.2, "reviews": 6, "place_id": "ChIJqTrollPaNYgRVQWlIfaizLo", "latitude": 40.0591487, "longitude": -80.68377029999999, "care_type": "Plastic Surgeon"}, {"name": "Plastic Surgery Inc", "address": "48 Park Pl Ave, Wheeling, WV 26003", "city": "Wheeling", "phone": "+1 304-242-0590", "website": "https://wvumedicine.org/wheeling/services/plastic-surgery/", "rating": null, "reviews": 0, "place_id": "ChIJqTrollPaNYgR3u4wW4mJ5dM", "latitude": 40.05420549999999, "longitude": -80.66650419999999, "care_type": "Plastic Surgeon"}, {"name": "Adel Faltaous, MD", "address": "5185 US-60 Suite 26, Huntington, WV 25705", "city": "Huntington", "phone": "+1 207-753-2000", "website": "https://www.marshallhealth.org/find-a-provider/provider-details/%3FID%3D56", "rating": 4.6, "reviews": 10, "place_id": "ChIJq6pqsnkHRogRGmIFw51MQAk", "latitude": 38.411694, "longitude": -82.3417601, "care_type": "Plastic Surgeon"}, {"name": "Dr. Sandeep Kathju", "address": "40 Medical Park Rd #200, Wheeling, WV 26003", "city": "Wheeling", "phone": "+1 304-242-0590", "website": "", "rating": 4.6, "reviews": 10, "place_id": "ChIJYbJcmFPaNYgRcopewxWAIJY", "latitude": 40.05917729999999, "longitude": -80.6839067, "care_type": "Plastic Surgeon"}, {"name": "Marjorie Bush, MD", "address": "40 Medical Park Rd #200, Wheeling, WV 26003", "city": "Wheeling", "phone": "+1 304-242-0590", "website": "http://plasticsurgery.org/", "rating": 5.0, "reviews": 1, "place_id": "ChIJqTrollPaNYgRhYMZ_nk8jjY", "latitude": 40.0591487, "longitude": -80.68377029999999, "care_type": "Plastic Surgeon"}, {"name": "Jack Gelman, MD, Board-Certified Plastic Surgeon", "address": "2000 Foundation Way Ste 3650, Martinsburg, WV 25401", "city": "Martinsburg", "phone": "+1 304-350-3274", "website": "https://wvumedicine.org/berkeley/services/plastics/", "rating": 5.0, "reviews": 3, "place_id": "ChIJKy6dqA57NYgRI5-o8IC5dDo", "latitude": 39.4738842, "longitude": -77.9809707, "care_type": "Plastic Surgeon"}, {"name": "Wheeling Hospital Inc: Fuchs Julie R MD", "address": "1 Medical Park Rd, Wheeling, WV 26003", "city": "Wheeling", "phone": "+1 304-243-3000", "website": "https://wvumedicine.org/wheeling/", "rating": null, "reviews": 0, "place_id": "ChIJuSVlrFPaNYgRq4CZW6S_11k", "latitude": 40.059072, "longitude": -80.685052, "care_type": "Plastic Surgeon"}, {"name": "Shope James R MD", "address": "40 Medical Park Rd #200, Wheeling, WV 26003", "city": "Wheeling", "phone": "+1 304-242-0590", "website": "", "rating": null, "reviews": 0, "place_id": "ChIJ17EvlFPaNYgROLFcw3ycJPA", "latitude": 40.05917729999999, "longitude": -80.6839067, "care_type": "Plastic Surgeon"}, {"name": "Mohamed Barry", "address": "61 Campus Dr, Martinsburg, WV 25404", "city": "Martinsburg", "phone": "+1 304-350-3274", "website": "", "rating": 5.0, "reviews": 1, "place_id": "ChIJ93Mb4rf3yYkRGYvLWX6tmP4", "latitude": 39.5441748, "longitude": -77.9052638, "care_type": "Plastic Surgeon"}, {"name": "William A. Stewart, MD, FACS - WVU Medicine Thomas Hospitals", "address": "331 Laidley St #503, Charleston, WV 25301", "city": "Charleston", "phone": "+1 304-766-5640", "website": "https://doctors.wvumedicine.org/profile/%3Fid%3D116136", "rating": 4.0, "reviews": 8, "place_id": "ChIJ47g-XWwrT4gRjj16t8-w8Pk", "latitude": 38.3539819, "longitude": -81.6333423, "care_type": "Plastic Surgeon"}, {"name": "Madden Jeffrey W MD", "address": "300 Davisson Run Rd, Clarksburg, WV 26301", "city": "Clarksburg", "phone": "+1 304-933-3868", "website": "", "rating": 5.0, "reviews": 1, "place_id": "ChIJIVtYF21qSogRnu5BFcfRO3o", "latitude": 39.2707222, "longitude": -80.3737996, "care_type": "Plastic Surgeon"}, {"name": "Dr. Hector Marcano", "address": "40 Medical Park Rd #200, Wheeling, WV 26003", "city": "Wheeling", "phone": "+1 304-242-0590", "website": "", "rating": null, "reviews": 0, "place_id": "ChIJYbJcmFPaNYgREQ1VdVOm-fk", "latitude": 40.05917729999999, "longitude": -80.6839067, "care_type": "Plastic Surgeon"}, {"name": "Pittsburgh Oculoplastic Assocs", "address": "2101 Jacob St # 202, Wheeling, WV 26003", "city": "Wheeling", "phone": "+1 412-681-4220", "website": "https://www.eyelidsurgeon.com/", "rating": null, "reviews": 0, "place_id": "ChIJS2OvUtXbNYgReeyNCyLLVPQ", "latitude": 40.0590284, "longitude": -80.7212035, "care_type": "Plastic Surgeon"}, {"name": "Dr. William Mcclellan", "address": "5000 Coombs Farm Dr #102, Morgantown, WV 26508", "city": "Morgantown", "phone": "+1 304-777-4677", "website": "https://www.monhealth.com/main/find-a-physician/mcclellan-william-t-md-262", "rating": null, "reviews": 0, "place_id": "ChIJOeOZueZkNYgRB9JN0HCMDno", "latitude": 39.6574651, "longitude": -79.89239959999999, "care_type": "Plastic Surgeon"}, {"name": "Kayla Turconi", "address": "1 Medical Center Dr, Morgantown, WV 26506", "city": "Morgantown", "phone": "+1 304-285-7101", "website": "", "rating": null, "reviews": 0, "place_id": "ChIJKy6dqA57NYgR4TZciwZyqzA", "latitude": 39.65391169999999, "longitude": -79.9577486, "care_type": "Plastic Surgeon"}, {"name": "WVU Surgery: Jacob Lisa MD", "address": "Morgantown, WV 26505", "city": "Morgantown", "phone": "+1 304-598-4890", "website": "", "rating": null, "reviews": 0, "place_id": "ChIJdRc_oX17NYgR70NIJHgCLws", "latitude": 39.629526, "longitude": -79.95589679999999, "care_type": "Plastic Surgeon"}, {"name": "Kennedy III Thomas MD", "address": "527 Medical Park Dr # 203, Bridgeport, WV 26330", "city": "Bridgeport", "phone": "+1 681-342-3190", "website": "", "rating": 1.0, "reviews": 1, "place_id": "ChIJ2yre-dZlSogR4dy0FAYOtDQ", "latitude": 39.3271039, "longitude": -80.23986289999999, "care_type": "Plastic Surgeon"}, {"name": "Justin L. McKinney, DO", "address": "210 Brooks St Suite 200, Charleston, WV 25301", "city": "Charleston", "phone": "+1 304-388-1930", "website": "https://www.camc.org/", "rating": 3.3, "reviews": 4, "place_id": "ChIJ86Xt0K4tT4gR08pHjVTVsxs", "latitude": 38.346322, "longitude": -81.6296666, "care_type": "Plastic Surgeon"}, {"name": "Kerri Woodberry", "address": "1 Medical Center Dr, Morgantown, WV 26506", "city": "Morgantown", "phone": "+1 304-285-7101", "website": "https://directory.hsc.wvu.edu/Profile/59037", "rating": null, "reviews": 0, "place_id": "ChIJKy6dqA57NYgRsTb4ZtsRqI4", "latitude": 39.65391169999999, "longitude": -79.9577486, "care_type": "Plastic Surgeon"}, {"name": "Dr. Keith D. Pitzer, MD", "address": "2561 3rd Ave, Huntington, WV 25703", "city": "Huntington", "phone": "+1 304-525-9131", "website": "", "rating": null, "reviews": 0, "place_id": "ChIJN3wT4z8IRogRu1QpY36QWqo", "latitude": 38.4275052, "longitude": -82.4104917, "care_type": "Plastic Surgeon"}, {"name": "Ferrari Facial Aesthetics", "address": "1522A Oakhurst Dr, Charleston, WV 25314", "city": "Charleston", "phone": "+1 681-217-3719", "website": "http://ferrarifacialaesthetics.com/", "rating": 5.0, "reviews": 0, "place_id": "ChIJu-ApA44zT4gRv5gxYqTW3qM", "latitude": 38.3399976, "longitude": -81.7038125, "care_type": "Plastic Surgeon"}, {"name": "Dr. Abdalla Bandak", "address": "610 50th St SE, Charleston, WV 25304", "city": "Charleston", "phone": "+1 304-925-4665", "website": "https://www.abandakmd.com/", "rating": null, "reviews": 0, "place_id": "ChIJJYKGBQ0rT4gRNLKzcTFWIKg", "latitude": 38.3170613, "longitude": -81.5792985, "care_type": "Plastic Surgeon"}, {"name": "Farid Brad Mozaffari, MD", "address": "210 Brooks St Suite 200, Charleston, WV 25301", "city": "Charleston", "phone": "+1 304-388-1930", "website": "https://www.camc.org/", "rating": null, "reviews": 0, "place_id": "ChIJ--KCMOYtT4gRZqep8Pil5xQ", "latitude": 38.3462863, "longitude": -81.6296642, "care_type": "Plastic Surgeon"}, {"name": "Dr. Stephen B. Miller, MD", "address": "5187 US-60 East #9, Huntington, WV 25705", "city": "Huntington", "phone": "+1 304-399-2222", "website": "http://www.huntingtonplasticsurgery.com/", "rating": 4.1, "reviews": 17, "place_id": "ChIJ7QiHic7hRYgRbPC2EC4YMdE", "latitude": 38.4109548, "longitude": -82.34206929999999, "care_type": "Plastic Surgeon"}, {"name": "Dr. David A. Kappel, MD", "address": "40 Medical Park Rd #200, Wheeling, WV 26003", "city": "Wheeling", "phone": "+1 304-242-0590", "website": "", "rating": null, "reviews": 0, "place_id": "ChIJqTrollPaNYgR22pZDHUKAHs", "latitude": 40.0593074, "longitude": -80.68405949999999, "care_type": "Plastic Surgeon"}, {"name": "Majed Sarouf Maalouf", "address": "1 Medical Center Dr, Morgantown, WV 265061200", "city": "Morgantown", "phone": "+1 304-293-4500", "website": "https://directory.hsc.wvu.edu/Profile/77262", "rating": 5.0, "reviews": 1, "place_id": "ChIJ__8_HAx7NYgRJCQVcaPj0HI", "latitude": 39.6534472, "longitude": -79.9574781, "care_type": "Plastic Surgeon"}, {"name": "Ruby Hospital: Timberlake Gregory MD", "address": "Medical Center Dr, Morgantown, WV 26506", "city": "Morgantown", "phone": "+1 304-293-3311", "website": "", "rating": null, "reviews": 0, "place_id": "ChIJQYLYKgx7NYgRA-gQ08lsSbw", "latitude": 39.653548, "longitude": -79.95580629999999, "care_type": "Plastic Surgeon"}, {"name": "Skinsational Medspa", "address": "1100 Fort Pierpont Dr Suite 102, Morgantown, WV 26508", "city": "Morgantown", "phone": "+1 304-355-3110", "website": "https://yourdreambody.com/med-spa", "rating": 4.9, "reviews": 70, "place_id": "ChIJ4SjO8_llNYgRD7-M5pfauY4", "latitude": 39.651977, "longitude": -79.891667, "care_type": "Plastic Surgeon"}, {"name": "Natural Medical Aesthetics", "address": "1195 Pineview Dr Suite 5, Morgantown, WV 26505", "city": "Morgantown", "phone": "+1 304-244-0755", "website": "http://www.naturalmedicalaesthetics.com/", "rating": 5.0, "reviews": 42, "place_id": "ChIJrbUXeAx7NYgRuzXofW4keeI", "latitude": 39.6597638, "longitude": -79.95437489999999, "care_type": "Plastic Surgeon"}, {"name": "Dermatology Center for Skin Health, PLLC", "address": "600 Suncrest Towne Centre Drive #115, Morgantown, WV 26505", "city": "Morgantown", "phone": "+1 304-598-3888", "website": "http://www.wvdermcenter.com/", "rating": 4.9, "reviews": 791, "place_id": "ChIJiZCRewV7NYgRDIfF2qR-RAQ", "latitude": 39.6519479, "longitude": -79.9389759, "care_type": "Plastic Surgeon"}, {"name": "Pineview Dermatology", "address": "1311 Pineview Dr, Morgantown, WV 26505", "city": "Morgantown", "phone": "+1 304-598-7546", "website": "https://www.pineviewderm.com/", "rating": 4.9, "reviews": 178, "place_id": "ChIJYdli3AR7NYgRLZltxjIrjJ8", "latitude": 39.6618797, "longitude": -79.9539762, "care_type": "Plastic Surgeon"}, {"name": "Empire Aesthetics", "address": "21 Armory Dr, Wheeling, WV 26003", "city": "Wheeling", "phone": "+1 304-780-8101", "website": "https://empireaesthetic.net/", "rating": 5.0, "reviews": 222, "place_id": "ChIJJezRKzvbNYgRH-c39LP3rLI", "latitude": 40.0656815, "longitude": -80.6936037, "care_type": "Plastic Surgeon"}, {"name": "Robert E. Bowen, MD, LTD", "address": "2000 Foundation Way #3700, Martinsburg, WV 25401", "city": "Martinsburg", "phone": "+1 304-264-9080", "website": "https://www.drrobertbowen.com/%3Futm_source%3Dgoogle%26utm_medium%3Dwix_google_business_profile%26utm_campaign%3D17192738975899516365", "rating": 4.9, "reviews": 405, "place_id": "ChIJg2hcuK4DyokRegHPqsR2XjA", "latitude": 39.4738887, "longitude": -77.9808968, "care_type": "Plastic Surgeon"}, {"name": "Donald E. Sweitzer, MD", "address": "600 Morris St #103, Charleston, WV 25301", "city": "Charleston", "phone": "+1 304-388-7040", "website": "https://www.camc.org/", "rating": null, "reviews": 0, "place_id": "ChIJyQaTq_ItT4gRdofpklkz3vE", "latitude": 38.3478422, "longitude": -81.6247005, "care_type": "Plastic Surgeon"}, {"name": "Empire Wellness & Aesthetics", "address": "722 1st Ave S Apartment E, Nitro, WV 25143", "city": "Nitro", "phone": "+1 304-860-6918", "website": "https://empirewellnesswv.com/", "rating": 5.0, "reviews": 0, "place_id": "ChIJqwh2vIfLSIgRXJHXOTMXA5A", "latitude": 38.3923713, "longitude": -81.8250912, "care_type": "Plastic Surgeon"}, {"name": "Arvessa Skin Care Center", "address": "710 Somerset Blvd Suite 103, Charles Town, WV 25414", "city": "Charles Town", "phone": "+1 304-728-8661", "website": "https://arvessaskincarecenter.com/", "rating": 4.4, "reviews": 40, "place_id": "ChIJtTJS57sDtokRYBgSSGgHdhk", "latitude": 39.30057619999999, "longitude": -77.8208999, "care_type": "Plastic Surgeon"}, {"name": "Revived and Timeless Aesthetics LLC", "address": "245 Greens Plaza, Grafton, WV 26354", "city": "Grafton", "phone": "+1 304-626-0298", "website": "https://revivedandtimelessaesthetics.com/", "rating": null, "reviews": 0, "place_id": "ChIJMWCrs7CLSogRhF50daPo6vQ", "latitude": 39.3453614, "longitude": -79.9993432, "care_type": "Plastic Surgeon"}, {"name": "Allure Airbrush and Aesthetics", "address": "231 Straight St, Ripley, WV 25271", "city": "Ripley", "phone": "+1 304-532-1973", "website": "https://allureairbrushandaesthetics.com/", "rating": 5.0, "reviews": 10, "place_id": "ChIJi3xL1n1OTqoRZUa8vPHk9L8", "latitude": 38.8214808, "longitude": -81.7175401, "care_type": "Plastic Surgeon"}, {"name": "Valley Vogue Aesthetics", "address": "1735 Jefferson St N, Lewisburg, WV 24901", "city": "Lewisburg", "phone": "+1 304-520-3296", "website": "http://valleyvogueaesthetics.com/", "rating": 5.0, "reviews": 23, "place_id": "ChIJBcNOfzVHTIgRP7mAWH85FAM", "latitude": 37.8098476, "longitude": -80.4346503, "care_type": "Plastic Surgeon"}, {"name": "John D. Hayes, MD", "address": "210 Brooks St Suite 200, Charleston, WV 25301", "city": "Charleston", "phone": "+1 304-388-1930", "website": "https://www.camc.org/", "rating": 3.8, "reviews": 9, "place_id": "ChIJNeuVI8ksT4gRx_bpylCrV5I", "latitude": 38.3466329, "longitude": -81.6297994, "care_type": "Plastic Surgeon"}, {"name": "William A. Ross, MD", "address": "210 Brooks St Suite 200, Charleston, WV 25301", "city": "Charleston", "phone": "+1 304-388-1930", "website": "http://www.camc.org/", "rating": null, "reviews": 0, "place_id": "ChIJ_Z9DVpctT4gREEERTlW6eKo", "latitude": 38.346322, "longitude": -81.6296666, "care_type": "Plastic Surgeon"}, {"name": "United Hospital Center", "address": "327 Medical Park Dr, Bridgeport, WV 26330", "city": "Bridgeport", "phone": "+1 681-342-1000", "website": "https://wvumedicine.org/united-hospital-center/", "rating": 3.4, "reviews": 411, "place_id": "ChIJZ601CMtlSogRASwvHPqUXkw", "latitude": 39.3281703, "longitude": -80.2396686, "care_type": "Plastic Surgeon"}, {"name": "The Facial Center - Hurricane", "address": "200 Prestige Park Dr, Hurricane, WV 25526", "city": "Hurricane", "phone": "+1 304-760-4000", "website": "https://thefacialcenter.com/p/cosmetic-services-Charleston-WV-Teays-Valley-Office-p49048.asp", "rating": 4.9, "reviews": 0, "place_id": "ChIJcWcyWZ-2SIgR0ikBTnAHNCI", "latitude": 38.4630467, "longitude": -81.9314576, "care_type": "Plastic Surgeon"}, {"name": "Valley Vein & Med Spa", "address": "3960 Teays Valley Road Suite 2, Hurricane, WV 25526", "city": "Hurricane", "phone": "+1 304-945-4817", "website": "", "rating": 5.0, "reviews": 0, "place_id": "ChIJM686tjy1SIgRq-eAbbmnn1c", "latitude": 38.4484928, "longitude": -81.94431209999999, "care_type": "Plastic Surgeon"}, {"name": "the med spa", "address": "800 Main St, Summersville, WV 26651", "city": "Summersville", "phone": "+1 304-872-1700", "website": "https://themedspa-wv.com/", "rating": 5.0, "reviews": 37, "place_id": "ChIJdW4LWEmrTogRDNdqC9R0AYY", "latitude": 38.2809421, "longitude": -80.8508224, "care_type": "Plastic Surgeon"}, {"name": "Bella West Co.", "address": "800 Main St, Summersville, WV 26651", "city": "Summersville", "phone": "+1 304-872-1700", "website": "https://bellawestco.com/", "rating": 4.9, "reviews": 12, "place_id": "ChIJrWgcHi6rTogRFD-SA2q7FDg", "latitude": 38.2809085, "longitude": -80.85079569999999, "care_type": "Plastic Surgeon"}, {"name": "Mountain State Dermatology | Parkersburg", "address": "800 Grand Central Ave #3, Vienna, WV 26105", "city": "Vienna", "phone": "+1 304-865-0555", "website": "https://msmswv.com/locations/parkersburg-office", "rating": 4.9, "reviews": 0, "place_id": "ChIJV9ufPB1LSIgRelk0exzB7WA", "latitude": 39.2980279, "longitude": -81.5544463, "care_type": "Plastic Surgeon"}, {"name": "Icon Aesthetics", "address": "325 Ninth St, Parkersburg, WV 26101", "city": "Parkersburg", "phone": "+1 304-405-4266", "website": "https://www.icon-wv.com/%3Futm_source%3Dgoogle%26utm_medium%3Dwix_google_business_profile%26utm_campaign%3D10592085802510073402", "rating": 5.0, "reviews": 0, "place_id": "ChIJP2QVNb-5_0sReRm8g8tNX6o", "latitude": 39.2672202, "longitude": -81.55566999999999, "care_type": "Plastic Surgeon"}, {"name": "New Image Aesthetics - Med Spa & Coolsculpting Center", "address": "1500 Grand Central Ave # 106, Vienna, WV 26105", "city": "Vienna", "phone": "+1 304-422-6800", "website": "http://www.newimageaesthetics.net/", "rating": 4.4, "reviews": 0, "place_id": "ChIJh6beePpKSIgR7Odrx6TdJIk", "latitude": 39.3139597, "longitude": -81.5518259, "care_type": "Plastic Surgeon"}, {"name": "MOBO Med Spa - Mid Ohio Valley", "address": "1509 suite 10 Grand Central Ave, Vienna, WV 26105", "city": "Vienna", "phone": "+1 304-974-6626", "website": "https://midohiovalley.mobomedspa.com/", "rating": 5.0, "reviews": 0, "place_id": "ChIJwTVmwRXLSYgRtxbX602PsIU", "latitude": 39.3091124, "longitude": -81.5526369, "care_type": "Plastic Surgeon"}, {"name": "Matthew Yoak, MD", "address": "801 Garfield Ave Suite 120, Parkersburg, WV 26101", "city": "Parkersburg", "phone": "", "website": "http://wvumedicine.org/camden-clark/services/wound-and-hyperbaric-center/", "rating": null, "reviews": 0, "place_id": "ChIJxafYacxLSIgRufOD5fVpKzs", "latitude": 39.2705216, "longitude": -81.5605853, "care_type": "Plastic Surgeon"}, {"name": "MD Aesthetics of the Virginias", "address": "921 W Neville St #200, Beckley, WV 25801", "city": "Beckley", "phone": "+1 304-254-8346", "website": "https://mdfaceandskin.com/", "rating": 5.0, "reviews": 4, "place_id": "ChIJ1_h5AirzTogR4Jh1hJt-oBc", "latitude": 37.7771053, "longitude": -81.1973482, "care_type": "Plastic Surgeon"}, {"name": "Dermatology Associates & Surgical Center - Beckley", "address": "94 Brookshire Ln, Beckley, WV 25801", "city": "Beckley", "phone": "+1 304-252-2673", "website": "https://www.dascwv.com/locations/beckley-office%3Fy_source%3D1_MzE0NjAzMzYtNzE1LWxvY2F0aW9uLndlYnNpdGU%253D", "rating": 4.9, "reviews": 579, "place_id": "ChIJZza6vdaMTogRmFZy-8s6lDA", "latitude": 37.76932619999999, "longitude": -81.15777829999999, "care_type": "Plastic Surgeon"}, {"name": "Harvey Aesthetics and Wellness", "address": "103 Beckley Plaza, Beckley, WV 25801", "city": "Beckley", "phone": "+1 304-527-8887", "website": "https://harveyaesthetics.com/%3Futm_source%3Dgbp%26utm_medium%3Dorganic", "rating": 4.8, "reviews": 51, "place_id": "ChIJye63r9_zTogRYWoiur5hnhg", "latitude": 37.811409, "longitude": -81.1839651, "care_type": "Plastic Surgeon"}, {"name": "Vein Care of the Virginias", "address": "921 W Neville St #200, Beckley, WV 25801", "city": "Beckley", "phone": "+1 304-254-8346", "website": "", "rating": 3.7, "reviews": 3, "place_id": "ChIJ4UyRUP3yTogREeTRI9Lccvw", "latitude": 37.7771053, "longitude": -81.1973482, "care_type": "Plastic Surgeon"}, {"name": "Peter Ray, MD", "address": "5185 US-60 Suite 26, Huntington, WV 25705", "city": "Huntington", "phone": "+1 304-691-8910", "website": "https://www.marshallhealth.org/find-a-provider/provider-details/%3FID%3D319", "rating": 5.0, "reviews": 6, "place_id": "ChIJhVoWcDkIRogRrH9RiihOS5g", "latitude": 38.411694, "longitude": -82.3417601, "care_type": "Plastic Surgeon"}, {"name": "Huntington Elite Aesthetic Treatments", "address": "342 5th Ave, Huntington, WV 25701", "city": "Huntington", "phone": "+1 304-249-4328", "website": "https://heatwv.com/", "rating": 4.7, "reviews": 26, "place_id": "ChIJvWakN74JRogRzS-aPFe3Ozo", "latitude": 38.4183245, "longitude": -82.4526611, "care_type": "Plastic Surgeon"}, {"name": "The Retreat Aesthetics & Vitality Center", "address": "5340 US-60 Suite 112, Huntington, WV 25705", "city": "Huntington", "phone": "+1 304-933-6370", "website": "https://retreattristate.com/", "rating": 5.0, "reviews": 128, "place_id": "ChIJbTlszOAHRogRY5RkJBIBhMw", "latitude": 38.41143539999999, "longitude": -82.3369827, "care_type": "Plastic Surgeon"}, {"name": "Dr. Nathan G. Menon, MD", "address": "210 Brooks St Suite 200, Charleston, WV 25301", "city": "Charleston", "phone": "+1 304-388-1930", "website": "", "rating": 4.1, "reviews": 13, "place_id": "ChIJMUaEKMksT4gRFkFg3CmU37k", "latitude": 38.346322, "longitude": -81.6296666, "care_type": "Plastic Surgeon"}, {"name": "Trupo Frank J MD", "address": "331 Laidley St # 510, Charleston, WV 25301", "city": "Charleston", "phone": "+1 304-346-4444", "website": "", "rating": null, "reviews": 0, "place_id": "ChIJX7ga3swsT4gRFkHGh-BxXvA", "latitude": 38.3540548, "longitude": -81.6330263, "care_type": "Plastic Surgeon"}]