[{"name": "True Body Medical Spa", "address": "902 Blackburn St, Cody, WY 82414", "city": "Cody", "phone": "+1 307-243-3554", "website": "https://truebodymedispa.com/", "rating": 5.0, "reviews": 242, "place_id": "ChIJ6S1pyQEfTFMRwQXk8XNRQpI", "latitude": 44.5285428, "longitude": -109.0417857, "care_type": "Plastic Surgeon"}, {"name": "Avri Aesthetics", "address": "125 W Yellowstone Ave, Cody, WY 82414", "city": "Cody", "phone": "+1 307-587-1257", "website": "https://avriaesthetics.com/", "rating": 5.0, "reviews": 1, "place_id": "ChIJA9aYqbIfTFMRy7lbl3LCYQY", "latitude": 44.5151751, "longitude": -109.0989313, "care_type": "Plastic Surgeon"}, {"name": "Mountain West Eye Care and Med Spa", "address": "607 Big Horn Ave, Worland, WY 82401", "city": "Worland", "phone": "+1 307-431-6398", "website": "https://mountainwesteye.com/", "rating": 4.9, "reviews": 108, "place_id": "ChIJ32zp__BtS1MRcRG9mf597IY", "latitude": 44.0171539, "longitude": -107.9610514, "care_type": "Plastic Surgeon"}, {"name": "Signature Plastic Surgery & Aesthetics Dr. Laura B. Cooper, M.D. Jackson WY", "address": "260 N Millward St, Jackson, WY 83001", "city": "Jackson", "phone": "+1 307-699-3115", "website": "https://signatureplasticsurgeryjh.com/%3Futm_source%3DLocal%2BFlow%2BMarketing_gbp%26utm_medium%3Dorganic%26utm_campaign%3Dsignatureps-jackson", "rating": 5.0, "reviews": 85, "place_id": "ChIJ-UzRETYbU1MRAn1esjmjLzo", "latitude": 43.4827576, "longitude": -110.7648362, "care_type": "Plastic Surgeon"}, {"name": "Joseph F. Looby, DO", "address": "2301 House Ave Suite 507, Cheyenne, WY 82001", "city": "Cheyenne", "phone": "+1 307-638-8987", "website": "https://cheyenneregional.org/provider/looby-joseph-f-do/", "rating": 4.9, "reviews": 372, "place_id": "ChIJnV3ZT-Y6b4cRZpQy-GpXBFU", "latitude": 41.140318, "longitude": -104.815729, "care_type": "Plastic Surgeon"}, {"name": "New Beautiful You", "address": "204 S Durbin St, Casper, WY 82601", "city": "Casper", "phone": "+1 307-234-4585", "website": "https://nbymedispa.com/", "rating": 4.9, "reviews": 220, "place_id": "ChIJ63KyOYO8YIcR9y2T_xerVnM", "latitude": 42.84843619999999, "longitude": -106.3225751, "care_type": "Plastic Surgeon"}, {"name": "Benessere Clinic", "address": "202 S 6th St E, Riverton, WY 82501", "city": "Riverton", "phone": "+1 307-463-0107", "website": "http://benesserewy.com/%3Futm_source%3Dgoogle%26utm_medium%3Dgbp%26utm_campaign%3DRiverton", "rating": 5.0, "reviews": 43, "place_id": "ChIJte-Bwh_dWIcRxy9TssGR8Ew", "latitude": 43.0234298, "longitude": -108.3837705, "care_type": "Plastic Surgeon"}, {"name": "Artistry MedSpa & Aesthetics", "address": "705 E Washington Ave Basement Suite, Riverton, WY 82501", "city": "Riverton", "phone": "+1 307-851-7969", "website": "", "rating": 5.0, "reviews": 4, "place_id": "ChIJO5slXuDdWIcRcgtQDicOsFo", "latitude": 43.0233725, "longitude": -108.3815685, "care_type": "Plastic Surgeon"}, {"name": "Central Wyoming Skin Clinic", "address": "1025 College View Dr, Riverton, WY 82501", "city": "Riverton", "phone": "+1 307-234-0003", "website": "http://www.wyoskindoc.com/", "rating": 3.2, "reviews": 6, "place_id": "ChIJKT4Zn1DdWIcRqVBrN8iz2go", "latitude": 43.0358119, "longitude": -108.420004, "care_type": "Plastic Surgeon"}, {"name": "Advanced Dermatology and Cosmetic Surgery", "address": "250 Veronica Ln #201, Jackson, WY 83001", "city": "Jackson", "phone": "+1 307-734-5864", "website": "https://www.advancedderm.com/locations/wyoming/jackson/250-veronica-ln-ste-201", "rating": 4.7, "reviews": 263, "place_id": "ChIJb03E9kUaU1MRyrgs7PPw8XE", "latitude": 43.47095849999999, "longitude": -110.787443, "care_type": "Plastic Surgeon"}, {"name": "Grand Aesthetics", "address": "988 US-89, Jackson, WY 83001", "city": "Jackson", "phone": "+1 307-413-0230", "website": "https://www.grandaestheticsjh.com/contact", "rating": 5.0, "reviews": 32, "place_id": "ChIJ0Rd2PpgQU1MRSAO8LZHxiQw", "latitude": 43.46597329999999, "longitude": -110.7929246, "care_type": "Plastic Surgeon"}, {"name": "John C. Payne, DO", "address": "555 E Broadway Ave #211, Jackson, WY 83001", "city": "Jackson", "phone": "+1 307-733-8070", "website": "", "rating": 5.0, "reviews": 2, "place_id": "ChIJITQjONcbU1MRymSEHmocr5k", "latitude": 43.4806037, "longitude": -110.7512022, "care_type": "Plastic Surgeon"}, {"name": "Dr. Allen Coffey, MD", "address": "1129 E 2nd St, Casper, WY 82601", "city": "Casper", "phone": "+1 307-234-4585", "website": "", "rating": 5.0, "reviews": 0, "place_id": "ChIJy3KyOYO8YIcRvwS22-4Qp1M", "latitude": 42.848394, "longitude": -106.310191, "care_type": "Plastic Surgeon"}, {"name": "Rejuvenate You", "address": "940 E 3rd St Suite 215, Casper, WY 82601", "city": "Casper", "phone": "+1 307-333-5056", "website": "http://www.rejuvenateyou307.com/", "rating": 5.0, "reviews": 0, "place_id": "ChIJq_tT7Jy8YIcRMr1o9CibICk", "latitude": 42.847955, "longitude": -106.3128088, "care_type": "Plastic Surgeon"}, {"name": "Wyoming Reconstructive-Plastic", "address": "918 E 2nd St, Casper, WY 82601", "city": "Casper", "phone": "+1 307-472-4300", "website": "", "rating": null, "reviews": 0, "place_id": "ChIJKfK_hZy8YIcRMzx4oOkfrwY", "latitude": 42.8489674, "longitude": -106.3132233, "care_type": "Plastic Surgeon"}, {"name": "Wyoming Reconstructive-Plastic: Jaouen Richard M MD", "address": "1129 E 2nd St, Casper, WY 82601", "city": "Casper", "phone": "+1 307-472-4300", "website": "https://newbeautifulyouinc.com/", "rating": 5.0, "reviews": 1, "place_id": "ChIJKfK_hZy8YIcRzFYZH2Ljenk", "latitude": 42.8483943, "longitude": -106.310191, "care_type": "Plastic Surgeon"}, {"name": "Ageless Perfection Medical Aesthetics", "address": "121 N Bent St, Powell, WY 82435", "city": "Powell", "phone": "+1 307-464-8683", "website": "http://agelessperfectionwy.com/", "rating": 5.0, "reviews": 23, "place_id": "ChIJo7HxjiNTSVMR1y8-RFQqres", "latitude": 44.7535661, "longitude": -108.7573171, "care_type": "Plastic Surgeon"}, {"name": "Northern Wyoming Wellness + Aesthetics", "address": "246 N Absaroka St, Powell, WY 82435", "city": "Powell", "phone": "+1 307-764-5470", "website": "https://northernwyomingwellnessaesthetics.com/", "rating": 5.0, "reviews": 54, "place_id": "ChIJT1iDbDdTSVMRP8qiH6Ut-BM", "latitude": 44.7547952, "longitude": -108.7594549, "care_type": "Plastic Surgeon"}, {"name": "Dr. Scott Sulentich", "address": "1180 College Dr Suite 3-3, Rock Springs, WY 82901", "city": "Rock Springs", "phone": "+1 307-362-8211", "website": "", "rating": 4.3, "reviews": 4, "place_id": "ChIJhwNa0fxgWocRViIQVjx_Gs4", "latitude": 41.5913761, "longitude": -109.2343481, "care_type": "Plastic Surgeon"}, {"name": "The Gym Aesthetics", "address": "1403 Odell Ct Suite B, Sheridan, WY 82801", "city": "Sheridan", "phone": "+1 307-752-0855", "website": "https://www.thegymaesthetics.com/", "rating": 5.0, "reviews": 56, "place_id": "ChIJbTvym8TxNVMRHw_Su8G6kQo", "latitude": 44.78406469999999, "longitude": -106.9455585, "care_type": "Plastic Surgeon"}, {"name": "Aesthetics Center of the Big Horns", "address": "215 Coffeen Ave, Sheridan, WY 82801", "city": "Sheridan", "phone": "+1 307-429-1180", "website": "http://acotbh.com/", "rating": 5.0, "reviews": 3, "place_id": "ChIJLYoDGiH7NVMRAwrZcvrCVKc", "latitude": 44.793783, "longitude": -106.9522395, "care_type": "Plastic Surgeon"}, {"name": "Advanced Dermatology and Cosmetic Surgery", "address": "47 Doc Perkes Ln, Afton, WY 83110", "city": "Afton", "phone": "+1 307-734-5864", "website": "https://www.advancedderm.com/locations/wyoming/afton/47-doc-perkes-ln", "rating": 4.8, "reviews": 43, "place_id": "ChIJdwrzfPFyVocR-hkny5ViKZ0", "latitude": 42.7177568, "longitude": -110.9330193, "care_type": "Plastic Surgeon"}, {"name": "Ascent Medical Spa & Wellness", "address": "1174 N 22nd St, Laramie, WY 82072", "city": "Laramie", "phone": "+1 307-314-4350", "website": "https://www.ascentmedwyo.com/", "rating": 4.9, "reviews": 48, "place_id": "ChIJHZAZCUyRaIcRIuyfp7YFpQM", "latitude": 41.3221795, "longitude": -105.5680112, "care_type": "Plastic Surgeon"}, {"name": "Thornton William R MD", "address": "1909 Vista Dr, Laramie, WY 82070", "city": "Laramie", "phone": "+1 307-745-8851", "website": "http://www.premierboneandjoint.com/", "rating": null, "reviews": 0, "place_id": "ChIJV0FG5vqQaIcRyxUaKsH07Rk", "latitude": 41.3007424, "longitude": -105.5377663, "care_type": "Plastic Surgeon"}, {"name": "Aesthetics By Summit", "address": "1414 W 4th St, Gillette, WY 82716", "city": "Gillette", "phone": "+1 307-682-1985", "website": "https://www.aestheticsbysummit.com/", "rating": 5.0, "reviews": 66, "place_id": "ChIJ45rOmhOVNFMRcZ1RiJdvVds", "latitude": 44.291287, "longitude": -105.5244427, "care_type": "Plastic Surgeon"}, {"name": "Allure Medical Spa", "address": "400 S Miller Ave, Gillette, WY 82716", "city": "Gillette", "phone": "+1 307-670-5383", "website": "https://allurewyo.com/", "rating": 5.0, "reviews": 21, "place_id": "ChIJ71Cs0AmVNFMRQiEmiycDnvA", "latitude": 44.2909393, "longitude": -105.4956665, "care_type": "Plastic Surgeon"}, {"name": "Shekinah Clinical Spa", "address": "110 East Lakeway Road #700, Gillette, WY 82718", "city": "Gillette", "phone": "+1 307-363-4727", "website": "http://shekinaclinicalspa.org/", "rating": 5.0, "reviews": 233, "place_id": "ChIJheQKpMmVNFMR3cBcEcEBB1o", "latitude": 44.2687549, "longitude": -105.5024787, "care_type": "Plastic Surgeon"}, {"name": "Dr. Ian Swift - Ear Nose & Throat - Facial Plastics Specialist", "address": "407 S Medical Arts Ct, Gillette, WY 82716", "city": "Gillette", "phone": "+1 307-670-8290", "website": "", "rating": 4.5, "reviews": 34, "place_id": "ChIJc_tmE0CUNFMR-a1Yd8sPASA", "latitude": 44.290583, "longitude": -105.5205469, "care_type": "Plastic Surgeon"}]